[{"name":"EMEL Bus Station Leontiou A´","lat":34.679235,"lng":33.037235},{"name":"Gladstonos - Leontiou Machaira","lat":34.67926,"lng":33.041831},{"name":"Gladstonos - Christodoulou Karydi","lat":34.681847,"lng":33.046003},{"name":"B´ Elementary School 1","lat":34.683001,"lng":33.047641},{"name":"Gladstonos - Michail Koutsofta","lat":34.684081,"lng":33.05143},{"name":"Kalogries - Courthouses","lat":34.684956,"lng":33.052707},{"name":"Archiep. Makariou C´ Ave. - Griva Digeni 1","lat":34.686705,"lng":33.052709},{"name":"Archiep. Makariou C´ Ave. - Kosta Partasidi","lat":34.687383,"lng":33.047862},{"name":"Agias Zonis - Tyrtaiou","lat":34.689801,"lng":33.044511},{"name":"Archiep. Makariou C´ Ave. - Michail Karaoli","lat":34.692705,"lng":33.044939},{"name":"Archiep. Makariou C´ Ave. - Sfakion","lat":34.695699,"lng":33.045159},{"name":"Archiep. Makariou C´ Ave. - Dimitriou Charalampous","lat":34.699829,"lng":33.045674},{"name":"Apostolos Andreas Church","lat":34.702272,"lng":33.047412},{"name":"Georgiou Kalogeropoulou - Androkleous 1","lat":34.706287,"lng":33.042773},{"name":"Georgiou Kalogeropoulou - Kato Zodeias 1","lat":34.706504,"lng":33.04024},{"name":"Katinas Paxinou - Panikou Charaki","lat":34.709237,"lng":33.039902},{"name":"Grammar School 1","lat":34.708946,"lng":33.044227},{"name":"Mersinakiou 2","lat":34.708268,"lng":33.048638},{"name":"Agios Athanasios Municipality 1","lat":34.708899,"lng":33.049217},{"name":"Sfalangiotissis - Armenias","lat":34.712804,"lng":33.04982},{"name":"Nyremvergis - Sfalangiotissis 1","lat":34.714003,"lng":33.05064},{"name":"Christoforou Savva - Agiou Sergiou","lat":34.712443,"lng":33.051567},{"name":"Anoikodomiseos - Aretis 1","lat":34.709284,"lng":33.056763},{"name":"Anoikodomiseos - Agiou Athanasiou","lat":34.710482,"lng":33.059079},{"name":"Charalampou Evagorou - Salaminos","lat":34.71123,"lng":33.060609},{"name":"Charalampou Evagorou - Kosta Monti","lat":34.713032,"lng":33.064421},{"name":"Agios Athanasios Cemetery 1","lat":34.714591,"lng":33.066224},{"name":"Kokkinogias - Adamantiou Diamanti 1","lat":34.714247,"lng":33.067273},{"name":"Kokkinogias - Agiou Epiktitou 1","lat":34.712263,"lng":33.067369},{"name":"Agiou Epiktitou - Manou Katraki 1","lat":34.709666,"lng":33.067869},{"name":"Michali Zavou - Georgiou Averof","lat":34.708871,"lng":33.07049},{"name":"Michail Zavou - Dimitri Lagiou 1","lat":34.709438,"lng":33.073231}]