[{"name":"Palodeia Community Board 2","lat":34.745513,"lng":33.005626},{"name":"Melathron EOKA 2","lat":34.741202,"lng":33.007155},{"name":"1 Apriliou - Aimiliou Zola 2","lat":34.720893,"lng":33.017191},{"name":"Ileias - Chytron","lat":34.717998,"lng":33.016054},{"name":"Ileias - Aristagorou","lat":34.717178,"lng":33.014329},{"name":"Kanakarias - Koutsoventi 2","lat":34.715843,"lng":33.014438},{"name":"19 Elementary School - Agia Fylaxi 1","lat":34.715843,"lng":33.017299},{"name":"Kanakarias - Feretimis","lat":34.716618,"lng":33.019647},{"name":"1 Apriliou - Kanakarias 2","lat":34.717375,"lng":33.021111},{"name":"E.N.A.F. Theatre 2","lat":34.713966,"lng":33.023054},{"name":"1 Apriliou - Kallinikou","lat":34.712866,"lng":33.023228},{"name":"Agias Fylaxeos - Meleagrou 2","lat":34.71099,"lng":33.023992},{"name":"Evagora Laniti - Domnitsas L. Kavounidou","lat":34.707077,"lng":33.022397},{"name":"Domnitsas Lanitou Kavounidou - Evagora Laniti 2","lat":34.705959,"lng":33.021414},{"name":"Agias Fylaxeos - Zinonos Rossidi","lat":34.702864,"lng":33.028052},{"name":"Akanthous - Patroklou Kokkinou","lat":34.702485,"lng":33.030061},{"name":"Rizokarpasou 2","lat":34.703955,"lng":33.031153},{"name":"Agia Marina Church 2","lat":34.702403,"lng":33.032845},{"name":"Ierou Lochou - Sofias Vempo 2","lat":34.700275,"lng":33.033259},{"name":"Agias Fylaxeos - Spyrou Kyprianou Ave.","lat":34.698435,"lng":33.032407},{"name":"Agias Fylaxeos - Kissamou","lat":34.695513,"lng":33.03412},{"name":"Agias Fylaxeos - Aigyptou","lat":34.693565,"lng":33.034742},{"name":"Agias Fylaxeos - Alkyonis","lat":34.691319,"lng":33.035625},{"name":"Dodeka Apostolon Church","lat":34.689146,"lng":33.03665},{"name":"Laniteio Lyceum 1","lat":34.687712,"lng":33.037196},{"name":"Agias Fylaxeos - Episkopou Lavrentiou 2","lat":34.685466,"lng":33.037719},{"name":"Agias Fylaxeos - Athinaidos Z. Lanitou","lat":34.681642,"lng":33.038863},{"name":"Agias Fylaxeos - Athinaidos Lanitou","lat":34.680785,"lng":33.039616},{"name":"EMEL Bus Station Leontiou AÂ´","lat":34.679235,"lng":33.037235}]