[{"name":"Makario Stadium Bus Station","lat":35.148468,"lng":33.314107},{"name":"Ave. Iroon - Morfou Avenue","lat":35.143203,"lng":33.303318},{"name":"Ave. Anthoupoleos - Eptanisou","lat":35.124205,"lng":33.295301},{"name":"Ave. Anthoupoleos - Dodekanisou","lat":35.121412,"lng":33.29449},{"name":"Kykladon - Naxou","lat":35.12231,"lng":33.292167},{"name":"Kykladon 1","lat":35.120945,"lng":33.289923},{"name":"Kykladon - Aigaiou","lat":35.118279,"lng":33.288564},{"name":"Kykladon - Agiou Georgiou Avenue 1","lat":35.115857,"lng":33.287063},{"name":"Ave. Agiou Georgiou - Sporadon","lat":35.114627,"lng":33.288639},{"name":"Ave. Agiou Georgiou - Evoias","lat":35.113107,"lng":33.290795},{"name":"Ave. Eleftherias - Andrianis","lat":35.11103,"lng":33.292247},{"name":"Ave. Eleftherias - Aiglis","lat":35.109076,"lng":33.290781},{"name":"Anthoupoli Elementary School 2","lat":35.106493,"lng":33.288774},{"name":"Ave. Eleftherias - Dimokratias","lat":35.103934,"lng":33.288063},{"name":"Ave. Anthoup.-Palaichoriou - Da Luz Soccer Field 1","lat":35.091342,"lng":33.278024},{"name":"Grammar School 1","lat":35.090429,"lng":33.271307},{"name":"Ave. Anthoupoleos - Palaichoriou - Ag. Spyridonos","lat":35.089537,"lng":33.26662},{"name":"Archiepiskopou Makariou C - Dimokratias","lat":35.07522,"lng":33.252884},{"name":"Archiepiskopou Makariou C - Spyrou Kyprianou","lat":35.074319,"lng":33.248527},{"name":"Archiep. Makariou C - Christodoulou Kourtela","lat":35.071191,"lng":33.243231},{"name":"Lefkosia-Palaichori Road - Ergates Ind. Area 1","lat":35.06825,"lng":33.225564},{"name":"Georgiou Griva Digeni - Kampou","lat":35.053798,"lng":33.203505},{"name":"Ave. Arch. Makariou C - Misiaouli kai Kavazoglou","lat":35.051142,"lng":33.200834},{"name":"Arediou Elementary School 1","lat":35.048084,"lng":33.195826},{"name":"Ave. Archiepiskopou Makariou C - Dikomou","lat":35.044896,"lng":33.193351},{"name":"Tamasos Bus Station","lat":35.043261,"lng":33.189916}]