[{"name":"Mouttagiaka Square","lat":34.720212,"lng":33.100501},{"name":"Agiou Georgiou - Evagora Pallikaridi 2","lat":34.719702,"lng":33.096241},{"name":"Mouttagiaka Elementary School 2","lat":34.722206,"lng":33.099215},{"name":"Archiep. Makariou C´ - Ammochostou 1","lat":34.725794,"lng":33.100792},{"name":"Michail Karaoli - Griva Digeni","lat":34.728498,"lng":33.102707},{"name":"Archiep. Makariou C´ - Ammochostou 2","lat":34.725857,"lng":33.100901},{"name":"Agiou Eleftheriou - Ammochostou 2","lat":34.723368,"lng":33.101761},{"name":"Agiou Eleftheriou - Archiep. Makariou C´ 2","lat":34.722538,"lng":33.102208},{"name":"Grigori Afxentiou - Keryneias","lat":34.716342,"lng":33.10232},{"name":"Petraki Giallourou - Keryneias","lat":34.716873,"lng":33.104221},{"name":"Riga Feraiou - Iakovou Patatsou","lat":34.713497,"lng":33.10722},{"name":"Anthypol. Kleanthi Kleanthous","lat":34.713893,"lng":33.108509},{"name":"Eleftherias - Rigainis 2","lat":34.714968,"lng":33.10684},{"name":"Dimokratias - Eleftherias","lat":34.713634,"lng":33.105244},{"name":"Ariadnis - Profiti Ilia","lat":34.70549,"lng":33.10662},{"name":"Vasileos Georgiou A´ - Pervolas","lat":34.701335,"lng":33.1043},{"name":"Vasileos Georgiou A´ - Stymfalion","lat":34.699373,"lng":33.099952},{"name":"Prophitis Ilias Church 2","lat":34.701901,"lng":33.095391},{"name":"Voltairou - Ampelakion 2","lat":34.700263,"lng":33.091785},{"name":"Daidalidon - Xanthippis 2","lat":34.699678,"lng":33.090343},{"name":"Christaki Kranou - Vasileos Georgiou A´ 2","lat":34.697776,"lng":33.08854},{"name":"Vasileos Georgiou A´ - Ydras","lat":34.695738,"lng":33.088341},{"name":"Vasileos Georgiou A´ - Dasoudi Beach","lat":34.693803,"lng":33.08407},{"name":"Vasileos Georgiou A´ - Andrea Zappa","lat":34.692776,"lng":33.081438},{"name":"Promachon Eleftherias - KEAN 1","lat":34.690589,"lng":33.075256},{"name":"28 Oktovriou - Debenhams 1","lat":34.688032,"lng":33.068081},{"name":"28 Oktovriou - Kerkyras","lat":34.686402,"lng":33.064259},{"name":"28 Oktovriou - Akti Olympion B´ Beach","lat":34.683627,"lng":33.058842},{"name":"Limassol Municipal Open Air Theatre","lat":34.683394,"lng":33.05596},{"name":"Zoo - PASHDY","lat":34.684639,"lng":33.053886},{"name":"Gladstonos - Aristodimou Pilavaki","lat":34.683739,"lng":33.051058},{"name":"B´ Elementary School 2","lat":34.682856,"lng":33.047739},{"name":"Gladstonos - Zinonos","lat":34.681171,"lng":33.045347},{"name":"Gladstonos - Vragadinou","lat":34.67926,"lng":33.041908},{"name":"EMEL Bus Station Leontiou A´","lat":34.679235,"lng":33.037235}]