[{"name":"Gernan Oncology Hospital 2","lat":34.728806,"lng":33.060643},{"name":"Agios Athanasios Cemetery 2","lat":34.714392,"lng":33.066213},{"name":"Charalampou Evagorou - Inomenon Ethnon","lat":34.71277,"lng":33.064192},{"name":"Charalampou Evagorou - Agiou Athanasiou","lat":34.711149,"lng":33.06062},{"name":"Anoikodomiseos - Monemvasias","lat":34.710428,"lng":33.059254},{"name":"Anoikodomiseos - Aretis 2","lat":34.709392,"lng":33.057495},{"name":"Anoikodomiseos - Machiton Eldyk","lat":34.708888,"lng":33.055191},{"name":"Charalampou Fteroudi - Agiou Mina","lat":34.708601,"lng":33.051663},{"name":"Renatou Kartesiou - Mersinakiou 2","lat":34.707195,"lng":33.048539},{"name":"14 Elementary School - Mesa Geitonia","lat":34.701911,"lng":33.047291},{"name":"Archiep. Makariou C´ Ave. - Grigori Afxentiou","lat":34.699648,"lng":33.045794},{"name":"Markou Drakou - Dimitriou Charalampous 2","lat":34.700199,"lng":33.044648},{"name":"Markou Drakou - Avraam Linkoln","lat":34.701804,"lng":33.044103},{"name":"Markou Drakou - Feidonos 2","lat":34.70258,"lng":33.043022},{"name":"Kalogeropoulos High School 2","lat":34.702942,"lng":33.040303},{"name":"Kosti Palama - Eresou 2","lat":34.702032,"lng":33.038643},{"name":"Kosti Palama - Filopappou 2","lat":34.699597,"lng":33.039275},{"name":"Kosti Palama - Str. Alexandrou Papagou 2","lat":34.695123,"lng":33.040791},{"name":"Kosti Palama - Michail Georgalla 2","lat":34.693734,"lng":33.041041},{"name":"Agios Nektarios Church","lat":34.691877,"lng":33.040986},{"name":"12 Elementary School - Laniteio","lat":34.690957,"lng":33.039774},{"name":"Kritis - Vasileiou Tou Megalou 2","lat":34.690083,"lng":33.038332},{"name":"Laniteio Lyceum 1","lat":34.687712,"lng":33.037196},{"name":"Ioanni Tsirou - Post Office 2","lat":34.685845,"lng":33.03571},{"name":"Dodekanisou - Katholiki High School 2","lat":34.683483,"lng":33.034595},{"name":"Dodekanisou - Archiepiskopou Leontiou A´ 2","lat":34.680507,"lng":33.035457},{"name":"EMEL Bus Station Leontiou A´","lat":34.679235,"lng":33.037235}]