[{"name":"EMEL Bus Station Leontiou A´","lat":34.679235,"lng":33.037235},{"name":"Dodekanisou - Archiep. Leontiou A´ 1","lat":34.680741,"lng":33.035249},{"name":"Dodekanisou - Katholiki High School 1","lat":34.683393,"lng":33.03453},{"name":"Ioanni Tsirou - Post Office 1","lat":34.685178,"lng":33.035022},{"name":"Archiep. Makariou C´ Ave. - Ioanni Tsirou","lat":34.686305,"lng":33.035514},{"name":"Archiep. Makariou C´ Ave. - Larnakos","lat":34.684223,"lng":33.031615},{"name":"Archiep. Makariou C´ Ave. - Fire Station 1","lat":34.681979,"lng":33.028765},{"name":"Archiep. Makariou C´ Ave. - Nikolaou Skoufa","lat":34.678427,"lng":33.024288},{"name":"Archiep. Makariou C´ Ave. - Souez 1","lat":34.676705,"lng":33.02205},{"name":"Archiep. Makariou C´ Ave. - Agios Ioannis Church","lat":34.675587,"lng":33.02062},{"name":"Agios Ioannis Police Station 1","lat":34.674054,"lng":33.018666},{"name":"Pafou - Vasileos Pavlou A´ 1","lat":34.673883,"lng":33.016373},{"name":"Pafou - Omonoias Ave.","lat":34.674812,"lng":33.01299},{"name":"Pafou - Evgeniou Voulgareos","lat":34.675777,"lng":33.009137},{"name":"Pafou - Miltonos","lat":34.675976,"lng":33.006615},{"name":"Pafou - Apostolou Vakalopoulou","lat":34.67576,"lng":33.003559},{"name":"Pafou - Sotirias Skipi","lat":34.675976,"lng":33.00131},{"name":"Pafou - 28th Elementary School 1","lat":34.677347,"lng":32.997882},{"name":"Pafou - Monovolikos 1","lat":34.678988,"lng":32.994455},{"name":"Ilia Kannaourou - Ymittou","lat":34.680998,"lng":32.988363},{"name":"Ilia Kannaourou - Dimitriou Papanikoli","lat":34.680782,"lng":32.983778},{"name":"Ilia Kannaourou - Danais","lat":34.681286,"lng":32.978604},{"name":"Ilia Kannaourou - Menelaou","lat":34.68206,"lng":32.971639},{"name":"Ilia Kannaourou - Lefkosias","lat":34.683267,"lng":32.966857},{"name":"Agios Georgios Church 1","lat":34.683816,"lng":32.962632},{"name":"Agiou Georgiou Ave. - Smyrnis","lat":34.684157,"lng":32.957479},{"name":"Agiou Georgiou Ave. - Iakovou Patatsou","lat":34.683172,"lng":32.95332},{"name":"Kolossi Community Stadium 1","lat":34.674672,"lng":32.940957},{"name":"Apostolou Louka Ave. - Archiep. Makariou C´","lat":34.672245,"lng":32.937782},{"name":"Kolossi Elementary School A´ 1","lat":34.670736,"lng":32.93297},{"name":"Pafou - 1 Maiou","lat":34.673733,"lng":32.922314},{"name":"14 Street - 15 Street 1","lat":34.670958,"lng":32.912286},{"name":"14 Street - 30 Street","lat":34.667808,"lng":32.909473},{"name":"Episkopi Community Park 1","lat":34.667383,"lng":32.907945},{"name":"Episkopi Police Station 1","lat":34.67007,"lng":32.907004},{"name":"Mykinon 1","lat":34.671423,"lng":32.907635},{"name":"Nikou Georgiou - 31 Street","lat":34.673009,"lng":32.905821},{"name":"Nikou Georgiou - Agiou Ermogenous","lat":34.67352,"lng":32.902241},{"name":"Kremastis Rodou - Spyrou Petousi","lat":34.674572,"lng":32.898517},{"name":"Kremastis Rodou - Konstantinou Kavafi","lat":34.674706,"lng":32.896563},{"name":"Kremastis Rodou - Aikaterinis Kornaro","lat":34.675713,"lng":32.893811},{"name":"Episkopiana","lat":34.678145,"lng":32.890129},{"name":"Kremastis Rodou - Aisopou","lat":34.67602,"lng":32.893538},{"name":"Kremastis Rodou - Aristotelous","lat":34.674984,"lng":32.895635},{"name":"Nikou Georgiou - Agiou Mamantos","lat":34.673574,"lng":32.902295},{"name":"Episkopi Community Council 1","lat":34.670995,"lng":32.902582},{"name":"1 Street - 1 Street Side-Street","lat":34.669517,"lng":32.902987},{"name":"9 Street 1","lat":34.666269,"lng":32.901627},{"name":"14 Street - 29 Street","lat":34.664808,"lng":32.901705},{"name":"Agios Ermogenis","lat":34.66231,"lng":32.891165},{"name":"Kourion Beach - 1st Stop 1","lat":34.663248,"lng":32.881701},{"name":"Kourion Beach","lat":34.665185,"lng":32.879046}]