[{"name":"EMEL Bus Station Leontiou AÂ´","lat":34.679235,"lng":33.037235},{"name":"Navarinou - Simou Menardou 1","lat":34.676277,"lng":33.038577},{"name":"Gilntiz - Mestzit","lat":34.673987,"lng":33.034515},{"name":"Misiaouli kai Kavazoglou - Peloponnisou","lat":34.674105,"lng":33.03064},{"name":"Misiaouli kai Kavazoglou - Ionos Dragoumi","lat":34.674386,"lng":33.02718},{"name":"Misiaouli kai Kavazoglou - Aristonikou","lat":34.673837,"lng":33.023687},{"name":"Dimokratias - Zacharia Papantoniou","lat":34.671907,"lng":33.022507},{"name":"Dimokratias - Kopernikou","lat":34.670888,"lng":33.022933},{"name":"Department of Lands and Surveys 1","lat":34.668624,"lng":33.0241},{"name":"Fragklinou Rousvelt - Synergatismou","lat":34.666487,"lng":33.024241},{"name":"Fragklinou Rousvelt - Aimilou Veaki","lat":34.664143,"lng":33.019526},{"name":"Fragklinou Rousvelt - Dekeleias","lat":34.661628,"lng":33.014014},{"name":"Fragklinou Rousvelt - Evrypolou","lat":34.660185,"lng":33.008076},{"name":"Fragklinou Rousvelt - Oinouson 1","lat":34.659482,"lng":33.004769},{"name":"16 Elementary School - Zakaki 1","lat":34.658328,"lng":33.00203},{"name":"Fragklinou Rousvelt - Renouar","lat":34.657255,"lng":32.999367},{"name":"Asomatos Community Board 1","lat":34.638346,"lng":32.95952},{"name":"Genniseos Avenue - Michalaki Neokleous","lat":34.637786,"lng":32.956902},{"name":"Fasouri 1","lat":34.636926,"lng":32.946537},{"name":"Akrotiri Community Board","lat":34.601074,"lng":32.957085}]