[{"name":"Agios Tychonas Community Board 2","lat":34.725819,"lng":33.139643},{"name":"Agios Tychonas Elementary School 2","lat":34.725109,"lng":33.137632},{"name":"Georgiou Griva Digeni - Vyzantiou","lat":34.718702,"lng":33.13334},{"name":"Georgiou Griva Digeni - Kirkis","lat":34.715902,"lng":33.129382},{"name":"Agia Anna Church 2","lat":34.713965,"lng":33.127785},{"name":"Mesolongiou - Georgiou Griva Digeni 2","lat":34.711097,"lng":33.127496},{"name":"Onisilou 2","lat":34.709702,"lng":33.124983},{"name":"Amathountos Ave. - Armonia Beach","lat":34.707685,"lng":33.122118},{"name":"Amathountos Ave. - Poseidonia Hotel","lat":34.705985,"lng":33.117344},{"name":"Amathountos Ave. - Sailing Centre","lat":34.705105,"lng":33.114154},{"name":"Amathountos Ave. - Marathon Hotel","lat":34.703458,"lng":33.109784},{"name":"Vasileos Georgiou A´ - Pervolas","lat":34.701335,"lng":33.1043},{"name":"Vasileos Georgiou A´ - Stymfalion","lat":34.699373,"lng":33.099952},{"name":"Vasileos Georgiou A´ - Apollonia Hotel 1","lat":34.698222,"lng":33.095343},{"name":"Vasileos Georgiou A´ - Amerikanas","lat":34.696485,"lng":33.090777},{"name":"Vasileos Georgiou A´ - Ydras","lat":34.695738,"lng":33.088341},{"name":"Vasileos Georgiou A´ - Dasoudi Beach","lat":34.693803,"lng":33.08407},{"name":"Vasileos Georgiou A´ - Andrea Zappa","lat":34.692776,"lng":33.081438},{"name":"Promachon Eleftherias - KEAN 1","lat":34.690589,"lng":33.075256},{"name":"28 Oktovriou - Debenhams 1","lat":34.688032,"lng":33.068081},{"name":"Kefallinias - Lefkados 2","lat":34.688927,"lng":33.063311},{"name":"Agios Nikolaos Church 1","lat":34.688768,"lng":33.057},{"name":"Griva Digeni - Archiep. Makariou C´ Ave.","lat":34.687209,"lng":33.054761},{"name":"Zoo - PASHDY","lat":34.684639,"lng":33.053886},{"name":"Gladstonos - Aristodimou Pilavaki","lat":34.683739,"lng":33.051058},{"name":"B´ Elementary School 2","lat":34.682856,"lng":33.047739},{"name":"Gladstonos - Zinonos","lat":34.681171,"lng":33.045347},{"name":"Gladstonos - Vragadinou","lat":34.67926,"lng":33.041908},{"name":"EMEL Bus Station Leontiou A´","lat":34.679235,"lng":33.037235}]