[{"name":"Megalou Alexandrou - Ex Le Meridien","lat":34.713978,"lng":33.174985},{"name":"Megalou Alexandrou - Periyiali Gardens","lat":34.714018,"lng":33.172014},{"name":"Paradromos Amathountos - St. Raphael Hotel","lat":34.71432,"lng":33.169416},{"name":"Paradromos Amathountos - Grand Resort Hotel","lat":34.713767,"lng":33.164784},{"name":"Paradromos Amathountos - Elias Hotel","lat":34.714285,"lng":33.161989},{"name":"Amathountos Ave. - Atlantic Bay Hotel","lat":34.713684,"lng":33.152367},{"name":"Amathountos Ave. - Ancient Amathounta","lat":34.709581,"lng":33.136896},{"name":"Amathountos Ave. - Amathus hotel","lat":34.709521,"lng":33.133762},{"name":"Amathountos Ave. - Mediterranean Hotel 1","lat":34.710059,"lng":33.128914},{"name":"Amathountos Ave. - Four Seasons Hotel","lat":34.708547,"lng":33.125953},{"name":"Amathountos Ave. - Armonia Beach","lat":34.707685,"lng":33.122118},{"name":"Amathountos Ave. - Poseidonia Hotel","lat":34.705985,"lng":33.117344},{"name":"Amathountos Ave. - Sailing Centre","lat":34.705105,"lng":33.114154},{"name":"Amathountos Ave. - Marathon Hotel","lat":34.703458,"lng":33.109784},{"name":"Vasileos Georgiou A´ - Pervolas","lat":34.701335,"lng":33.1043},{"name":"Vasileos Georgiou A´ - Stymfalion","lat":34.699373,"lng":33.099952},{"name":"Vasileos Georgiou A´ - Apollonia Hotel 1","lat":34.698222,"lng":33.095343},{"name":"Vasileos Georgiou A´ - Amerikanas","lat":34.696485,"lng":33.090777},{"name":"Vasileos Georgiou A´ - Ydras","lat":34.695738,"lng":33.088341},{"name":"Vasileos Georgiou A´ - Dasoudi Beach","lat":34.693803,"lng":33.08407},{"name":"Vasileos Georgiou A´ - Andrea Zappa","lat":34.692776,"lng":33.081438},{"name":"Promachon Eleftherias - KEAN 1","lat":34.690589,"lng":33.075256},{"name":"28 Oktovriou - Debenhams 1","lat":34.688032,"lng":33.068081},{"name":"28 Oktovriou - Kerkyras","lat":34.686402,"lng":33.064259},{"name":"28 Oktovriou - Akti Olympion B´ Beach","lat":34.683627,"lng":33.058842},{"name":"28 Oktovriou - Zoo","lat":34.681645,"lng":33.055609},{"name":"Christodoulou Chatzipavlou - Mistral Hotel","lat":34.677589,"lng":33.050279},{"name":"Christodoulou Chatzipavlou - Anexartisias","lat":34.675633,"lng":33.048062},{"name":"Spyrou Araouzou - Molos Parking Place","lat":34.672974,"lng":33.044917},{"name":"Tzelal Bagiar - Agios Antonios Church 1","lat":34.671768,"lng":33.037756},{"name":"Fragklinou Rousvelt - KEO 1","lat":34.670651,"lng":33.031698},{"name":"Fragklinou Rousvelt - Water Board 1","lat":34.668984,"lng":33.028586},{"name":"Fragklinou Rousvelt - Synergatismou","lat":34.666487,"lng":33.024241},{"name":"Fragklinou Rousvelt - Aimilou Veaki","lat":34.664143,"lng":33.019526},{"name":"Omonoias Ave. - Tsiflikoudion","lat":34.662511,"lng":33.017615},{"name":"New Port","lat":34.653745,"lng":33.023223},{"name":"New Port - Passenger Building","lat":34.655693,"lng":33.022132},{"name":"Port Parallel Road - 1st Stop","lat":34.657551,"lng":33.016588},{"name":"Port Parallel Road - 2nd Stop","lat":34.654026,"lng":33.010902},{"name":"Port Parallel Road - 3rd Stop","lat":34.646848,"lng":33.004179},{"name":"Kathetos Limaniou - Kosta Monti","lat":34.649743,"lng":32.999618},{"name":"MY MALL","lat":34.650987,"lng":32.997185}]