[{"name":"EMEL Bus Station Leontiou A´","lat":34.679235,"lng":33.037235},{"name":"Navarinou - Simou Menardou 1","lat":34.676277,"lng":33.038577},{"name":"Mpagiazit ","lat":34.674546,"lng":33.036655},{"name":"Fevzi Pasa - Agkyras","lat":34.672471,"lng":33.037942},{"name":"Agias Theklis - Old Port","lat":34.671686,"lng":33.041085},{"name":"Koumandarias","lat":34.673028,"lng":33.043978},{"name":"Archiepiskopou Kyprianou","lat":34.674534,"lng":33.044678},{"name":"Sokratous","lat":34.674859,"lng":33.043401},{"name":"Kitiou Kyprianou ","lat":34.675572,"lng":33.042473},{"name":"Municipal Market - TEPAK","lat":34.676816,"lng":33.044341},{"name":"Anexartisias - District Office 1","lat":34.679774,"lng":33.043742},{"name":"Gladstonos - Vragadinou","lat":34.67926,"lng":33.041908},{"name":"EMEL Bus Station Leontiou A´","lat":34.679235,"lng":33.037235}]