[{"name":"Old Port","lat":34.671199,"lng":33.040736},{"name":"Tzelal Bagiar - Agios Antonios Church 1","lat":34.671768,"lng":33.037756},{"name":"Fragklinou Rousvelt - KEO 1","lat":34.670651,"lng":33.031698},{"name":"Fragklinou Rousvelt - Water Board 1","lat":34.668984,"lng":33.028586},{"name":"Fragklinou Rousvelt - Synergatismou","lat":34.666487,"lng":33.024241},{"name":"Fragklinou Rousvelt - Aimilou Veaki","lat":34.664143,"lng":33.019526},{"name":"Omonoias Ave. - Tsiflikoudion","lat":34.662511,"lng":33.017615},{"name":"Port Parallel Road - 1st Stop","lat":34.657551,"lng":33.016588},{"name":"Port Parallel Road - 2nd Stop","lat":34.654026,"lng":33.010902},{"name":"Port Parallel Road - 3rd Stop","lat":34.646848,"lng":33.004179},{"name":"Kathetos Limaniou - Kosta Monti","lat":34.649743,"lng":32.999618},{"name":"MY MALL","lat":34.650987,"lng":32.997185},{"name":"Fasouri Waterpark 1","lat":34.650587,"lng":32.9719},{"name":"Griva Digeni - Athanasiou Diakou","lat":34.655203,"lng":32.965886},{"name":"Kolossi Castle","lat":34.665074,"lng":32.934906},{"name":"Archiepiskopou Makariou C 2","lat":34.667825,"lng":32.93605},{"name":"Kolossi Elementary School AÂ´ 1","lat":34.670736,"lng":32.93297},{"name":"Pafou - 1 Maiou","lat":34.673733,"lng":32.922314},{"name":"14 Street - 15 Street 1","lat":34.670958,"lng":32.912286},{"name":"14 Street - 30 Street","lat":34.667808,"lng":32.909473},{"name":"14 Street - 29 Street","lat":34.665433,"lng":32.904215},{"name":"14 Street - 29 Street","lat":34.664808,"lng":32.901705},{"name":"Agios Ermogenis","lat":34.66231,"lng":32.891165},{"name":"Kourion Beach - 1st Stop 1","lat":34.663248,"lng":32.881701},{"name":"Kourion Beach","lat":34.665185,"lng":32.879046},{"name":"Kourion Beach - 1st Stop 2","lat":34.663303,"lng":32.881799},{"name":"Agios Ermogenis 2","lat":34.662382,"lng":32.89111},{"name":"Apollon Hylates Sanctuary 1","lat":34.670059,"lng":32.86664},{"name":"Garrison","lat":34.675287,"lng":32.841427},{"name":"Kensington 1","lat":34.673422,"lng":32.835951},{"name":"Happy Valley","lat":34.671991,"lng":32.818773},{"name":"Radio Sonde","lat":34.672666,"lng":32.812004}]