[{"name":"Troodos Square","lat":34.923725,"lng":32.881164},{"name":"Platres Forest Station - Kalidonia 1","lat":34.895704,"lng":32.868476},{"name":"Pano Platres Village Center 2","lat":34.888089,"lng":32.864789},{"name":"Platres Hospital 2","lat":34.882368,"lng":32.861417},{"name":"Kato Platres Community Board 2","lat":34.879738,"lng":32.842173},{"name":"Kato Platres Elementary School 2","lat":34.877769,"lng":32.839201},{"name":"Mandria 2","lat":34.871458,"lng":32.833403},{"name":"Mandria - Koilani Road 2","lat":34.864501,"lng":32.850878},{"name":"Eleftherias - 1st Pera Pedi 2","lat":34.861333,"lng":32.872721},{"name":"Panagias Faneromenis Ave. - 2nd Pera Pedi 2","lat":34.859884,"lng":32.87525},{"name":"Distrato Pera Pedi - Kouka 2","lat":34.857756,"lng":32.884323},{"name":"Distrato Pelendriou 2","lat":34.860278,"lng":32.913781},{"name":"Panagias Eleousis Ave. - 1st Trimiklini 2","lat":34.853866,"lng":32.912858},{"name":"Trimiklini Elementary School 2","lat":34.849672,"lng":32.911407},{"name":"Panagias Eleousas Church 2","lat":34.846083,"lng":32.911531},{"name":"Panagias Eleousis Ave. - 4th Trimiklini 2","lat":34.844227,"lng":32.913808},{"name":"Panagias Eleousis Ave. - 5th Trimiklini 2","lat":34.839337,"lng":32.910806},{"name":"Lemesos - Troodos Road - Laneia 2","lat":34.823034,"lng":32.912081},{"name":"Distrato Lanias - Doros 2","lat":34.816283,"lng":32.916309},{"name":"Lemesos - Troodos Road - 1st  Alassa 2","lat":34.761976,"lng":32.92799},{"name":"Polemidia - Alassa Road 2","lat":34.744727,"lng":32.981209},{"name":"The Heritage 2","lat":34.739542,"lng":32.985973},{"name":"Lemesos - Troodos Road - Argyri Gavala 2","lat":34.708927,"lng":33.000426},{"name":"Lemesos - Troodos Road - Agias Anastasias","lat":34.705419,"lng":33.003276},{"name":"Giannou Kranidioti - Evagora Laniti","lat":34.701902,"lng":33.005492},{"name":"Giannou Kranidioti - Anoixeos","lat":34.697411,"lng":33.011246},{"name":"Nikou \u0026 Despoinas Pattichi - Sp. Kyprianou Ave. 1","lat":34.691765,"lng":33.016541},{"name":"Nikou \u0026 Despoinas Pattichi - Epidamnou","lat":34.688284,"lng":33.019651},{"name":"Nikou \u0026 Despoinas Pattichi - Annis Marias","lat":34.687481,"lng":33.020907},{"name":"Nikou \u0026 Despoinas Pattichi - Dikaiarchou 2","lat":34.686362,"lng":33.023581},{"name":"Nikou \u0026 Despoinas Pattichi - Vas. Konstantinou 2","lat":34.684215,"lng":33.029159},{"name":"Archiep. Leontiou A´ - Karatza 2","lat":34.682311,"lng":33.032095},{"name":"Archiepiskopou Leontiou A´ - Filiou Zanettou","lat":34.68168,"lng":33.033132},{"name":"Archiep. Leontiou A´ - Old Hospital","lat":34.679109,"lng":33.037061},{"name":"Navarinou - Simou Menardou 1","lat":34.676277,"lng":33.038577},{"name":"Mpagiazit ","lat":34.674546,"lng":33.036655},{"name":"Fevzi Pasa - Agkyras","lat":34.672471,"lng":33.037942},{"name":"Agias Theklis - Old Port","lat":34.671686,"lng":33.041085},{"name":"Spyrou Araouzou - Agia Napa Church","lat":34.673262,"lng":33.044874},{"name":"Christodoulou Chatzipavlou - Christodoulou Sozou","lat":34.676742,"lng":33.048958},{"name":"Christodoulou Chatzipavlou - Zinas Kanther","lat":34.678157,"lng":33.050629},{"name":"28 Oktovriou - Sotiri Michailidi","lat":34.680708,"lng":33.053884},{"name":"28 Oktovriou - Municipal Art Gallery","lat":34.683276,"lng":33.057946},{"name":"28 Oktovriou - Olympic Residence","lat":34.686582,"lng":33.06427},{"name":"28 Oktovriou - Debenhams 2","lat":34.688555,"lng":33.06901},{"name":"Promachon Eleftherias - Kosta Pitsillidi","lat":34.689743,"lng":33.072482},{"name":"Promachon Eleftherias - KEAN 2","lat":34.690922,"lng":33.075562},{"name":"Vasileos Georgiou A´ - Panagioti Tsagkari","lat":34.692759,"lng":33.080815}]