[{"name":"EMEL Bus Station Leontiou A´","lat":34.679235,"lng":33.037235},{"name":"Archiep. Leontiou A´ - Panagioti Diomidous","lat":34.68131,"lng":33.033514},{"name":"Archiep. Leontiou A´ - Karatza 1","lat":34.681933,"lng":33.032542},{"name":"Nikou \u0026 Despoinas Pattichi - Vas. Konstantinou 1","lat":34.684513,"lng":33.027926},{"name":"Nikou \u0026 Despoinas Pattichi - Dikaiarchou 1","lat":34.686236,"lng":33.023483},{"name":"Nikou \u0026 Despoinas Pattichi - Nafsikas","lat":34.688329,"lng":33.019302},{"name":"Nikou \u0026 Despoinas Pattichi - Sp. Kyprianou Ave. 2","lat":34.690494,"lng":33.01725},{"name":"Paramali 1","lat":34.676331,"lng":32.792445},{"name":"Gialousas Ave. - 2nd Avdimou 1","lat":34.693141,"lng":32.763066},{"name":"Avdimou Health Centre ","lat":34.695314,"lng":32.762875},{"name":"Prastio Avdimou","lat":34.729935,"lng":32.777926}]