[{"name":"EMEL Bus Station Leontiou A´","lat":34.679235,"lng":33.037235},{"name":"Gladstonos - Leontiou Machaira","lat":34.67926,"lng":33.041831},{"name":"Gladstonos - Christodoulou Karydi","lat":34.681847,"lng":33.046003},{"name":"B´ Elementary School 1","lat":34.683001,"lng":33.047641},{"name":"Gladstonos - Michail Koutsofta","lat":34.684081,"lng":33.05143},{"name":"Kalogries - Courthouses","lat":34.684956,"lng":33.052707},{"name":"Agios Nikolaos Church 2","lat":34.689165,"lng":33.057514},{"name":"Griva Digeni - Griva Digeni Hideout 2","lat":34.691814,"lng":33.062363},{"name":"Griva Digeni - Georgiou Neofytou","lat":34.693805,"lng":33.06493},{"name":"Linopetra High School 2","lat":34.695617,"lng":33.067105},{"name":"Kolonakiou - Petrompei Mavromichali","lat":34.697977,"lng":33.071834},{"name":"Health Centre 2","lat":34.699562,"lng":33.074631},{"name":"Spyrou Kyprianou Ave. - Dodekanison","lat":34.702355,"lng":33.078837},{"name":"Spyrou Kyprianou Ave. - Samou","lat":34.704787,"lng":33.083382},{"name":"Parekklisia Community Stadium 1","lat":34.736577,"lng":33.16141},{"name":"Parekklisia Fountain 1","lat":34.739112,"lng":33.161273},{"name":"Parekklisia Elementary School 1","lat":34.741989,"lng":33.160798},{"name":"Parekklisia Village Center","lat":34.743496,"lng":33.160113},{"name":"Michail Giorgalla - 1st Parekklisia 1","lat":34.747123,"lng":33.158874},{"name":"Parekklisia - Kellaki Road 1","lat":34.807655,"lng":33.147292},{"name":"Kellaki 1","lat":34.816597,"lng":33.157488},{"name":"Eptagoneia Fire Station","lat":34.845659,"lng":33.158812},{"name":"Eptagoneia Community Board 1","lat":34.846382,"lng":33.157862},{"name":"Christaki Xeniou - 1st Eptagoneia 1","lat":34.846088,"lng":33.155487},{"name":"Eptagoneia - Arakapa - Road 1","lat":34.842714,"lng":33.125522},{"name":"1st Arakapas 1","lat":34.843119,"lng":33.116466},{"name":"Arakapas Community Board","lat":34.844006,"lng":33.113449}]