[{"name":"Agios Theodoros Church - Monagroulli 2","lat":34.748347,"lng":33.213339},{"name":"Monagroulli Community Board 2","lat":34.746256,"lng":33.212405},{"name":"Agioi Anargyroi Elementary School 2","lat":34.741624,"lng":33.211148},{"name":"3rd Moni - Monagroulli Road 2","lat":34.738254,"lng":33.209086},{"name":"Moni Health Center 2","lat":34.737543,"lng":33.202868},{"name":"Kostaki Panagiotou - 2nd Moni 2","lat":34.738817,"lng":33.20144},{"name":"Andrea Nikolaou - 3rd Moni 2","lat":34.74014,"lng":33.197904},{"name":"Andrea Nikolaou - 4th Moni 2","lat":34.740589,"lng":33.193219},{"name":"Andrea Nikolaou - 1st Pyrgos 2","lat":34.741936,"lng":33.18528},{"name":"Andrea Nikolaou - 2nd Pyrgos 2","lat":34.742714,"lng":33.183992},{"name":"Panagia Pyrgiotissa Church 2","lat":34.741136,"lng":33.183869},{"name":"Panagia Chrysopyrgotissis - 4th Pyrgos 2","lat":34.739559,"lng":33.182674},{"name":"Pyrgos Community Board 2","lat":34.740598,"lng":33.181781},{"name":"Grigori Afxentiou - 6th Pyrgos 2","lat":34.737591,"lng":33.177984},{"name":"Grigori Afxentiou - 7th Pyrgos 2","lat":34.734698,"lng":33.177191},{"name":"Grigori Afxentiou - 8th Pyrgos 2","lat":34.732792,"lng":33.173287},{"name":"Spyrou Kyprianou Ave. - Christaki Kranou","lat":34.705904,"lng":33.085338},{"name":"Spyrou Kyprianou Ave. - Methanon","lat":34.704048,"lng":33.082464},{"name":"Spyrou Kyprianou Ave. - Akarnanias","lat":34.702535,"lng":33.079951},{"name":"Kolonakiou - Pelasgon","lat":34.700769,"lng":33.076401},{"name":"Health Centre 1","lat":34.699265,"lng":33.07438},{"name":"Kolonakiou - Andrea kai Annas Poupoutsi","lat":34.697931,"lng":33.072009},{"name":"Linopetra High School 1","lat":34.695634,"lng":33.067563},{"name":"Griva Digeni - Stratigou Timagia","lat":34.693201,"lng":33.064362},{"name":"Griva Digeni - Griva Digeni Hideout 1","lat":34.691642,"lng":33.06233},{"name":"Agios Nikolaos Church 1","lat":34.688768,"lng":33.057},{"name":"Griva Digeni - Archiep. Makariou C´ Ave.","lat":34.687209,"lng":33.054761},{"name":"Archiep. Makariou C´ Ave. - Griva Digeni 1","lat":34.686705,"lng":33.052709},{"name":"Archiep. Makariou C´ Ave. - Kosta Partasidi","lat":34.687383,"lng":33.047862},{"name":"Archiep. Makariou C´ Ave. - Ipparchou","lat":34.687512,"lng":33.042479},{"name":"Laniteio School 1","lat":34.687062,"lng":33.039783},{"name":"Agias Fylaxeos - Episkopou Lavrentiou 2","lat":34.685466,"lng":33.037719},{"name":"Agias Fylaxeos - Athinaidos Lanitou","lat":34.680785,"lng":33.039616},{"name":"EMEL Bus Station Leontiou A´","lat":34.679235,"lng":33.037235}]