[{"name":"Makario Stadium Bus Station","lat":35.148468,"lng":33.314107},{"name":"Avenue Lefkotheou - Archangelou Michail","lat":35.147778,"lng":33.32303},{"name":"Archagelou Michail - Nikola Vasili Chatzigianni","lat":35.149121,"lng":33.32634},{"name":"Engomi Elementary School B 2","lat":35.151534,"lng":33.327876},{"name":"Archagelou Michail - Makedonias Avenue","lat":35.155309,"lng":33.332403},{"name":"European University 2","lat":35.159847,"lng":33.33811},{"name":"Agiou Prokopiou - Metochi Kikkou 2","lat":35.162864,"lng":33.339451},{"name":"Metochiou - Kosta Krystalli","lat":35.167223,"lng":33.344235},{"name":"Metochiou - Achaion","lat":35.168433,"lng":33.346831},{"name":"Ministry of Health 2","lat":35.169294,"lng":33.34857},{"name":"Chilonos - Nechrou Avenue","lat":35.170833,"lng":33.35276},{"name":"Museum - THOK","lat":35.1727,"lng":33.355514},{"name":"Ave. Aigyptou - Omirou Avenue","lat":35.172354,"lng":33.356655},{"name":"Solomos Square Alighting ","lat":35.170392,"lng":33.358392}]