[{"name":"EMEL Bus Station Leontiou A´","lat":34.679235,"lng":33.037235},{"name":"Agias Fylaxeos - Orfeos","lat":34.679766,"lng":33.040347},{"name":"Agias Fylaxeos - Ethnikis Antistaseos","lat":34.681859,"lng":33.038656},{"name":"Agias Fylaxeos - Episkopou Lavrentiou 1","lat":34.685268,"lng":33.037609},{"name":"Laniteio School 2","lat":34.687044,"lng":33.038953},{"name":"Archiep. Makariou C´ Ave. - Platonos","lat":34.687575,"lng":33.042239},{"name":"Archiep. Makariou C´ Ave. - Kimonos","lat":34.687718,"lng":33.046312},{"name":"Archiep. Makariou C´ Ave. - Alasias","lat":34.687401,"lng":33.04856},{"name":"Archiep. Makariou C´ Ave. - Griva Digeni 2","lat":34.686877,"lng":33.052261},{"name":"Agios Nikolaos Church 2","lat":34.689165,"lng":33.057514},{"name":"Griva Digeni - Griva Digeni Hideout 2","lat":34.691814,"lng":33.062363},{"name":"Griva Digeni - Georgiou Neofytou","lat":34.693805,"lng":33.06493},{"name":"Linopetra High School 2","lat":34.695617,"lng":33.067105},{"name":"Kolonakiou - Petrompei Mavromichali","lat":34.697977,"lng":33.071834},{"name":"Health Centre 2","lat":34.699562,"lng":33.074631},{"name":"Spyrou Kyprianou Ave. - Dodekanison","lat":34.702355,"lng":33.078837},{"name":"Spyrou Kyprianou Ave. - Samou","lat":34.704787,"lng":33.083382},{"name":"Grigori Afxentiou - 8th Pyrgos 1","lat":34.732873,"lng":33.173178},{"name":"Grigori Afxentiou - 7th Pyrgos 2","lat":34.734698,"lng":33.177191},{"name":"Grigori Afxentiou - 6th Pyrgos 2","lat":34.737591,"lng":33.177984},{"name":"Pyrgos Community Board 2","lat":34.740598,"lng":33.181781},{"name":"Panagia Chrysopyrgotissis - 4th Pyrgos 2","lat":34.739559,"lng":33.182674},{"name":"Panagia Pyrgiotissa Church 2","lat":34.741136,"lng":33.183869},{"name":"Andrea Nikolaou - 2nd Pyrgos 1","lat":34.742777,"lng":33.184047},{"name":"Andrea Nikolaou - 1st Pyrgos 2","lat":34.741936,"lng":33.18528},{"name":"Andrea Nikolaou - 4th Moni 2","lat":34.740589,"lng":33.193219},{"name":"Andrea Nikolaou - 3rd Moni 2","lat":34.74014,"lng":33.197904},{"name":"Kostaki Panagiotou - 2nd Moni 1","lat":34.738917,"lng":33.201441},{"name":"Moni Health Center 2","lat":34.737543,"lng":33.202868},{"name":"1st Moni - Monagroulli Road","lat":34.732328,"lng":33.205007},{"name":"Agios Epiktitos Church 1","lat":34.727849,"lng":33.203205},{"name":"Moni Police Station 2","lat":34.725279,"lng":33.20274},{"name":"Moni Station 2","lat":34.726943,"lng":33.205387},{"name":"Agnooumenon - 1st Pentakomo 1","lat":34.731343,"lng":33.235732},{"name":"Pentakomo Community Board 2","lat":34.734916,"lng":33.239347},{"name":"Pentakomo","lat":34.737961,"lng":33.240776}]