[{"name":"Kyperounta Hospital","lat":34.950619,"lng":32.952435},{"name":"Archiep. Makariou C Ave. - 10th Kyperounta 2","lat":34.948015,"lng":32.955733},{"name":"Archiep. Makariou C´ Ave. - 9th Kyperounta 2","lat":34.942011,"lng":32.961321},{"name":"Archiep. Makariou C´ Ave. - 7th Kyperounta 1","lat":34.941219,"lng":32.967542},{"name":"Kyperounda Winery 2","lat":34.944495,"lng":32.982084},{"name":"Georgiou Griva Digeni Ave. - 3rd Chandria 2","lat":34.944532,"lng":32.990023},{"name":"Georgiou Griva Digeni Ave. - 2nd Chandria 2","lat":34.943505,"lng":32.993834},{"name":"Chandria Square 1","lat":34.941846,"lng":32.994032},{"name":"Agridia","lat":34.927968,"lng":32.995128},{"name":"Apeitios School - Glafkos Clerides Sport Centre 1","lat":34.916812,"lng":33.01537},{"name":"Panagia Eleousa Church 2","lat":34.917596,"lng":33.018535},{"name":"Agros Post Office 2","lat":34.916514,"lng":33.01964},{"name":"C.A.P.O. Agros Office 2","lat":34.917054,"lng":33.022388},{"name":"Petrou Iliadi Ave. 2","lat":34.913654,"lng":33.023679},{"name":"Anastasi Pitta - 2nd Agios Ioannis 1","lat":34.896143,"lng":33.019165},{"name":"Kato Mylos Community Board 1","lat":34.894702,"lng":33.00637},{"name":"2nd Kato Mylos","lat":34.895017,"lng":33.003524}]