[{"name":"Agridia","lat":34.927968,"lng":32.995128},{"name":"Chandria Square 2","lat":34.941918,"lng":32.993802},{"name":"Georgiou Griva Digeni Ave. - 2nd Chandria 1","lat":34.943532,"lng":32.993605},{"name":"Georgiou Griva Digeni Ave. - 3rd Chandria 1","lat":34.944487,"lng":32.990034},{"name":"Kyperounda Winery 1","lat":34.944414,"lng":32.981919},{"name":"Archiep. Makariou C´ Ave. - 7th Kyperounta 2","lat":34.941337,"lng":32.96821},{"name":"Archiep. Makariou C´ Ave. - 9th Kyperounta 1","lat":34.941993,"lng":32.961157},{"name":"Archiep. Makariou C´ Ave. - 10th Kyperounta 1","lat":34.94861,"lng":32.955262},{"name":"Kyperounta Hospital","lat":34.950619,"lng":32.952435}]