[{"name":"1st Koilani","lat":34.854603,"lng":32.854375},{"name":"2nd Koilani 2","lat":34.845476,"lng":32.860987},{"name":"Panagias Faneromenis Ave. - 2nd Pera Pedi 2","lat":34.859884,"lng":32.87525},{"name":"Distrato Pera Pedi - Kouka 2","lat":34.857756,"lng":32.884323},{"name":"Distrato Pelendriou 2","lat":34.860278,"lng":32.913781}]