[{"name":"Distrato Pelendriou 1","lat":34.860206,"lng":32.913529},{"name":"Moniatis 1","lat":34.862306,"lng":32.912072},{"name":"Fylagra 1","lat":34.885448,"lng":32.930137},{"name":"2nd Amiantos 1","lat":34.918356,"lng":32.935506},{"name":"1st Amiantos 1","lat":34.920114,"lng":32.934596},{"name":"Archiepiskopou Makariou C´ Avenue - Karvounas 1","lat":34.942421,"lng":32.931271},{"name":"Archiep. Makariou C´ Ave. - 12th Kyperounta","lat":34.949129,"lng":32.947343},{"name":"Archiep. Makariou C´ Ave. - 11th Kyperounta 2","lat":34.949996,"lng":32.9495},{"name":"Kyperounta Hospital","lat":34.950619,"lng":32.952435},{"name":"Archiep. Makariou C Ave. - 10th Kyperounta 2","lat":34.948015,"lng":32.955733},{"name":"Archiep. Makariou C´ Ave. - 9th Kyperounta 2","lat":34.942011,"lng":32.961321},{"name":"Archiep. Makariou C´ Ave. - 7th Kyperounta 1","lat":34.941219,"lng":32.967542},{"name":"Grigori Afxentiou - 6th Kyperounta","lat":34.939335,"lng":32.969524},{"name":"1 Apriliou - 5th Kyperounta 1","lat":34.938687,"lng":32.974737},{"name":"Georgiou Charalampous - 4th Kyperounta 1","lat":34.940382,"lng":32.974134},{"name":"Stylianou Lena - 3rd Kyperounta 1","lat":34.941816,"lng":32.974846},{"name":"Stylianou Lena - 2nd Kyperounta 1","lat":34.942818,"lng":32.978383},{"name":"Stylianou Lena - Cyta 1","lat":34.944477,"lng":32.978952},{"name":"Kyperounda Winery 2","lat":34.944495,"lng":32.982084},{"name":"Georgiou Griva Digeni Ave. - 3rd Chandria 2","lat":34.944532,"lng":32.990023},{"name":"Georgiou Griva Digeni Ave. - 2nd Chandria 2","lat":34.943505,"lng":32.993834},{"name":"Chandria Square 1","lat":34.941846,"lng":32.994032}]