[{"name":"Agios Georgios Kapourallis Church","lat":34.917608,"lng":32.813757},{"name":"Agios Dimitrios 1","lat":34.925293,"lng":32.809535},{"name":"Treis Elies 1","lat":34.932563,"lng":32.79397},{"name":"2nd Kaminaria 1","lat":34.92948,"lng":32.784101},{"name":"1st Kaminaria","lat":34.927053,"lng":32.783429}]