[{"name":"Distrato Pelendriou 1","lat":34.860206,"lng":32.913529},{"name":"Distrato Pera Pedi - Kouka 1","lat":34.857647,"lng":32.884312},{"name":"Panagias Faneromenis Ave. - 2nd Pera Pedi 1","lat":34.859875,"lng":32.874889},{"name":"Eleftherias - 1st Pera Pedi 1","lat":34.861288,"lng":32.872655},{"name":"Mandria - Koilani Road 1","lat":34.86423,"lng":32.851163},{"name":"Mandria 1","lat":34.871439,"lng":32.833239},{"name":"Kato Platres Elementary School 1","lat":34.877804,"lng":32.839025},{"name":"Kato Platres Community Board 1","lat":34.879729,"lng":32.841954},{"name":"Distrato Foini 1","lat":34.887904,"lng":32.839181},{"name":"Steliou Perikleous Ave. - 5th Foini 1","lat":34.892331,"lng":32.838756},{"name":"Foini Village Center 1","lat":34.892383,"lng":32.836994},{"name":"Foini Youth Center 1","lat":34.893898,"lng":32.836685},{"name":"Dimou Irodotou - 2nd Foini 1","lat":34.894216,"lng":32.831923},{"name":"Agios Georgios Kapourallis Church","lat":34.917608,"lng":32.813757},{"name":"Agios Dimitrios 1","lat":34.925293,"lng":32.809535},{"name":"Treis Elies 1","lat":34.932563,"lng":32.79397},{"name":"2nd Kaminaria 1","lat":34.92948,"lng":32.784101},{"name":"1st Kaminaria","lat":34.927053,"lng":32.783429},{"name":"2nd Kaminaria 2","lat":34.929462,"lng":32.784047},{"name":"Treis Elies 2","lat":34.932608,"lng":32.794047},{"name":"Agios Dimitrios 2","lat":34.925483,"lng":32.809579},{"name":"1st Lemithou 1","lat":34.950982,"lng":32.813802},{"name":"Prodromos Vilalge Center 1","lat":34.949792,"lng":32.832609}]