[{"name":"Theodorou Kolokotroni - 6th Pissouri","lat":34.650401,"lng":32.696109},{"name":"Theodorou Kolokotroni - 5th Pissouri 2","lat":34.659783,"lng":32.697428},{"name":"Pissouri Community Stadium 2","lat":34.666711,"lng":32.698255},{"name":"Apostolou Andreou - 3rd Pissouri 2","lat":34.669774,"lng":32.700645},{"name":"Apostolou Andreou - 2nd Pissouri 2","lat":34.671662,"lng":32.701871},{"name":"Pissouri Police Station 2","lat":34.676001,"lng":32.698952},{"name":"Pissouri Beach","lat":34.651232,"lng":32.722995}]