[{"name":"Michail Karaoli - 25 Martiou","lat":34.976499,"lng":33.65527},{"name":"25 Martiou - 1 Maiou","lat":34.977663,"lng":33.653559},{"name":"1 Maiou - Tefkrou Anthia","lat":34.978045,"lng":33.652971},{"name":"1 Maiou - Pentadaktylou 1","lat":34.979642,"lng":33.652698},{"name":"1 Maiou - Antistaseos","lat":34.982389,"lng":33.65169},{"name":"Archagelos Michail Church 1","lat":34.983896,"lng":33.653083},{"name":"Georgiou Griva Digeni - Artemis","lat":34.984939,"lng":33.653617},{"name":"Grigori Afxentiou - Nikis","lat":34.986079,"lng":33.654711},{"name":"Oroklini Municipal Stadium","lat":34.986561,"lng":33.655646},{"name":"Kyriakou Matsi - Evagora Papachristoforou","lat":34.987018,"lng":33.652702},{"name":"Georgiou Griva Digeni - Andrea Karyou","lat":34.984984,"lng":33.653672},{"name":"Oroklini Elementary School 2","lat":34.982305,"lng":33.657124},{"name":"Paideias - 28 Oktovriou","lat":34.981423,"lng":33.658541},{"name":"Ammochostou - Taki Sofokleous","lat":34.97846,"lng":33.659569},{"name":"Oroklini Park 2","lat":34.976786,"lng":33.657365},{"name":"T. Papadopoulou","lat":34.974664,"lng":33.656175},{"name":"Christou Afxentiou Ave. - Agias Triados","lat":34.972671,"lng":33.652917},{"name":"T. Papadopoulou (EKO)","lat":34.971092,"lng":33.654712},{"name":"Oroklini Lake 2","lat":34.968544,"lng":33.657288},{"name":"S. Kyprianou - Henipa Hotel 2","lat":34.963195,"lng":33.657607},{"name":"Ammochostou Ave. - Athinon 2","lat":34.958643,"lng":33.655675},{"name":"Ammochostou Ave. - Thyras","lat":34.956536,"lng":33.653337},{"name":"Larnaka Nautical Club","lat":34.953007,"lng":33.650669},{"name":"Oil and Gas Storages 2","lat":34.950261,"lng":33.64826},{"name":"Ammochostou Ave. - Katinas Paxinou","lat":34.946112,"lng":33.645008},{"name":"Intercollege 2","lat":34.941373,"lng":33.642496},{"name":"Tassou Papadopoulou - Aristoteli Valaoriti","lat":34.933421,"lng":33.638809},{"name":"Archiep. Makariou C´ Ave. - Golgon","lat":34.928129,"lng":33.636973},{"name":"Archiep. Makariou C´ Ave. - Salaminos 2","lat":34.925974,"lng":33.636901},{"name":"Archiep. Makariou C´ Ave. - Georgiou Georgiadi","lat":34.923819,"lng":33.636917},{"name":"Larnaca Station","lat":34.919233,"lng":33.637867}]