[{"name":"Archiep. Paisiou - Agion Panton","lat":34.925312,"lng":33.585558},{"name":"Agiou Mina - Agias Zonis","lat":34.924181,"lng":33.58635},{"name":"Archiep. Paisiou - Anoixeos","lat":34.924102,"lng":33.589743},{"name":"Kyriakou Karnera","lat":34.922231,"lng":33.590584},{"name":"Alvanikou Epous","lat":34.919434,"lng":33.590958},{"name":"Nikou Gkatsou","lat":34.918114,"lng":33.589722},{"name":"Agioi Afxentios and Efstathios Church","lat":34.91575,"lng":33.592004},{"name":"Oron - Dryadon","lat":34.914939,"lng":33.595501},{"name":"Dryadon - Georgiou Sourri","lat":34.915011,"lng":33.597483},{"name":"Dryadon - Panos","lat":34.915928,"lng":33.599734},{"name":"Potamou Ifasou - Kyklopon","lat":34.916858,"lng":33.597716},{"name":"Peiraia Park","lat":34.919134,"lng":33.598739},{"name":"New Hospital 2","lat":34.921752,"lng":33.603576},{"name":"Mall Metropolis","lat":34.924194,"lng":33.607721},{"name":"Georg. Griva Digeni Ave. - Ag. Georgios Church 2","lat":34.923255,"lng":33.611404},{"name":"Fire Station 2","lat":34.921272,"lng":33.614838},{"name":"Georg. Griva Digeni Ave. - Kon. Palaiologou Ave. 2","lat":34.919417,"lng":33.617977},{"name":"Georg. Griva Digeni Ave. - Thessalonikis Ave.","lat":34.918013,"lng":33.620856},{"name":"Municipal Library 2","lat":34.916724,"lng":33.624306},{"name":"Municipal Park 2","lat":34.91681,"lng":33.627},{"name":"Pancyprian Lyceum","lat":34.91763,"lng":33.630542},{"name":"Grigori Afxentiou Ave. - Foinikoudes 2","lat":34.917822,"lng":33.63513},{"name":"Archiep. Makariou CÂ´ Ave. - Filiou Tsigaridi 1","lat":34.918753,"lng":33.636528},{"name":"Larnaca Station","lat":34.919233,"lng":33.637867}]