[{"name":"Larnaca Station","lat":34.919233,"lng":33.637867},{"name":"Grigori Afxentiou Ave. - Foinikoudes 1","lat":34.917676,"lng":33.635447},{"name":"Old Hospital","lat":34.917065,"lng":33.629892},{"name":"Pancyprian Lyceum","lat":34.91763,"lng":33.630542},{"name":"Evryviadeio High School 1","lat":34.918086,"lng":33.631356},{"name":"Chrysopolitissis - Rigainis","lat":34.919927,"lng":33.629235},{"name":"Panagia Chrisopolitissa Church 1","lat":34.92221,"lng":33.62715},{"name":"Mitropoleos Square","lat":34.922433,"lng":33.62413},{"name":"Sintika Chanoum 1","lat":34.925563,"lng":33.61868},{"name":"Smyrnis - Granikou","lat":34.927778,"lng":33.617558},{"name":"Stratigou Timagia Ave. - Mavromichali","lat":34.928616,"lng":33.617717},{"name":"Stratigou Timagia Ave. - Sintika Chanoum","lat":34.927523,"lng":33.616362},{"name":"Agriniou - Kavalas","lat":34.926878,"lng":33.613598},{"name":"Kastorias - Kosta Krystalli","lat":34.927185,"lng":33.609933},{"name":"Pavlou Mela - Ippolytis","lat":34.928111,"lng":33.60867},{"name":"Pavlou Nirvana","lat":34.930265,"lng":33.607131},{"name":"Afstralias Ave. - Chiou","lat":34.930365,"lng":33.605204},{"name":"Omirou - Afstralias Ave.","lat":34.930479,"lng":33.604012},{"name":"D´ Elementary School Aradippou - Ag. Fanourios 1","lat":34.932826,"lng":33.601653},{"name":"Omirou - Falirou","lat":34.938686,"lng":33.596538},{"name":"Agios Fanourios Church 1","lat":34.945078,"lng":33.594985},{"name":"Coop Bank Allileggie 1","lat":34.947391,"lng":33.593995},{"name":"Papaflessa","lat":34.949813,"lng":33.592818},{"name":"A´ Aradippou Elementary School","lat":34.94888,"lng":33.592001},{"name":"B´ Aradippou Elementary School 1","lat":34.948252,"lng":33.589412},{"name":"Aradippou City Hall","lat":34.948014,"lng":33.586486},{"name":"Stadiou Ave. - Akropoleos Ave.","lat":34.943539,"lng":33.583202},{"name":"Aradippou Police Station","lat":34.944882,"lng":33.579455},{"name":"Ioanni Makrygianni - Panagias Aimatousis","lat":34.948102,"lng":33.571669},{"name":"Agiou Georgiou Ptochou - Cosmyria","lat":34.949878,"lng":33.56982},{"name":"Panagias Aimatousis - Ag. Georgiou Ptochou","lat":34.950731,"lng":33.570593},{"name":"Pascal English School 2","lat":34.953514,"lng":33.567633},{"name":"Neas Ionias 2","lat":34.952619,"lng":33.566203},{"name":"Neas Ionias 1","lat":34.953257,"lng":33.566591},{"name":"Pascal English School 1","lat":34.952978,"lng":33.568363}]