[{"name":"Larnaca Station","lat":34.919233,"lng":33.637867},{"name":"Foinikoudes - Larnaka Marina","lat":34.915408,"lng":33.638089},{"name":"Vasileos Pavlou Square","lat":34.916985,"lng":33.636525},{"name":"Grigori Afxentiou Ave. - Foinikoudes 1","lat":34.917676,"lng":33.635447},{"name":"Old Hospital","lat":34.917065,"lng":33.629892},{"name":"Larnaka Municipal Theatre 1","lat":34.916022,"lng":33.627607},{"name":"Old G.S.Z.","lat":34.913394,"lng":33.628331},{"name":"A´ Agios Lazaros Elementary School 1","lat":34.911228,"lng":33.630515},{"name":"Onisilou","lat":34.909176,"lng":33.633061},{"name":"Touzchane - Papoutsialik","lat":34.905783,"lng":33.635366},{"name":"San Remo Hotel 1","lat":34.900521,"lng":33.636278},{"name":"Filopappou - Nitse 1","lat":34.892911,"lng":33.634348},{"name":"Makenzy 2","lat":34.891576,"lng":33.636165},{"name":"Artemidos Ave. - Tasou Mitsopoulou Ave. 1","lat":34.88979,"lng":33.629487},{"name":"Artemidos Ave. - Old Airport 1","lat":34.887122,"lng":33.625756},{"name":"Larnaka Airport","lat":34.871031,"lng":33.606892},{"name":"Archiep. Makariou C´ Ave. - 2nd Stop","lat":34.863981,"lng":33.59742},{"name":"Meneou - Pervolia Road - 1st Stop","lat":34.857499,"lng":33.598971},{"name":"Pervolia Tourist Area - 1st Stop","lat":34.844755,"lng":33.615635},{"name":"Pervolia Tourist Area - 3rd Stop","lat":34.840029,"lng":33.610525},{"name":"Pervolia Tourist Area - 5th Stop","lat":34.837733,"lng":33.606188},{"name":"Rigaina Tower 1","lat":34.832476,"lng":33.604236},{"name":"Rigaina Tower 2","lat":34.829949,"lng":33.602916},{"name":"Faros Beach 1","lat":34.822267,"lng":33.60099},{"name":"Pervolia Tourist Area - 9th Stop","lat":34.817739,"lng":33.597447},{"name":"Pervolia Tourist Area - 11th Stop","lat":34.819858,"lng":33.592028},{"name":"Pervolia Tourist Area - 13th Stop","lat":34.821916,"lng":33.587953},{"name":"Anexartisias - Venetikou Pyrgou","lat":34.827172,"lng":33.582468}]