[{"name":"Anexartisias - Venetikou Pyrgou","lat":34.827172,"lng":33.582468},{"name":"Archiep. Makariou C´ Ave. - Andrea Miaouli","lat":34.825142,"lng":33.58463},{"name":"Pervolia Tourist Area - 14th Stop","lat":34.821596,"lng":33.588727},{"name":"Pervolia Tourist Area - 12th Stop","lat":34.8196,"lng":33.593207},{"name":"Pervolia Tourist Area - 10th Stop","lat":34.817562,"lng":33.598692},{"name":"Faros (Lighthouse)","lat":34.818601,"lng":33.601915},{"name":"Faros Beach 2","lat":34.82067,"lng":33.601175},{"name":"Pervolia Tourist Area - 8th Stop","lat":34.824394,"lng":33.601093},{"name":"Pervolia Tourist Area - 6th Stop","lat":34.836614,"lng":33.604605},{"name":"Pervolia Tourist Area - 4th Stop","lat":34.840083,"lng":33.610471},{"name":"Pervolia Tourist Area - 2nd Stop","lat":34.844307,"lng":33.615052},{"name":"Meneou - Pervolia Road - 4th Stop","lat":34.852033,"lng":33.608393},{"name":"Meneou - Pervolia Road - 2nd Stop","lat":34.858099,"lng":33.598023},{"name":"Archiep. Makariou C´ Ave. - 1st Stop","lat":34.864009,"lng":33.597278},{"name":"Eleftherias Avenue - Archiep. Makariou C´ Ave. 1","lat":34.86705,"lng":33.598569},{"name":"Larnaka Airport","lat":34.871031,"lng":33.606892},{"name":"Artemidos Ave. - Old Airport 2","lat":34.888377,"lng":33.627178},{"name":"Artemidos Ave. - Tasou Mitsopoulou Ave. 2","lat":34.89093,"lng":33.63048},{"name":"Makenzy 2","lat":34.891576,"lng":33.636165},{"name":"Filopappou - Nitse 2","lat":34.892767,"lng":33.634303},{"name":"Touzchane - ELDYK park","lat":34.894776,"lng":33.633049},{"name":"Touzchane - Saixpir","lat":34.899274,"lng":33.633357},{"name":"San Remo Hotel 2","lat":34.900828,"lng":33.63628},{"name":"Touzchane - Onoufriou Kliridi","lat":34.902648,"lng":33.634751},{"name":"Touzchane - Sechit Ozat Ali","lat":34.90399,"lng":33.635035},{"name":"Oum Charam - Papoutsialik","lat":34.905212,"lng":33.635931},{"name":"Istampoul","lat":34.907927,"lng":33.634113},{"name":"Apolloniou Kitieos","lat":34.909317,"lng":33.633729},{"name":"Larnaka Community Centre","lat":34.912029,"lng":33.632393},{"name":"Andrea Souroukli - Stylianou Lena","lat":34.914951,"lng":33.630609},{"name":"Old Hospital","lat":34.917065,"lng":33.629892},{"name":"Pancyprian Lyceum","lat":34.91763,"lng":33.630542},{"name":"Grigori Afxentiou Ave. - Foinikoudes 2","lat":34.917822,"lng":33.63513},{"name":"Archiep. Makariou C´ Ave. - Filiou Tsigaridi 1","lat":34.918753,"lng":33.636528},{"name":"Larnaca Station","lat":34.919233,"lng":33.637867}]