[{"name":"Larnaca Station","lat":34.919233,"lng":33.637867},{"name":"Grigori Afxentiou Ave. - Foinikoudes 1","lat":34.917676,"lng":33.635447},{"name":"Old Hospital","lat":34.917065,"lng":33.629892},{"name":"Grigori Afxentiou Ave. - Foinikoudes 2","lat":34.917822,"lng":33.63513},{"name":"Archiep. Makariou C´ Ave. - Filiou Tsigaridi 1","lat":34.918753,"lng":33.636528},{"name":"Archiep. Makariou C´ Ave. - Dimitras","lat":34.922288,"lng":33.636479},{"name":"Archiep. Makariou C´ Ave. - Nigritis","lat":34.925966,"lng":33.636737},{"name":"Archiep. Makariou C´ Ave. - Kleov. Papakyriakou","lat":34.92839,"lng":33.636909},{"name":"Spyrou Kyprianou Ave. - Pavlou Valdaseridi","lat":34.930226,"lng":33.634175},{"name":"Lands and Surveys Office 2","lat":34.930369,"lng":33.629205},{"name":"Katharis Elementary School 1","lat":34.932711,"lng":33.627975},{"name":"Alex. Panagouli Ave. - Pan. Kanellopoulou","lat":34.93651,"lng":33.629219},{"name":"Alex. Panagouli Ave. - Anexartisias 1","lat":34.943726,"lng":33.632242},{"name":"Andrea Stylianou Ave. - Agiou Dimitriou","lat":34.946498,"lng":33.633238},{"name":"Petraki Kyprianou Ave. - Lordou Vyronos","lat":34.948816,"lng":33.629795},{"name":"Livadia Elementary School 1","lat":34.949488,"lng":33.62715},{"name":"Archiep. Makariou C´ Ave. - Tefkrou Anthia","lat":34.95128,"lng":33.625838},{"name":"Archiep. Makariou C´ Ave. - Mantheou","lat":34.952831,"lng":33.62585},{"name":"Agia Paraskevi Church 2","lat":34.955995,"lng":33.626006},{"name":"Archiep. Makariou C´ Ave. - Gravias","lat":34.958958,"lng":33.628471},{"name":"Eleftherias Ave. - 1st Stop","lat":34.968318,"lng":33.626811},{"name":"Kellia Community Park 1","lat":34.973326,"lng":33.62261},{"name":"Kellia Village Centre 1","lat":34.976767,"lng":33.623271},{"name":"Kellia Community Stadium 1","lat":34.979891,"lng":33.62427},{"name":"Andrea Souroukli - 1st Stop","lat":35.024946,"lng":33.617948},{"name":"Andrea Souroukli - Makedonias","lat":35.027676,"lng":33.616762},{"name":"Andrea Souroukli - Agiou Georgiou","lat":35.030883,"lng":33.615493},{"name":"Agios Mamas Church","lat":35.03255,"lng":33.615681}]