[{"name":"Larnaca Station","lat":34.919233,"lng":33.637867},{"name":"Grigori Afxentiou Ave. - Foinikoudes 1","lat":34.917676,"lng":33.635447},{"name":"Old Hospital","lat":34.917065,"lng":33.629892},{"name":"American Academy 1","lat":34.917711,"lng":33.627083},{"name":"Larnaka Bishopric 1","lat":34.920998,"lng":33.624349},{"name":"Mitropoleos Square","lat":34.922433,"lng":33.62413},{"name":"Sintika Chanoum 1","lat":34.925563,"lng":33.61868},{"name":"Smyrnis - Granikou","lat":34.927778,"lng":33.617558},{"name":"Kyriakou Matsi Ave. - Alexandrou Ragavi","lat":34.930974,"lng":33.61145},{"name":"Afstralias Ave. - Chiou","lat":34.930365,"lng":33.605204},{"name":"G.S.Z. Stadium 2","lat":34.925412,"lng":33.601982},{"name":"Olympic Swimming Pool","lat":34.923849,"lng":33.600887},{"name":"Antheon - Archiep. Paisiou","lat":34.922064,"lng":33.595334},{"name":"Archiep. Paisiou - Agion Panton","lat":34.925312,"lng":33.585558},{"name":"Archiep. Makariou C´ Ave. - Dim. Koumantari","lat":34.939365,"lng":33.590433},{"name":"Archiep. Makariou C´ Ave. - Kon. Kanari 1","lat":34.941724,"lng":33.591139},{"name":"Archiep. Makariou C´ Ave. - Foti Pitta Ave. 1","lat":34.944618,"lng":33.591324},{"name":"Archiep. Makariou C´ Ave. - 1 Apriliou Ave. 2","lat":34.950764,"lng":33.592004},{"name":"Agias Lavras","lat":34.950326,"lng":33.593019},{"name":"Papaflessa","lat":34.949813,"lng":33.592818}]