[{"name":"Kofinou Station","lat":34.826273,"lng":33.38992},{"name":"Lefkosia - Lemesos Old Road - 3rd Stop","lat":34.821315,"lng":33.375178},{"name":"Lefkosia - Lemesos Old Road - 1st Stop","lat":34.81652,"lng":33.368542},{"name":"Agias Paraskevis - 1st Stop","lat":34.802215,"lng":33.351041},{"name":"Choirokoitia Neolithic Settlement 1","lat":34.796692,"lng":33.346207},{"name":"Agios Fanourios Church","lat":34.795221,"lng":33.343621},{"name":"Agiou Fanouriou - 3rd Stop","lat":34.794503,"lng":33.34246},{"name":"Agiou Fanouriou - 5th Stop","lat":34.79248,"lng":33.336953},{"name":"1st Stop Tochni","lat":34.786987,"lng":33.32752},{"name":"3rd Stop Tochni","lat":34.781422,"lng":33.324678},{"name":"5th Stop Tochni","lat":34.781354,"lng":33.323125},{"name":"7th Stop Tochni","lat":34.777277,"lng":33.323241},{"name":"9th Stop Tochni","lat":34.769607,"lng":33.321714},{"name":"11th Stop Tochni","lat":34.764918,"lng":33.321695},{"name":"Archiep. Makariou C´ Ave. - 1st Stop","lat":34.756307,"lng":33.310943},{"name":"Archiep. Makariou C´ Ave. - 3rd Stop","lat":34.765514,"lng":33.300105},{"name":"Archiep. Makariou C´ Ave. - 5th Stop","lat":34.768777,"lng":33.297297},{"name":"Archiep. Makariou C´ Ave. - 6th Stop","lat":34.766959,"lng":33.299312},{"name":"Archiep. Makariou C´ Ave. - 4th Stop","lat":34.765595,"lng":33.300182},{"name":"Archiep. Makariou C´ Ave. - 2nd Stop","lat":34.756379,"lng":33.311086},{"name":"Zygi - Kalavasos Road - 1st Stop","lat":34.754261,"lng":33.317415},{"name":"Kalavasos - Mari Road - 1st Stop","lat":34.751257,"lng":33.314377},{"name":"1st Stop Mari","lat":34.742596,"lng":33.29823},{"name":"3rd Stop Mari","lat":34.741476,"lng":33.299035},{"name":"5th Stop Mari","lat":34.73848,"lng":33.299559},{"name":"Vasiliko Cement Works - 2nd Stop","lat":34.721334,"lng":33.315236},{"name":"Vasiliko - Zygi Road - 2nd Stop","lat":34.725836,"lng":33.321194},{"name":"Grigori Afxentiou - Andrea Dimitriou 2","lat":34.727506,"lng":33.330649},{"name":"Zygi Elementary School","lat":34.728936,"lng":33.335406},{"name":"Konstantinoupoleos - Agiou Kyriakou 2","lat":34.730937,"lng":33.335785},{"name":"Oktagono 2","lat":34.75073,"lng":33.315992}]