[{"name":"Grigori Afxentiou Ave. - Apost. Andreou 2","lat":34.75415,"lng":33.363511},{"name":"Grigori Afxentiou Ave. - Apost. Louka","lat":34.756788,"lng":33.359043},{"name":"Grigori Afxentiou Ave. - Stadiou","lat":34.757968,"lng":33.356317},{"name":"Maroni Elementary School 2","lat":34.757877,"lng":33.35353},{"name":"2nd Stop Maroni","lat":34.761882,"lng":33.347002},{"name":"Agia Marina Church 2","lat":34.76627,"lng":33.34513},{"name":"2nd Stop Psematismenos","lat":34.768476,"lng":33.346079},{"name":"Agiou Fanouriou - 8th Stop","lat":34.790426,"lng":33.34276},{"name":"Choirokoitia Neolithic Settlement 2","lat":34.796747,"lng":33.346076},{"name":"Agias Paraskevis - 2nd Stop","lat":34.802297,"lng":33.351008},{"name":"Lefkosia - Lemesos Old Road - 2nd Stop","lat":34.816905,"lng":33.36921},{"name":"Lefkosia - Lemesos Old Road - 4th Stop","lat":34.821379,"lng":33.375004},{"name":"Kyriakou Matsi Ave. - Kantaras","lat":34.823108,"lng":33.38727},{"name":"Kofinou Municipal Stadium 2","lat":34.822516,"lng":33.391772},{"name":"Kyriakou Matsi Ave. - Agiou Epiktitou","lat":34.822642,"lng":33.394769},{"name":"Agiou Epiktitou - Agias Varvaras 2","lat":34.823209,"lng":33.395067},{"name":"Agios Modestos Church","lat":34.825396,"lng":33.39066},{"name":"Kofinou Station","lat":34.826273,"lng":33.38992}]