[{"name":"Kofinou Station","lat":34.826273,"lng":33.38992},{"name":"Kofinou Kindergarden","lat":34.825379,"lng":33.393087},{"name":"Agiou Epiktitou - Agias Varvaras 1","lat":34.823623,"lng":33.395288},{"name":"Kofinou Municipal Stadium 1","lat":34.822509,"lng":33.393938},{"name":"Kyriakou Matsi Ave. - Karaoli kai Dimitriou","lat":34.822358,"lng":33.390416},{"name":"Kyriakou Matsi Ave. - Archiep. Makariou CÂ´ Ave.","lat":34.824499,"lng":33.386456},{"name":"Lefkosia - Lemesos Old Road - 3rd Stop","lat":34.821315,"lng":33.375178},{"name":"Lefkosia - Lemesos Old Road - 1st Stop","lat":34.81652,"lng":33.368542},{"name":"Agias Paraskevis - 1st Stop","lat":34.802215,"lng":33.351041},{"name":"Choirokoitia Neolithic Settlement 1","lat":34.796692,"lng":33.346207},{"name":"Agiou Fanouriou - 7th Stop","lat":34.790443,"lng":33.342891},{"name":"1st Stop Psematismenos","lat":34.768449,"lng":33.346199},{"name":"Agia Marina Church 1","lat":34.765593,"lng":33.345258},{"name":"1st Stop Maroni","lat":34.761963,"lng":33.347013},{"name":"Maroni Elementary School 1","lat":34.758049,"lng":33.353192},{"name":"Grigori Afxentiou Ave. - Kyriakou Matsi","lat":34.757724,"lng":33.356578},{"name":"Grigori Afxentiou Ave. - Agion Anargyron","lat":34.756498,"lng":33.359555},{"name":"Grigori Afxentiou Ave. - Apost. Andreou 1","lat":34.754702,"lng":33.362946}]