[{"name":"Alampra Bus Station","lat":35.002426,"lng":33.393866},{"name":"Ave. Lemesou - Larnakos","lat":35.00707,"lng":33.393922},{"name":"Chrysosotiros Church - Eirinis Avenue","lat":35.013419,"lng":33.393875},{"name":"Archiep. Makariou C - Diogenous","lat":35.014692,"lng":33.395876},{"name":"Elem. School B Nisou","lat":35.015606,"lng":33.400385},{"name":"Pera Chorio Nisou High School 1","lat":35.016662,"lng":33.405794},{"name":"Chalkanoros","lat":35.017611,"lng":33.410479},{"name":"Chalkanoros","lat":35.019067,"lng":33.417206},{"name":"Dali Lyceum 2","lat":35.020117,"lng":33.428863},{"name":"Apodimon Square","lat":34.998044,"lng":33.462938},{"name":"Agios Epifanios Church 2","lat":34.995724,"lng":33.465818},{"name":"Anexartisias - Stadiou 1","lat":34.994598,"lng":33.470326},{"name":"Aradippou - Athienou Road - 2n Stop","lat":34.977874,"lng":33.522401},{"name":"Panagia Aimatousa 2","lat":34.959302,"lng":33.563817},{"name":"Pascal English School 1","lat":34.952978,"lng":33.568363},{"name":"Akropoleos Ave. - Athinon Ave. 2","lat":34.948924,"lng":33.575344},{"name":"Akropoleos Ave. - Stadiou Ave. 2","lat":34.942149,"lng":33.583466},{"name":"Akropoleos Ave. - Foti Pitta Ave.","lat":34.93949,"lng":33.586962},{"name":"Eleftherias Ave. - Archiep. Makariou C´ Ave.","lat":34.936241,"lng":33.591264},{"name":"Eleftherias Ave. - Petraki Giallourou","lat":34.931246,"lng":33.598411},{"name":"G.S.Z. Stadium 2","lat":34.925412,"lng":33.601982},{"name":"Vergina Lyceum","lat":34.921155,"lng":33.594813},{"name":"Vergina High School 1","lat":34.920144,"lng":33.59705},{"name":"Peiraia Park","lat":34.919134,"lng":33.598739},{"name":"New Hospital 2","lat":34.921752,"lng":33.603576},{"name":"Mall Metropolis","lat":34.924194,"lng":33.607721},{"name":"Georg. Griva Digeni Ave. - Ag. Georgios Church 2","lat":34.923255,"lng":33.611404},{"name":"Fire Station 2","lat":34.921272,"lng":33.614838},{"name":"Georg. Griva Digeni Ave. - Kon. Palaiologou Ave. 2","lat":34.919417,"lng":33.617977},{"name":"Georg. Griva Digeni Ave. - Thessalonikis Ave.","lat":34.918013,"lng":33.620856},{"name":"Municipal Library 2","lat":34.916724,"lng":33.624306},{"name":"Municipal Park 2","lat":34.91681,"lng":33.627},{"name":"Pancyprian Lyceum","lat":34.91763,"lng":33.630542},{"name":"Grigori Afxentiou Ave. - Foinikoudes 2","lat":34.917822,"lng":33.63513},{"name":"Archiep. Makariou C´ Ave. - Filiou Tsigaridi 1","lat":34.918753,"lng":33.636528},{"name":"Larnaca Station","lat":34.919233,"lng":33.637867}]