[{"name":"Alaminos Village Centre - Elementary School","lat":34.807249,"lng":33.434448},{"name":"Georgiou Griva Digeni - 2nd Stop","lat":34.806996,"lng":33.436896},{"name":"Archiep. Makariou C´ - 3rd Stop","lat":34.806607,"lng":33.439835},{"name":"Archiep. Makariou C´ - 4thStop","lat":34.806278,"lng":33.445868},{"name":"Alaminos - Mazotos Road - 2nd Stop","lat":34.806413,"lng":33.465406},{"name":"Tasou Konstantinou Ave. - 1st Stop","lat":34.822721,"lng":33.464306},{"name":"Agia Marina Church 2","lat":34.824582,"lng":33.463387},{"name":"Agios Dimitrios Church","lat":34.825427,"lng":33.464113},{"name":"Archiep. Makariou C´ Ave. - 2nd Stop","lat":34.827344,"lng":33.464922},{"name":"Tasou Konstantinou Ave. - 4th Stop","lat":34.829664,"lng":33.464367},{"name":"Anglisides Elementary School 2","lat":34.848234,"lng":33.458816},{"name":"Anglisides Public Kindergarden 2","lat":34.851381,"lng":33.45658},{"name":"Archiep. Makariou C´ Ave. - Tasou Isaak","lat":34.85292,"lng":33.454827},{"name":"Archiep. Makariou C´ Ave. - Solomou Solomou","lat":34.854143,"lng":33.458312},{"name":"Poseidonio 2","lat":34.854908,"lng":33.461084},{"name":"Aglisides - Alethriko Road - 2nd Stop","lat":34.862834,"lng":33.479771},{"name":"Anexartisias Ave. - Filias Ave. 2","lat":34.864654,"lng":33.489147},{"name":"Anexartisias Ave. - Eirinis Avenue 2","lat":34.865675,"lng":33.49319},{"name":"Anexartisias Ave. - Highway Exit 2","lat":34.866501,"lng":33.496236},{"name":"A2 Industrial Area","lat":34.908591,"lng":33.57295},{"name":"Lemesou Ave. - Charilaou Trikoupi 2","lat":34.908316,"lng":33.579549},{"name":"Lemesou Ave. - Makedonias 2","lat":34.909779,"lng":33.584791},{"name":"Lemesou Ave. - Kritis","lat":34.911004,"lng":33.590722},{"name":"Kamares - Old Aqueduct 2","lat":34.912834,"lng":33.598234},{"name":"G. Christodoulidi Ave. - Dafnidos","lat":34.91864,"lng":33.600312},{"name":"New Hospital 2","lat":34.921752,"lng":33.603576},{"name":"Mall Metropolis","lat":34.924194,"lng":33.607721},{"name":"Georg. Griva Digeni Ave. - Ag. Georgios Church 2","lat":34.923255,"lng":33.611404},{"name":"Fire Station 2","lat":34.921272,"lng":33.614838},{"name":"Georg. Griva Digeni Ave. - Kon. Palaiologou Ave. 2","lat":34.919417,"lng":33.617977},{"name":"Georg. Griva Digeni Ave. - Thessalonikis Ave.","lat":34.918013,"lng":33.620856},{"name":"Municipal Library 2","lat":34.916724,"lng":33.624306},{"name":"Municipal Park 2","lat":34.91681,"lng":33.627},{"name":"Pancyprian Lyceum","lat":34.91763,"lng":33.630542},{"name":"Grigori Afxentiou Ave. - Foinikoudes 2","lat":34.917822,"lng":33.63513},{"name":"Archiep. Makariou C´ Ave. - Filiou Tsigaridi 1","lat":34.918753,"lng":33.636528},{"name":"Larnaca Station","lat":34.919233,"lng":33.637867}]