[{"name":"Larnaca Station","lat":34.919233,"lng":33.637867},{"name":"Grigori Afxentiou Ave. - Foinikoudes 1","lat":34.917676,"lng":33.635447},{"name":"Old Hospital","lat":34.917065,"lng":33.629892},{"name":"Municipal Park 1","lat":34.916737,"lng":33.627065},{"name":"Municipal Library 1","lat":34.916343,"lng":33.624818},{"name":"Georg. Griva Digeni Ave. - 1 Apriliou Ave.","lat":34.917942,"lng":33.620615},{"name":"Georg. Griva Digeni Ave. - Kon. Palaiologou Ave. 1","lat":34.919281,"lng":33.617976},{"name":"Nikou kai Despoinas Pattichi Ave. - Fire Station","lat":34.919842,"lng":33.615933},{"name":"Nikou kai Despoinas Pattichi Ave. - Arachovas","lat":34.918357,"lng":33.613622},{"name":"Electricity Authority 2","lat":34.917174,"lng":33.608512},{"name":"Nikou kai Despoinas Pattichi Ave. - Kalymnou","lat":34.916515,"lng":33.604993},{"name":"Kamares - Old Aqueduct 1","lat":34.912492,"lng":33.598056},{"name":"Lemesou Ave. - Kastalias","lat":34.911363,"lng":33.59472},{"name":"Lemesou Ave. - Larisis","lat":34.910734,"lng":33.590578},{"name":"Lemesou Ave. - Makedonias 1","lat":34.909447,"lng":33.58445},{"name":"Lemesou Ave. - Charilaou Trikoupi 1","lat":34.908024,"lng":33.578529},{"name":"Klavdia - Highway Exit 2","lat":34.889122,"lng":33.53345},{"name":"Klavdia - Alethriko Road - 1st Stop","lat":34.877696,"lng":33.512651},{"name":"Anexartisias Ave. - Ag. Georgiou Xorinou 1","lat":34.868607,"lng":33.501555},{"name":"Anexartisias Ave. - Highway Exit 1","lat":34.866419,"lng":33.496378},{"name":"Anexartisias Ave. - Eirinis Avenue 1","lat":34.865603,"lng":33.4932},{"name":"Eirinis Ave. 1","lat":34.862709,"lng":33.493074},{"name":"Filias Ave. - Chrysanthemon","lat":34.859445,"lng":33.492945},{"name":"Grigori Afxentiou Ave. - Olympou 1","lat":34.854301,"lng":33.493822},{"name":"Alethriko - Anafotia Road - 1st Stop","lat":34.850456,"lng":33.492618},{"name":"Aplanta Military Camp 1","lat":34.830006,"lng":33.473959},{"name":"Michalaki Paridi - 7th Stop","lat":34.828938,"lng":33.470246},{"name":"Michalaki Paridi - 6th Stop","lat":34.827565,"lng":33.466159},{"name":"Archiep. Makariou C´ Ave. - 2nd Stop","lat":34.827344,"lng":33.464922},{"name":"Tasou Konstantinou Ave. - 4th Stop","lat":34.829664,"lng":33.464367},{"name":"Anglisides Elementary School 2","lat":34.848234,"lng":33.458816},{"name":"Anglisides Public Kindergarden 2","lat":34.851381,"lng":33.45658},{"name":"G. Griva Digeni Ave. - Archiep. Makariou C´ Ave.","lat":34.852751,"lng":33.456598},{"name":"Archiep. Makariou C´ Ave. - Grigori Afxentiou","lat":34.852687,"lng":33.454519},{"name":"Archiep. Makariou C´ Ave. - Zalongou","lat":34.852114,"lng":33.453368},{"name":"Anglisides - Menogeia Road - 1st Stop","lat":34.846493,"lng":33.439478},{"name":"Archiep. Makariou C´ Ave. - Larnakos Ave.","lat":34.831263,"lng":33.394723},{"name":"Kofinou - Political Asylum Road - 1st Stop","lat":34.843611,"lng":33.407524},{"name":"Political Asylum","lat":34.844001,"lng":33.414723},{"name":"Kofinou - Political Asylum Road - 2nd Stop","lat":34.843646,"lng":33.407721},{"name":"Kofinou - Highway Exit","lat":34.836343,"lng":33.399111},{"name":"Kofinou Police Station 1","lat":34.829429,"lng":33.392778},{"name":"Kofinou Station","lat":34.826273,"lng":33.38992}]