[{"name":"28 Oktovriou","lat":35.060975,"lng":33.541332},{"name":"Meg. Konstantinou - Meg. Alexandrou","lat":35.062554,"lng":33.541178},{"name":"Archiep. Makariou C´ Ave. - 9 Iouliou","lat":35.063262,"lng":33.540075},{"name":"Athienou City Hall 2","lat":35.063515,"lng":33.538069},{"name":"Archiep. Makariou C´ Ave. - Pan. Matsouka","lat":35.064151,"lng":33.534794},{"name":"Eleftheriou Venizelou - Panagioti Matsouka","lat":35.063726,"lng":33.533179},{"name":"Eleftheriou Venizelou - Konst. Toumpa","lat":35.062905,"lng":33.535236},{"name":"Eleftheriou Venizelou - Ifaistou","lat":35.062288,"lng":33.536197},{"name":"Mpoumpoulinas - Theokritou","lat":35.060989,"lng":33.536221},{"name":"Theokritou - Mpoumpoulinas","lat":35.05893,"lng":33.536866},{"name":"Athienou Cemetery","lat":35.057873,"lng":33.535466},{"name":"Theokritou - Ioanni Kai Marias Kramvi 2","lat":35.056247,"lng":33.533866},{"name":"28th October-Athienou","lat":35.054237,"lng":33.539917},{"name":"Panayioti Koumeni-Athienou","lat":35.053397,"lng":33.542269},{"name":"Panagioti Koumeni Roundabout 2","lat":35.050465,"lng":33.542436},{"name":"Avdellero Cemetery 2","lat":35.010537,"lng":33.567983},{"name":"Avdellero Community Board 2","lat":35.009782,"lng":33.569457},{"name":"4th Stop Avdellero","lat":35.008678,"lng":33.570359},{"name":"2nd Stop Avdellero","lat":35.005713,"lng":33.571785},{"name":"Akropoleos Ave. - Athinon Ave. 2","lat":34.948924,"lng":33.575344},{"name":"Akropoleos Ave. - Stadiou Ave. 2","lat":34.942149,"lng":33.583466},{"name":"Akropoleos Ave. - Foti Pitta Ave.","lat":34.93949,"lng":33.586962},{"name":"Eleftherias Ave. - Archiep. Makariou C´ Ave.","lat":34.936241,"lng":33.591264},{"name":"Eleftherias Ave. - Petraki Giallourou","lat":34.931246,"lng":33.598411},{"name":"G.S.Z. Stadium 2","lat":34.925412,"lng":33.601982},{"name":"Olympic Swimming Pool","lat":34.923849,"lng":33.600887},{"name":"Vergina Lyceum","lat":34.921155,"lng":33.594813},{"name":"Vergina High School 1","lat":34.920144,"lng":33.59705},{"name":"Peiraia Park","lat":34.919134,"lng":33.598739},{"name":"New Hospital 2","lat":34.921752,"lng":33.603576},{"name":"Mall Metropolis","lat":34.924194,"lng":33.607721},{"name":"Georg. Griva Digeni Ave. - Ag. Georgios Church 2","lat":34.923255,"lng":33.611404},{"name":"Fire Station 2","lat":34.921272,"lng":33.614838},{"name":"Georg. Griva Digeni Ave. - Kon. Palaiologou Ave. 2","lat":34.919417,"lng":33.617977},{"name":"Georg. Griva Digeni Ave. - Thessalonikis Ave.","lat":34.918013,"lng":33.620856},{"name":"Municipal Library 2","lat":34.916724,"lng":33.624306},{"name":"Municipal Park 2","lat":34.91681,"lng":33.627},{"name":"Pancyprian Lyceum","lat":34.91763,"lng":33.630542},{"name":"Grigori Afxentiou Ave. - Foinikoudes 2","lat":34.917822,"lng":33.63513},{"name":"Archiep. Makariou C´ Ave. - Filiou Tsigaridi 1","lat":34.918753,"lng":33.636528},{"name":"Larnaca Station","lat":34.919233,"lng":33.637867}]