[{"name":"Kalavasos Square 1","lat":34.770745,"lng":33.296321},{"name":"Archiep. Makariou C´ Ave. - 6th Stop","lat":34.766959,"lng":33.299312},{"name":"Archiep. Makariou C´ Ave. - 4th Stop","lat":34.765595,"lng":33.300182},{"name":"Archiep. Makariou C´ Ave. - 2nd Stop","lat":34.756379,"lng":33.311086},{"name":"Zygi - Kalavasos Road - 1st Stop","lat":34.754261,"lng":33.317415},{"name":"Zygi - Kalavasos Road - 2nd Stop","lat":34.754423,"lng":33.317492},{"name":"10th Stop Tochni","lat":34.765027,"lng":33.321466},{"name":"8th Stop Tochni","lat":34.776018,"lng":33.322208},{"name":"Agion Kon/nou kai Elenis","lat":34.778638,"lng":33.32353},{"name":"6th Stop Tochni","lat":34.781336,"lng":33.323016},{"name":"4th Stop Tochni","lat":34.781476,"lng":33.32458},{"name":"2nd Stop Tochni","lat":34.787447,"lng":33.327554},{"name":"Agiou Fanouriou - 6th Stop","lat":34.792104,"lng":33.336088},{"name":"1st Stop Psematismenos","lat":34.768449,"lng":33.346199},{"name":"Agia Marina Church 1","lat":34.765593,"lng":33.345258},{"name":"1st Stop Maroni","lat":34.761963,"lng":33.347013},{"name":"Maroni Elementary School 1","lat":34.758049,"lng":33.353192},{"name":"Grigori Afxentiou Ave. - Kyriakou Matsi","lat":34.757724,"lng":33.356578},{"name":"Grigori Afxentiou Ave. - Agion Anargyron","lat":34.756498,"lng":33.359555},{"name":"Grigori Afxentiou Ave. - Apost. Andreou 1","lat":34.754702,"lng":33.362946},{"name":"Tsaroukka Ave. - Ellados Ave. 1","lat":34.746512,"lng":33.384301},{"name":"Pentaschoinos Tourist Area - 2nd Stop","lat":34.74986,"lng":33.402868},{"name":"Pentaschoinos Tourist Area - 4th Stop","lat":34.751769,"lng":33.411869},{"name":"Pentaschoinos Tourist Area - 6th Stop","lat":34.757713,"lng":33.419493},{"name":"4thStop Agios Theodoros","lat":34.760321,"lng":33.421483},{"name":"6th Stop Agios Theodoros","lat":34.760332,"lng":33.412917},{"name":"8th Stop Agios Theodoros","lat":34.763353,"lng":33.404868},{"name":"Antonaki Manoli - 10th Stop","lat":34.793276,"lng":33.38466},{"name":"Antonaki Manoli - 12th Stop","lat":34.7969,"lng":33.385289},{"name":"Agios Theodoros Church 2","lat":34.79932,"lng":33.384207},{"name":"Panagias Astadiotissas - 14th Stop","lat":34.800487,"lng":33.38594},{"name":"Panagias Astadiotissas - 16th Stop","lat":34.802213,"lng":33.384636},{"name":"1 Apriliou - 18th Stop","lat":34.804658,"lng":33.384232},{"name":"Kofinou - Ag. Theodoros Road - 2nd Stop","lat":34.821231,"lng":33.375933},{"name":"Kyriakou Matsi Ave. - Kantaras","lat":34.823108,"lng":33.38727},{"name":"Kofinou Municipal Stadium 2","lat":34.822516,"lng":33.391772},{"name":"Kyriakou Matsi Ave. - Agiou Epiktitou","lat":34.822642,"lng":33.394769},{"name":"Agiou Epiktitou - Agias Varvaras 2","lat":34.823209,"lng":33.395067},{"name":"Agios Modestos Church","lat":34.825396,"lng":33.39066},{"name":"Kofinou Station","lat":34.826273,"lng":33.38992}]