[{"name":"Alaminos Village Centre - Elementary School","lat":34.807249,"lng":33.434448},{"name":"Georgiou Griva Digeni - 2nd Stop","lat":34.806996,"lng":33.436896},{"name":"Archiep. Makariou C´ - 3rd Stop","lat":34.806607,"lng":33.439835},{"name":"Archiep. Makariou C´ - 4thStop","lat":34.806278,"lng":33.445868},{"name":"Alaminos - Mazotos Road - 2nd Stop","lat":34.806413,"lng":33.465406},{"name":"Tasou Konstantinou Ave. - 1st Stop","lat":34.822721,"lng":33.464306},{"name":"Agia Marina Church 2","lat":34.824582,"lng":33.463387},{"name":"Agios Dimitrios Church","lat":34.825427,"lng":33.464113},{"name":"Michalaki Paridi - 8th Stop","lat":34.828984,"lng":33.47006},{"name":"Aplanta Military Camp 2","lat":34.830158,"lng":33.474124},{"name":"Alethriko - Anafotia Road - 2nd Stop","lat":34.85051,"lng":33.492541},{"name":"Grigori Afxentiou Ave. - Olympou 2","lat":34.854509,"lng":33.493681},{"name":"Gianni Fotiadi - 2nd Stop","lat":34.839607,"lng":33.505973},{"name":"Georg. Griva Digeni Ave. - 3rd Stop","lat":34.840667,"lng":33.504744},{"name":"Ammochostou Ave. - Morfou 2","lat":34.859569,"lng":33.495626},{"name":"Salaminas Ave. - Apost. Varnava","lat":34.86301,"lng":33.494432},{"name":"Anexartisias Ave. - Eirinis Avenue 2","lat":34.865675,"lng":33.49319},{"name":"Anexartisias Ave. - Highway Exit 2","lat":34.866501,"lng":33.496236},{"name":"Anexartisias Ave. - Ag. Georgiou Xorinou 2","lat":34.868645,"lng":33.501304},{"name":"Klavdia - Alethriko Road - 2nd Stop","lat":34.877634,"lng":33.512487},{"name":"Klavdia - Highway Exit 1","lat":34.889871,"lng":33.533301},{"name":"6th Stop Klavdia","lat":34.893209,"lng":33.516119},{"name":"5th Stop Klavdia","lat":34.893414,"lng":33.514686},{"name":"3rd Stop Klavdia","lat":34.892789,"lng":33.513183},{"name":"2nd Stop Klavdia","lat":34.892251,"lng":33.514558},{"name":"1st Stop Klavdia","lat":34.893105,"lng":33.51742},{"name":"A2 Industrial Area","lat":34.908591,"lng":33.57295},{"name":"Lemesou Ave. - Charilaou Trikoupi 2","lat":34.908316,"lng":33.579549},{"name":"Lemesou Ave. - Makedonias 2","lat":34.909779,"lng":33.584791},{"name":"Lemesou Ave. - Kritis","lat":34.911004,"lng":33.590722},{"name":"Kamares - Old Aqueduct 2","lat":34.912834,"lng":33.598234},{"name":"Nikou kai Despoinas Pattichi Ave. - I. Kondylaki","lat":34.916661,"lng":33.604688},{"name":"Electricity Authority 1","lat":34.917321,"lng":33.608053},{"name":"Nikou kai Despoinas Pattichi Ave. - Panidos","lat":34.918118,"lng":33.612592},{"name":"Georg. Griva Digeni Ave. - Kon. Palaiologou Ave. 2","lat":34.919417,"lng":33.617977},{"name":"Georg. Griva Digeni Ave. - Thessalonikis Ave.","lat":34.918013,"lng":33.620856},{"name":"Municipal Library 2","lat":34.916724,"lng":33.624306},{"name":"Municipal Park 2","lat":34.91681,"lng":33.627},{"name":"Pancyprian Lyceum","lat":34.91763,"lng":33.630542},{"name":"Grigori Afxentiou Ave. - Foinikoudes 2","lat":34.917822,"lng":33.63513},{"name":"Archiep. Makariou C´ Ave. - Filiou Tsigaridi 1","lat":34.918753,"lng":33.636528},{"name":"Larnaca Station","lat":34.919233,"lng":33.637867}]