[{"name":"Nicosia General Hospital","lat":35.128043,"lng":33.374879},{"name":"Kalamon - Strovolos Industrial Zone","lat":35.124055,"lng":33.372874},{"name":"Kalamon - Meteoron","lat":35.126864,"lng":33.368321},{"name":"Ave. Iosif Chr. Chatziiosif - Sinopis","lat":35.128784,"lng":33.35653},{"name":"Ave. Iosif Chatziiosif - Lyceum Ap. Varnavas 2","lat":35.131847,"lng":33.357433},{"name":"Panagia Trachona Church 2","lat":35.130455,"lng":33.361631},{"name":"Dimokratias - Anagenniseos","lat":35.130231,"lng":33.364066},{"name":"Dimokratias - Lysimachou","lat":35.130891,"lng":33.366517},{"name":"Dimokratias - Iroon 2","lat":35.131691,"lng":33.367366},{"name":"Iroon - Aspasias","lat":35.133553,"lng":33.366024},{"name":"Apostolos Andreas Church 2","lat":35.134455,"lng":33.365699},{"name":"Stavrou - Iosif Hadjiosif","lat":35.134854,"lng":33.359092},{"name":"Stavrou - Sotiros","lat":35.136435,"lng":33.351986},{"name":"Stavrou - Archiepiskopou Leontiou","lat":35.137479,"lng":33.349323},{"name":"Athinon - Irakleous","lat":35.138821,"lng":33.346815},{"name":"Athinon - Odysseos","lat":35.141216,"lng":33.344795},{"name":"Ave. Strovolou - Kantaras","lat":35.140773,"lng":33.338799},{"name":"Ave. Strovolou - Ilia Venezi","lat":35.140811,"lng":33.338196},{"name":"Strovolos Station","lat":35.141085,"lng":33.337154}]