[{"name":"Dionysios Solomos Square D","lat":35.171376,"lng":33.358243},{"name":"Themistokli Dervi - Florinis","lat":35.165669,"lng":33.357855},{"name":"Themistokli Dervi - Spyrou Kyprianou Avenue","lat":35.164314,"lng":33.358651},{"name":"Nikis - Tzon Kennenty","lat":35.16215,"lng":33.358718},{"name":"Nikis - 25 Martiou","lat":35.16033,"lng":33.358238},{"name":"Nikis - Kastoros","lat":35.157535,"lng":33.357907},{"name":"Korytsas - Makarios Hospital 1","lat":35.151168,"lng":33.358341},{"name":"Blind School Agios Varnavas 1","lat":35.149462,"lng":33.355918},{"name":"Ave. Georgiou Paraskevaidi - Akropolis Park 1","lat":35.147204,"lng":33.36019},{"name":"Ave. Iosif Chr. Chatziiosif - Paraskeva Ioannou","lat":35.144339,"lng":33.359496},{"name":"Ave. Iosif Chr. Chatziiosif - Laodikeias","lat":35.14078,"lng":33.358559},{"name":"Ave. Iosif Chr. Chatziiosif - Stavrou 1","lat":35.136886,"lng":33.358124},{"name":"Ave. Iosif Chr. Chatziiosif - Dimokratias","lat":35.134018,"lng":33.358101},{"name":"Ave. Iosif Chatziiosif - Lyceum Ap. Varnavas 1","lat":35.13163,"lng":33.357575},{"name":"Ave. Iosif Chatziiosif - Spyrou Kyprianou Avenue","lat":35.128513,"lng":33.356639},{"name":"Spyrou Kyprianou Ave. - Strovolos Industrial Zone","lat":35.127969,"lng":33.357591},{"name":"Spyrou Kyprianou Ave. - Agios Therissos","lat":35.128974,"lng":33.362217},{"name":"Kalamon - Kampou","lat":35.127134,"lng":33.368333},{"name":"Kalamon -Hospital Round About","lat":35.124307,"lng":33.373007},{"name":"Lemesou Ave. - Volvo","lat":35.126836,"lng":33.374533},{"name":"The Mall of Cyprus - Verginas","lat":35.129695,"lng":33.374162},{"name":"Nicosia General Hospital","lat":35.128043,"lng":33.374879}]