[{"name":"Nicosia General Hospital","lat":35.128043,"lng":33.374879},{"name":"Kalamon - Strovolos Industrial Zone","lat":35.124055,"lng":33.372874},{"name":"Kalamon - Meteoron","lat":35.126864,"lng":33.368321},{"name":"Ave. Athalassas - Apostolos Varnavas Church 2","lat":35.140773,"lng":33.372643},{"name":"Andrea Avraamidi - Aretaeio 2","lat":35.139718,"lng":33.363768},{"name":"Andrea Avraamidi - Livaniou","lat":35.141121,"lng":33.362084},{"name":"Perikleous - Iosif Chr. Chatziiosif Avenue","lat":35.141755,"lng":33.35808},{"name":"Pefkios Georgiadis Elementary School 1","lat":35.142074,"lng":33.353866},{"name":"Perikleous - Panagias Tinou","lat":35.143149,"lng":33.349929},{"name":"Perikleous - Artas","lat":35.143709,"lng":33.346715},{"name":"Strovolos City Hall 1","lat":35.144112,"lng":33.344368},{"name":"Ave. Strovolou - Pythonos","lat":35.142597,"lng":33.341332},{"name":"Ave. Strovolou - Kantaras","lat":35.140773,"lng":33.338799},{"name":"Ave. Strovolou - Ilia Venezi","lat":35.140811,"lng":33.338196},{"name":"Strovolos Station","lat":35.141085,"lng":33.337154}]