[{"name":"Dionysios Solomos Square D","lat":35.171376,"lng":33.358243},{"name":"Archiep. Makariou III Ave. - Amaldas","lat":35.16798,"lng":33.360095},{"name":"Archiep. Makariou III Ave. - Iras","lat":35.165662,"lng":33.363192},{"name":"Archiep. Makariou III Ave. - Naxou","lat":35.162507,"lng":33.366066},{"name":"Archiep. Makariou III Ave. - Ioanni Kliridi","lat":35.161428,"lng":33.36796},{"name":"Archiep. Makariou III Ave. - Filimonos","lat":35.160835,"lng":33.370077},{"name":"Archiep. Makariou III Ave. - Ethnikis Frouras","lat":35.160197,"lng":33.372226},{"name":"Avenue Tzon Kennenty - Esperidon","lat":35.157754,"lng":33.366308},{"name":"Esperidon - Esperidon","lat":35.155445,"lng":33.36352},{"name":"Armenias - Lykourgou","lat":35.154106,"lng":33.364985},{"name":"Armenias - Stasinou","lat":35.152772,"lng":33.367878},{"name":"Elefsinos - Thermopylon","lat":35.151852,"lng":33.367764},{"name":"Thermopylon - Faidras","lat":35.150784,"lng":33.36631},{"name":"Thermopylon - Othonos","lat":35.150239,"lng":33.364353},{"name":"Kefallinias - Othonos","lat":35.149396,"lng":33.36279},{"name":"Panagioti Kaspi - Korinthou","lat":35.147379,"lng":33.362079},{"name":"Apostolos Varnavas Elem. School 1","lat":35.147233,"lng":33.365492},{"name":"Chrysanthou Mylona - Sofouli","lat":35.148782,"lng":33.369199},{"name":"Tilepikoinonion - CYTA 1","lat":35.147658,"lng":33.371236}]