[{"name":"Tilepikoinonion - CYTA 1","lat":35.147658,"lng":33.371236},{"name":"Foti Pitta - Fokidos","lat":35.145216,"lng":33.370533},{"name":"Tilepikoinonion - CYTA 2","lat":35.147946,"lng":33.371182},{"name":"Chrysanthou Mylona - Ilioupoleos","lat":35.148719,"lng":33.369276},{"name":"Apostolos Varnavas Elem. School 2","lat":35.147134,"lng":33.365558},{"name":"Panagioti Kaspi - Panagioti Chatzianastasiou","lat":35.147298,"lng":33.361958},{"name":"Kefallinias - Mesolongiou 2","lat":35.149442,"lng":33.362681},{"name":"Thermopylon - Thermeias","lat":35.150303,"lng":33.364254},{"name":"Thermopylon - Andrea Assioti","lat":35.150847,"lng":33.366189},{"name":"Elefsinos - Armenias","lat":35.151826,"lng":33.367621},{"name":"Armenias - Ifigenias","lat":35.152673,"lng":33.367625},{"name":"Armenias - Ippokratous","lat":35.153907,"lng":33.36516},{"name":"Esperidon - Amfitritis","lat":35.155779,"lng":33.363466},{"name":"Avenue Tzon Kennenty - Epameinonda","lat":35.158444,"lng":33.364752},{"name":"Avenue Tzon Kennenty - Karpenisiou","lat":35.157365,"lng":33.369468},{"name":"Archiep. Makariou III Ave. - Dimitriou Papanikoli","lat":35.160791,"lng":33.369868},{"name":"Archiep. Makariou III Ave. - Karpenisiou","lat":35.161483,"lng":33.367609},{"name":"Archiep. Makariou III Ave. - Dimofontos","lat":35.162761,"lng":33.365485},{"name":"Archiep. Makariou III Ave. - Mnasiadou","lat":35.166197,"lng":33.362096},{"name":"Archiep. Makariou III Ave. - Theofani Theodotou","lat":35.167781,"lng":33.360138},{"name":"Solomos Square Alighting ","lat":35.170392,"lng":33.358392}]