[{"name":"Karavella Bus Station","lat":34.778616,"lng":32.422125},{"name":"Evagora Pallikaridi - Charalambou Mouskou 2","lat":34.776363,"lng":32.422447},{"name":"C.T.O. Offices","lat":34.774623,"lng":32.420492},{"name":"Mitr. Nikodimou Mylona - Georgiou Christoforou","lat":34.774931,"lng":32.418949},{"name":"Municipal Market","lat":34.778085,"lng":32.418522},{"name":"Agia Sofia Church","lat":34.779578,"lng":32.419605},{"name":"Nikolaou Ellina - Fellachoglou","lat":34.781526,"lng":32.421514},{"name":"Neapoleos - Nikolaou Ellina 1","lat":34.784103,"lng":32.422994},{"name":"Neapoleos - Iona Nikolaou","lat":34.784377,"lng":32.423713},{"name":"Neapoleos - Georgiou Menelaou","lat":34.785275,"lng":32.424855},{"name":"Neapoleos - Lamprou Sepi","lat":34.786262,"lng":32.425733},{"name":"Alexandrou Ypsilanti - Anti Papadopoulou 1","lat":34.786764,"lng":32.426976},{"name":"Alexandrou Ypsilanti - Dim. Zinieri","lat":34.787748,"lng":32.429166},{"name":"Alexandrou Ypsilanti - Michalaki Christodoulou 1","lat":34.788773,"lng":32.430449},{"name":"Alexandrou Ypsilanti - Nikou Mounti","lat":34.789593,"lng":32.432203},{"name":"10 Elem. School - Evagoras Pallikaridis","lat":34.790675,"lng":32.434021},{"name":"Ellados Ave. - Panikou Dimitriou","lat":34.788311,"lng":32.43372},{"name":"Andrea Dimitriou - Nikou Evagorou","lat":34.78661,"lng":32.434497},{"name":"Vas. Konstantinou A` - Georgiou Nikolaou","lat":34.786186,"lng":32.436522},{"name":"International School of Paphos","lat":34.799276,"lng":32.449453},{"name":"Pafos General Hospital 1","lat":34.788667,"lng":32.444506},{"name":"Archiep. Makariou C` Ave. - Vasilikon","lat":34.784759,"lng":32.445746},{"name":"Elefth. Venizelou Ave. - Eirinis","lat":34.782986,"lng":32.440588},{"name":"Eirinis - Stratigou Alex. Papagou","lat":34.781549,"lng":32.441843},{"name":"Stratigou Alex. Papagou - Andrea Theodosiou","lat":34.780505,"lng":32.442364},{"name":"Stratigou Alex. Papagou - Karpathou","lat":34.778423,"lng":32.440597},{"name":"Stratigou Alex. Papagou - Onisilou","lat":34.775921,"lng":32.437739},{"name":"Anexartisias Ave. - Eptanisou","lat":34.774389,"lng":32.43799},{"name":"Dimokratias Ave. - Thivon","lat":34.77221,"lng":32.442649},{"name":"Afroditi Sports Centre","lat":34.768162,"lng":32.438874},{"name":"Fire Station 2","lat":34.769159,"lng":32.436146},{"name":"Archaeological Museum 2","lat":34.771377,"lng":32.430262},{"name":"Pafos District Courthouse 2","lat":34.77489,"lng":32.427375},{"name":"7 Elementary School - Agios Kendeas 2","lat":34.776699,"lng":32.424772},{"name":"Karavella Bus Station","lat":34.778616,"lng":32.422125}]