[{"name":"Stratigou Alex. Papagou - Andrea Theodosiou","lat":34.780505,"lng":32.442364},{"name":"Stratigou Alex. Papagou - Karpathou","lat":34.778423,"lng":32.440597},{"name":"Stratigou Alex. Papagou - Onisilou","lat":34.775921,"lng":32.437739},{"name":"Stratigou Alex. Papagou - Evzonon","lat":34.774316,"lng":32.435794},{"name":"Stratigou Alex. Papagou - Kritis","lat":34.7719,"lng":32.434073},{"name":"Christodoulou Sozou - Charal. Kalaitzi","lat":34.767807,"lng":32.434297},{"name":"Christodoulou Sozou - Peiraios","lat":34.764616,"lng":32.436384},{"name":"Giannou Kranidioti - Taxiarchon Ave.","lat":34.762574,"lng":32.435513},{"name":"Taxiarchon Ave. - Agiou Irakleidiou","lat":34.761003,"lng":32.433262},{"name":"Taxiarchon Ave. - Georgiou Ioannidi","lat":34.759195,"lng":32.428412},{"name":"Georgiou Ioannidi - Nikou Nikolaidi","lat":34.762193,"lng":32.429211},{"name":"Nikou Nikolaidi - Sotiraki Markidi","lat":34.764178,"lng":32.427591},{"name":"Sotiraki Markidi - Priamou","lat":34.762105,"lng":32.423945},{"name":"Priamou - Mpelapais","lat":34.764078,"lng":32.421691},{"name":"Priamou - Mpelapais","lat":34.765563,"lng":32.421156},{"name":"Priamou - Agapinoros","lat":34.767434,"lng":32.420061},{"name":"Agapinoros - Iliados 2","lat":34.765986,"lng":32.419099},{"name":"Agion Anargyron - Apost. Pavlou Ave.","lat":34.763231,"lng":32.414354},{"name":"Tafoi Ton Vasileon - Chandrinou","lat":34.765567,"lng":32.410742},{"name":"Tombs of the Kings Bus Station","lat":34.770085,"lng":32.410732}]