[{"name":"Agios Neofytos Monastery","lat":34.845704,"lng":32.446683},{"name":"Igoum. Leontiou Ave. - Peristerion","lat":34.839602,"lng":32.439461},{"name":"Igoum. Leontiou Ave. - Miltiadi Stylianou Ave.","lat":34.838755,"lng":32.435639},{"name":"Miltiadi Stylianou Ave. - Agiou Stefanou","lat":34.831364,"lng":32.428625},{"name":"Nikolaou Ellina - 8th Stop","lat":34.817729,"lng":32.422869},{"name":"Nikolaou Ellina - 6th Stop","lat":34.816214,"lng":32.422912},{"name":"Nikolaou Ellina - 4th Stop","lat":34.813826,"lng":32.423279},{"name":"Nikolaou Ellina - 2nd Stop","lat":34.812204,"lng":32.423345},{"name":"Nikolaou Ellina - Dimitriou Zinieri","lat":34.809227,"lng":32.423278},{"name":"Agia Paraskevi Church 2","lat":34.807141,"lng":32.424484},{"name":"Empa Elementary School 2","lat":34.805393,"lng":32.424715},{"name":"Nikolaou Ellina - Ioanni Solomou","lat":34.803413,"lng":32.423646},{"name":"Christou Kkeli Ave. - Aigialousis","lat":34.797317,"lng":32.419775},{"name":"Christou Kkeli Ave. - Iakovou Patatsou","lat":34.798315,"lng":32.417331},{"name":"Archiep. Makariou C` Ave. - Morfou","lat":34.797333,"lng":32.415698},{"name":"Agios Nektarios Church 2","lat":34.794847,"lng":32.418175},{"name":"Archiep. Makariou C` Ave. - Markou Mpotsari","lat":34.792404,"lng":32.420203},{"name":"Akamantidos - Kyriakou Kolokasi","lat":34.786012,"lng":32.422325},{"name":"Nikolaou Ellina - Kifeos","lat":34.781842,"lng":32.421665},{"name":"Karavella Bus Station","lat":34.778616,"lng":32.422125}]