[{"name":"Karavella Bus Station","lat":34.778616,"lng":32.422125},{"name":"Evag. Pallikaridi Ave. - Athinas","lat":34.780092,"lng":32.425197},{"name":"Elefth. Venizelou Ave. - Vas. Konstantinou A`","lat":34.780955,"lng":32.426644},{"name":"S.E.K. Pafos 1","lat":34.780818,"lng":32.428077},{"name":"Elefth. Venizelou Ave. - Georgiou Sourri","lat":34.781083,"lng":32.432753},{"name":"Kykkos Lyceum","lat":34.781226,"lng":32.434359},{"name":"Citizen Service Centre 1","lat":34.781597,"lng":32.436673},{"name":"Elefth. Venizelou Ave. - Agias Eirinis","lat":34.782138,"lng":32.438626},{"name":"Elefth. Venizelou Ave. - Agias Elenis","lat":34.783112,"lng":32.44063},{"name":"Dimokratias Ave. - Agiou Ioannou","lat":34.785909,"lng":32.440961},{"name":"Pafos General Hospital 1","lat":34.788667,"lng":32.444506},{"name":"Pafos General Hospital 2","lat":34.788612,"lng":32.444386},{"name":"8 Elementary School - Iordaneio 1","lat":34.792385,"lng":32.447192},{"name":"Anavargos Square - Ag. Georgios Church","lat":34.794155,"lng":32.451728}]