[{"name":"Tombs of the Kings Bus Station","lat":34.770085,"lng":32.410732},{"name":"Tafoi Ton Vasileon - Amfitrionos","lat":34.769714,"lng":32.410461},{"name":"Tombs of the Kings 1","lat":34.776598,"lng":32.407385},{"name":"Venus Beach Hotel 1","lat":34.781071,"lng":32.405757},{"name":"Tafoi Ton Vasileon - Pinelopis Delta 1","lat":34.785318,"lng":32.405607},{"name":"Agiou Georgiou Ave. - Marathonos Ave. 1","lat":34.788786,"lng":32.403013},{"name":"Agiou Georgiou Ave. - Plataion 1","lat":34.795523,"lng":32.401325},{"name":"Agiou Georgiou Ave. - Dimma","lat":34.797666,"lng":32.400719},{"name":"Agiou Georgiou Ave. - ","lat":34.801022,"lng":32.399252},{"name":"Agiou Georgiou Ave. - Georgiou Griva Digeni 1","lat":34.805457,"lng":32.397},{"name":"Azia Hotel","lat":34.808007,"lng":32.396588},{"name":"Agiou Georgiou Ave. - Tremithos 1","lat":34.810502,"lng":32.396023},{"name":"Agiou Georgiou Ave. - Krasari 1","lat":34.821975,"lng":32.3929},{"name":"Agiou Georgiou Ave. - Mosfilion 1","lat":34.825191,"lng":32.392318},{"name":"Agiou Georgiou Ave. - Pente Litharion","lat":34.826877,"lng":32.392273},{"name":"Agiou Georgiou Ave. - Myloudiou","lat":34.829329,"lng":32.392124},{"name":"Potima Beach 1","lat":34.834898,"lng":32.391274},{"name":"Potima Bay 1","lat":34.843327,"lng":32.387329},{"name":"Agiou Georgiou Ave. - Kolpou Korallion Ave.","lat":34.852901,"lng":32.381394},{"name":"Kolpou Korallion Ave. - Agiou Georgiou Ave. 1","lat":34.853684,"lng":32.379398},{"name":"Kolpou Korallion Ave. - Lysis","lat":34.853504,"lng":32.375822},{"name":"Coral Bay Beach 1","lat":34.854934,"lng":32.369882},{"name":"Coral Beach Hotel 1","lat":34.85687,"lng":32.364255},{"name":"Pegeia Olympic Swimming Pool","lat":34.85897,"lng":32.362183},{"name":"Coral Bay","lat":34.858277,"lng":32.360689}]