[{"name":"Polis Chrysochous Bus Station","lat":35.033238,"lng":32.425272},{"name":"Vas. Stasioikou A` Ave. - Efesou","lat":35.032986,"lng":32.425262},{"name":"Vas. Stasioikou A` Ave. - 1st Stop","lat":35.029586,"lng":32.419509},{"name":"Agios Georgios Church 1","lat":35.029066,"lng":32.418329},{"name":"Akamantos Ave. - Georgiou Chatzigianni","lat":35.031376,"lng":32.414782},{"name":"Akamantos Ave. - 1st Stop","lat":35.034061,"lng":32.41074},{"name":"Latsi Marina - Parking Place 1","lat":35.039468,"lng":32.397259},{"name":"Latsi Marina 1","lat":35.040908,"lng":32.393028},{"name":"Latsi Beach 1","lat":35.040798,"lng":32.385431},{"name":"1st Stop Neo Chorio Pafou","lat":35.038295,"lng":32.377435},{"name":"3rd Stop Neo Chorio Pafou","lat":35.037317,"lng":32.37491},{"name":"Anassa Hotel 1","lat":35.042512,"lng":32.369728},{"name":"Latsi - Loutra Afroditis Road - 1st Stop","lat":35.044582,"lng":32.360403},{"name":"Aphrodite`s Baths","lat":35.056348,"lng":32.346659}]