[{"name":"Kynousa","lat":35.032291,"lng":32.507215},{"name":"Makounta","lat":35.051986,"lng":32.47738},{"name":"Mariou Ave. - 4th Stop","lat":35.051863,"lng":32.449528},{"name":"Mariou Ave. - 2nd Stop","lat":35.040313,"lng":32.437907},{"name":"Polis Chrysochous Technical School 2","lat":35.037949,"lng":32.433714},{"name":"Mariou Ave. - Arsinois","lat":35.035899,"lng":32.429189},{"name":"Polis Chrysochous Bus Station","lat":35.033238,"lng":32.425272}]