[{"name":"Paphos Harbour Station","lat":34.756566,"lng":32.408533},{"name":"Annabelle Hotel 1","lat":34.756159,"lng":32.417529},{"name":"Poseidonos Ave. - 1st Stop","lat":34.753817,"lng":32.419992},{"name":"Poseidonos Ave. - 3rd Stop","lat":34.752424,"lng":32.421095},{"name":"Poseidonos Ave. - 5th Stop","lat":34.749488,"lng":32.423781},{"name":"Neapolis University 2","lat":34.749804,"lng":32.427581},{"name":"Neapolis University 1","lat":34.749208,"lng":32.427366},{"name":"Poseidonos Ave. - 7th Stop","lat":34.744985,"lng":32.42887},{"name":"Poseidonos Ave. - 9th Stop","lat":34.743327,"lng":32.431045},{"name":"Poseidonos Ave. - 11th Stop","lat":34.741614,"lng":32.433078},{"name":"Theas Afroditis Ave. - 1st Stop","lat":34.738425,"lng":32.437578},{"name":"Theas Afroditis Ave. - 3rd Stop","lat":34.741366,"lng":32.443862},{"name":"Ierokipion Ave. - 1st Stop","lat":34.746643,"lng":32.446022},{"name":"Geroskipou High School 1","lat":34.755119,"lng":32.451898},{"name":"Ippokratous - Kozanis","lat":34.755994,"lng":32.456088},{"name":"Archiep. Makariou C` Ave. - Al. Panagouli","lat":34.758902,"lng":32.457085},{"name":"Archiep. Makariou C` Ave. - Ag. Sergiou 1","lat":34.756191,"lng":32.461867},{"name":"Archiep. Makariou C` Ave. - Filias","lat":34.752842,"lng":32.465112},{"name":"American Academy 1","lat":34.745342,"lng":32.47402},{"name":"1st Stop Acheleia","lat":34.740113,"lng":32.480619},{"name":"Ag. Georgios Church - Acheleia 1","lat":34.738679,"lng":32.484768},{"name":"3rd Stop Acheleia","lat":34.734907,"lng":32.49507},{"name":"Archiep. Makariou C` Ave. - Anexartisias 1","lat":34.728772,"lng":32.512027},{"name":"Old Lemesos - Pafos Road - 1st Stop","lat":34.723375,"lng":32.526759},{"name":"Old Lemesos - Pafos Road - 3rd Stop","lat":34.720252,"lng":32.535514},{"name":"Old Lemesos - Pafos Road - 5th Stop","lat":34.718031,"lng":32.541894},{"name":"Old Lemesos - Pafos Road - 7th Stop","lat":34.714582,"lng":32.550344},{"name":"Kouklia Archaeological Site 1","lat":34.705567,"lng":32.573706},{"name":"Old Lemesos - Pafos Road - 9th Stop 1","lat":34.700707,"lng":32.573916},{"name":"Old Lemesos - Pafos Road - 11th Stop","lat":34.686179,"lng":32.584449},{"name":"Aphrodite Hills","lat":34.683094,"lng":32.608569},{"name":"Old Lemesos - Pafos Road - 13th Stop","lat":34.673812,"lng":32.607707},{"name":"Petra tou Romiou ","lat":34.665363,"lng":32.628091},{"name":"Aphrodite Hills","lat":34.683094,"lng":32.608569}]