[{"name":"1st Stop Stavrokonnou","lat":34.785062,"lng":32.618351},{"name":"3rd Stop Stavrokonnou","lat":34.785289,"lng":32.621728},{"name":"Stavrokonnou - Kelokedara Road - 1st Stop","lat":34.793284,"lng":32.647707},{"name":"Trachypedoula","lat":34.800504,"lng":32.678964},{"name":"1st Stop Salamiou","lat":34.837492,"lng":32.688653},{"name":"3rd Stop Salamiou","lat":34.840082,"lng":32.689169},{"name":"Salamiou Sport Field 1","lat":34.841694,"lng":32.691831},{"name":"1st Stop Agios Ioannis Pafou 1","lat":34.867555,"lng":32.69156},{"name":"2nd Stop Agios Ioannis Pafou","lat":34.869303,"lng":32.690831}]