[{"name":"Statos - Agios Fotios","lat":34.883958,"lng":32.621134},{"name":"2nd Stop Koilineia 2","lat":34.884215,"lng":32.631507},{"name":"1st Stop Koilineia 2","lat":34.882388,"lng":32.632544},{"name":"2nd Stop Galataria 2","lat":34.878049,"lng":32.632092},{"name":"1st Stop Galataria 2","lat":34.877019,"lng":32.631353},{"name":"Pentalia 2","lat":34.856074,"lng":32.62078},{"name":"2nd Stop Nea Pentalia","lat":34.835652,"lng":32.596441},{"name":"1st Stop Nea Pentalia 2","lat":34.837834,"lng":32.601801},{"name":"Amargeti Village Centre","lat":34.824133,"lng":32.582096},{"name":"1st Stop Amargeti 2","lat":34.822497,"lng":32.583416},{"name":"2nd Stop Amargeti","lat":34.819944,"lng":32.583134},{"name":"Eledio Community Board 2","lat":34.808989,"lng":32.568035},{"name":"Axylou 2","lat":34.8055,"lng":32.563178},{"name":"1st Stop Nata 1","lat":34.781604,"lng":32.56855},{"name":"2nd Stop Nata 2","lat":34.779942,"lng":32.570427},{"name":"Nata Village Centre - Agios Nicolaos Church 2","lat":34.778816,"lng":32.570695},{"name":"3rd Stop Agia Varvara Pafou 2","lat":34.750697,"lng":32.51275},{"name":"2nd Stop Agia Varvara Pafou 2","lat":34.74898,"lng":32.509624},{"name":"4th Stop Acheleia","lat":34.734514,"lng":32.495804},{"name":"Ag. Georgios Church - Acheleia 2","lat":34.738223,"lng":32.48571},{"name":"2nd Stop Acheleia","lat":34.7403,"lng":32.479962},{"name":"American Academy 2","lat":34.744927,"lng":32.474045},{"name":"Elea Golf Club","lat":34.747587,"lng":32.471821},{"name":"Archiep. Makariou C` Ave. - Ag. Sergiou 2","lat":34.749665,"lng":32.468617},{"name":"Archiep. Makariou C` Ave. - G. Vasileiadi","lat":34.753012,"lng":32.464728},{"name":"Archiep. Makariou C` Ave. - Ag. Sergiou 2","lat":34.75646,"lng":32.461373},{"name":"Archiep. Makariou C` Ave. - Markou Drakou","lat":34.757722,"lng":32.459224},{"name":"Archiep. Makariou C` Ave. - Ippokratous","lat":34.758696,"lng":32.457218},{"name":"Archiep. Makariou C` Ave. - Arsinois","lat":34.759598,"lng":32.455453},{"name":"Archiep. Makariou C` Ave. - Korytsas","lat":34.760503,"lng":32.452092},{"name":"Archiep. Makariou C` Ave. - Kosta Karnavalou","lat":34.762028,"lng":32.450334},{"name":"Archiep. Makariou C` Ave. - Kyr. Partasidi","lat":34.76375,"lng":32.448137},{"name":"A` High School - Ag. Theodoros 2","lat":34.766725,"lng":32.444041},{"name":"Afroditi Sports Centre","lat":34.768162,"lng":32.438874},{"name":"Fire Station 2","lat":34.769159,"lng":32.436146},{"name":"Archaeological Museum 2","lat":34.771377,"lng":32.430262},{"name":"Georg. Griva Digeni Ave. - Panikou Pastidi","lat":34.772719,"lng":32.425991},{"name":"Pafos City Hall","lat":34.773684,"lng":32.424181},{"name":"Evagora Pallikaridi - Charalambou Mouskou 1","lat":34.776444,"lng":32.422293},{"name":"Karavella Bus Station","lat":34.778616,"lng":32.422125}]