[{"name":"2nd Stop Agios Dimitrianos 1","lat":34.905991,"lng":32.55077},{"name":"3rd Stop Agios Dimitrianos","lat":34.906901,"lng":32.550502},{"name":"Milia Pafou","lat":34.919628,"lng":32.539364},{"name":"1st Stop Dryneia 1","lat":34.915531,"lng":32.52914},{"name":"2nd Stop Dryneia 1","lat":34.916888,"lng":32.525575},{"name":"1st Stop Drymou 1","lat":34.924885,"lng":32.513759},{"name":"2nd Stop Drymou","lat":34.931088,"lng":32.511324},{"name":"Simou Elementary School","lat":34.940605,"lng":32.507709},{"name":"2nd Stop Simou","lat":34.941232,"lng":32.504519},{"name":"Lasa 1","lat":34.924182,"lng":32.527635},{"name":"Fyti 1","lat":34.92837,"lng":32.545085},{"name":"Kritou Marottou Village Centre 1","lat":34.92591,"lng":32.562902},{"name":"1st Stop Kritou Marottou 1","lat":34.926244,"lng":32.560623},{"name":"2nd Stop Agios Dimitrianos 2","lat":34.905992,"lng":32.550945}]