[{"name":"Agios Rafail Church 2","lat":35.171039,"lng":32.584326},{"name":"1st Stop Pachyammos 2","lat":35.171086,"lng":32.579526},{"name":"10th Stop Pomos","lat":35.170157,"lng":32.549431},{"name":"8th Stop Pomos","lat":35.168134,"lng":32.548729},{"name":"6th Stop Pomos","lat":35.166679,"lng":32.547836},{"name":"Pomos Cultural Centre","lat":35.162076,"lng":32.546731},{"name":"4th Stop Pomos","lat":35.159896,"lng":32.544668},{"name":"2nd Stop Pomos","lat":35.158964,"lng":32.543915},{"name":"4th Stop Nea Dimmata","lat":35.140029,"lng":32.523021},{"name":"2nd Stop Nea Dimmata","lat":35.136044,"lng":32.521014},{"name":"12th Stop Agia Marina Chrysochous","lat":35.130523,"lng":32.518115},{"name":"10th Stop Agia Marina Chrysochous","lat":35.123074,"lng":32.515558},{"name":"Agia Marina Church 2","lat":35.120108,"lng":32.513535},{"name":"8th Stop Agia Marina Chrysochous","lat":35.117159,"lng":32.511247},{"name":"6th Stop Agia Marina Chrysochous","lat":35.115026,"lng":32.509834},{"name":"4th Stop Agia Marina Chrysochous","lat":35.111068,"lng":32.507816},{"name":"2nd Stop Agia Marina Chrysochous","lat":35.108111,"lng":32.505859},{"name":"4th Stop Gialia","lat":35.106737,"lng":32.504923},{"name":"2nd Stop Gialia","lat":35.103891,"lng":32.503602},{"name":"Argaka Seaside Road - 12th Stop","lat":35.079257,"lng":32.484314},{"name":"Argaka Seaside Road - 10th Stop","lat":35.075734,"lng":32.480651},{"name":"Argaka Seaside Road - 8th Stop","lat":35.072617,"lng":32.47715},{"name":"Argaka Seaside Road - 6th Stop","lat":35.070867,"lng":32.474956},{"name":"Argaka Seaside Road - 4thStop","lat":35.069389,"lng":32.4732},{"name":"Argaka Seaside Road - 2nd Stop","lat":35.067122,"lng":32.470144},{"name":"Mariou Ave. - 1st Stop","lat":35.061759,"lng":32.462556},{"name":"Mariou Ave. - 4th Stop","lat":35.051863,"lng":32.449528},{"name":"Mariou Ave. - 2nd Stop","lat":35.040313,"lng":32.437907},{"name":"Polis Chrysochous Technical School 2","lat":35.037949,"lng":32.433714},{"name":"Mariou Ave. - Arsinois","lat":35.035899,"lng":32.429189},{"name":"Polis Chrysochous Bus Station","lat":35.033238,"lng":32.425272}]