[{"name":"Polis Chrysochous Bus Station","lat":35.033238,"lng":32.425272},{"name":"Konstantinoupoleos - 1st Stop","lat":35.030414,"lng":32.428701},{"name":"Polis Chrysochous Police Station","lat":35.029309,"lng":32.429574},{"name":"Konstantinoupoleos - Theodoulou Niti","lat":35.028134,"lng":32.430964},{"name":"3rd Stop Chrysochou","lat":35.004079,"lng":32.439361},{"name":"5th Stop Chrysochou  1","lat":35.002881,"lng":32.441572},{"name":"Goudi Square 1","lat":34.991654,"lng":32.441462},{"name":"Choli 1","lat":34.979493,"lng":32.444228},{"name":"Kato Akourdaleia 1","lat":34.952554,"lng":32.451146},{"name":"Pano Akourdaleia","lat":34.943435,"lng":32.446684},{"name":"2nd Stop Miliou 1","lat":34.939349,"lng":32.460432},{"name":"Ayii Anargyri Spa Resort 1","lat":34.936259,"lng":32.465238},{"name":"1st Stop Miliou 1","lat":34.934953,"lng":32.469615},{"name":"4th Stop Giolou","lat":34.921395,"lng":32.476983},{"name":"Giolou Elementary School","lat":34.92344,"lng":32.476488}]