[{"name":"Polis Chrysochous Bus Station","lat":35.033238,"lng":32.425272},{"name":"Vas. Stasioikou A` Ave. - Efesou","lat":35.032986,"lng":32.425262},{"name":"Vas. Stasioikou A` Ave. - 1st Stop","lat":35.029586,"lng":32.419509},{"name":"Agios Georgios Church 1","lat":35.029066,"lng":32.418329},{"name":"Akamantos Ave. - Georgiou Chatzigianni","lat":35.031376,"lng":32.414782},{"name":"Agios Epifanios Church 2","lat":34.962635,"lng":32.397724},{"name":"1st Stop Drouseia 2","lat":34.960494,"lng":32.398813},{"name":"2nd Stop Drouseia 2","lat":34.957873,"lng":32.397704},{"name":"1st Stop Ineia 2","lat":34.956543,"lng":32.395009},{"name":"Ineia Square 2","lat":34.955635,"lng":32.393723},{"name":"Kato Arodes 2","lat":34.940619,"lng":32.402265},{"name":"Pano Arodes 2","lat":34.936199,"lng":32.407499},{"name":"1st Stop Kathikas 1","lat":34.913267,"lng":32.426109},{"name":"Kathikas Square","lat":34.912417,"lng":32.425699},{"name":"Grigori Afxentiou Ave. - Markou Drakou","lat":34.884491,"lng":32.380042},{"name":"Pegeia Square 2","lat":34.884159,"lng":32.38208},{"name":"Tassou Markou- Kolikas","lat":34.875175,"lng":32.367616},{"name":"Tassou Markou- Sea Caves","lat":34.862264,"lng":32.357694},{"name":"Coral Bay","lat":34.858277,"lng":32.360689}]