[{"name":"Akoursos ","lat":34.886787,"lng":32.421456},{"name":"Pegeia Public Parking Place","lat":34.883823,"lng":32.381622},{"name":"Pegeia Police Station 2","lat":34.880225,"lng":32.379877},{"name":"Michalaki Kyprianou Ave. - Agias Theklis","lat":34.87808,"lng":32.380013},{"name":"Michalaki Kyprianou Ave. - Spyrou Kyprianou","lat":34.871181,"lng":32.378227},{"name":"Michalaki Kyprianou Ave. - Louvia","lat":34.865645,"lng":32.378268},{"name":"Michalaki Kyprianou Ave. - Aigialousis 2","lat":34.85665,"lng":32.380885},{"name":"Michalaki Kyprianou Ave. - Agiou Georgiou Ave.","lat":34.853657,"lng":32.38105},{"name":"Agiou Georgiou Ave. - Exakamarou","lat":34.852579,"lng":32.381998},{"name":"Potima Bay 2","lat":34.844399,"lng":32.387014},{"name":"Potima Beach 2","lat":34.834602,"lng":32.391626},{"name":"Christou Kkeli Ave. - Kassima","lat":34.827553,"lng":32.397659},{"name":"Christou Kkeli Ave. - Gianni Oikonomidi","lat":34.824146,"lng":32.401588},{"name":"Christou Kkeli Ave. - Pavlou Liasidi","lat":34.822182,"lng":32.403745},{"name":"Christou Kkeli Ave. - Iras","lat":34.821438,"lng":32.40655},{"name":"Christou Kkeli Ave. - Nikola Giannikou 2","lat":34.820468,"lng":32.409236},{"name":"Christou Kkeli Ave. - Eleftherias","lat":34.819784,"lng":32.411351},{"name":"Archiepiskopou Makariou C` Ave. - 4th Stop","lat":34.812873,"lng":32.41057},{"name":"Archiepiskopou Makariou C` Ave. - 2nd Stop","lat":34.810636,"lng":32.410443},{"name":"Agiou Stefanou - Ellados Ave.","lat":34.808056,"lng":32.410287},{"name":"Agiou Stefanou - Agiou Stylianou","lat":34.805866,"lng":32.410598},{"name":"Evag. Pallikaridi - Athinon","lat":34.804028,"lng":32.40908},{"name":"Evag. Pallikaridi - Andrea Charalampous","lat":34.802099,"lng":32.407235},{"name":"Papakosta Leonidou - Dimitriou Christodoulou","lat":34.800153,"lng":32.407588},{"name":"Eleftherias Ave. - Georg. Tapakoudi","lat":34.796079,"lng":32.409858},{"name":"Chlorakas Elementary School - Ag. Nikolaos 2","lat":34.79408,"lng":32.412332},{"name":"Eleftherias Ave. - Theodorou Petrou","lat":34.793609,"lng":32.413866},{"name":"Eleftherias Ave. - Othonos","lat":34.79315,"lng":32.415848},{"name":"Akamantidos - Kyriakou Kolokasi","lat":34.786012,"lng":32.422325},{"name":"Nikolaou Ellina - Kifeos","lat":34.781842,"lng":32.421665},{"name":"Karavella Bus Station","lat":34.778616,"lng":32.422125}]