[{"name":"Dionysios Solomos Square A","lat":35.170796,"lng":33.358998},{"name":"Ave. Omirou","lat":35.170174,"lng":33.359149},{"name":"Eleftheria Square","lat":35.168524,"lng":33.36203},{"name":"Ave. Stasinou - Archiepiskopou Makariou B Square","lat":35.168496,"lng":33.36528},{"name":"Ave. Stasinou - Archiepiskopou Makariou B Square","lat":35.169245,"lng":33.368248},{"name":"Ave. Salaminos - Anoigma Kolokasi 1","lat":35.172122,"lng":33.37104},{"name":"Ave. Salaminos - Vasileos Georgiou B Square","lat":35.175028,"lng":33.372931},{"name":"Ave. Archiep. Makariou C - Pavlou Karolidi","lat":35.179797,"lng":33.376346},{"name":"Ave. Archiep. Makariou C - Napoleontos","lat":35.181759,"lng":33.377618},{"name":"Ave. Archiep. Makariou C - Tinou","lat":35.18354,"lng":33.379087},{"name":"Ave. Archiep. Makariou C - Vasileos Pavlou","lat":35.185593,"lng":33.379756},{"name":"Ave. Archiep. Makariou C - Agiou Ilarionos","lat":35.188684,"lng":33.380495},{"name":"Smyrnis-Eleousis","lat":35.189885,"lng":33.382708},{"name":"Smyrnis - Markou Drakou 2","lat":35.190644,"lng":33.385205},{"name":"Smyrnis - Kaimakli Grammiko Park 2","lat":35.191483,"lng":33.38767},{"name":"Andromachis - Argous","lat":35.189902,"lng":33.38875},{"name":"Kronou - Gortynias","lat":35.188399,"lng":33.387732},{"name":"Kronou - Delfon","lat":35.18964,"lng":33.391813},{"name":"Akamantos - Kantaras","lat":35.188802,"lng":33.394379},{"name":"Kantaras - Roundabout Sopaz 2","lat":35.186582,"lng":33.392216},{"name":"Agiou Ilarionos - Kaimakli Elementary School C 2","lat":35.186362,"lng":33.387722},{"name":"Psaron - Archangel Michael","lat":35.185704,"lng":33.3846},{"name":"Larisis - Archangelou Michail","lat":35.185385,"lng":33.380062},{"name":"Ave. Archiep. Makariou C - Strymonos","lat":35.183467,"lng":33.379164},{"name":"Ave. Archiep. Makariou C - Spartis","lat":35.181758,"lng":33.377728},{"name":"Ave. Archiep. Makariou C - Kyriakou Matsi Avenue","lat":35.179707,"lng":33.376401},{"name":"Ave. Salaminos - Aigeos","lat":35.174838,"lng":33.373215},{"name":"Ave. Salaminos - Anoigma Kolokasi 2","lat":35.17104,"lng":33.370991},{"name":"Ave. Stasinou - Alkaiou","lat":35.169038,"lng":33.368203},{"name":"Ave. Stasinou - Kritis","lat":35.168215,"lng":33.365817},{"name":"Bastion Davila","lat":35.168513,"lng":33.362886},{"name":"Diagorou","lat":35.169683,"lng":33.357247},{"name":"Solomos Square Alighting ","lat":35.170392,"lng":33.358392}]