[{"name":"Nicosia General Hospital","lat":35.128043,"lng":33.374879},{"name":"Lemesou Ave. - Athalassis","lat":35.120129,"lng":33.376917},{"name":"Ave. Archiepiskopou Makariou C - Aiantos","lat":35.116706,"lng":33.378624},{"name":"Ave. Archiep. Makariou C - Artemiou Fragkeskou","lat":35.114238,"lng":33.380741},{"name":"Ave. Archiepiskopou Makariou C - Nikou Evagorou","lat":35.112294,"lng":33.382181},{"name":"Agios Eleftherios Church 1","lat":35.11201,"lng":33.383705},{"name":"Iroon 1","lat":35.11351,"lng":33.382658},{"name":"Antistaseos - Akropoleos","lat":35.114671,"lng":33.3833},{"name":"Antistaseos - Danaon","lat":35.114089,"lng":33.384856},{"name":"Antistaseos - Dimokratias","lat":35.113008,"lng":33.387528},{"name":"Dimokratias - Panagioti Georgiadi","lat":35.111375,"lng":33.387839},{"name":"Dimokratias - Iroon 1","lat":35.110373,"lng":33.38508},{"name":"Ave. Arch. Makariou C - Christodoulou Englezou","lat":35.109267,"lng":33.384284},{"name":"Ave. Archiep. Makariou C - Panagias Melandrinas","lat":35.106161,"lng":33.385378},{"name":"Ave. Geriou - Dimitri Christodoulou","lat":35.105793,"lng":33.393474},{"name":"Ave. Geriou - Mazeron","lat":35.10636,"lng":33.396451},{"name":"Ave. Geriou - Odyssea Elyti","lat":35.107167,"lng":33.400515},{"name":"Geri Municipal Stadium","lat":35.106788,"lng":33.406021},{"name":"Ave. Geriou - ASPIS","lat":35.105921,"lng":33.409166},{"name":"Ave. Geriou - Ammochostou","lat":35.105561,"lng":33.414223},{"name":"Geri Elementary School A","lat":35.106088,"lng":33.418296},{"name":"Agiou Mina - Griva Digeni","lat":35.106308,"lng":33.422632},{"name":"Dimokratias 2","lat":35.10299,"lng":33.420036}]