[{"name":"Odysseos - Vladimirou Kafkaridi 1","lat":35.073381,"lng":33.383535},{"name":"Odysseos - Vladimirou Kafkaridi 2","lat":35.072753,"lng":33.388204},{"name":"Ermou - Agias Triados","lat":35.067268,"lng":33.397106},{"name":"Ftelias - Filipou ","lat":35.079766,"lng":33.405361},{"name":"Filipou - Megalou Aleksandrou Ave.","lat":35.083431,"lng":33.39883},{"name":"Idaliou - Ioanni Kapodistria","lat":35.085516,"lng":33.395308},{"name":"Dimitri Stavrou - Sporting Club 2","lat":35.089906,"lng":33.393069},{"name":"Idaliou - Stavrou Venizelou","lat":35.09745,"lng":33.38853},{"name":"Dimitri Stavrou - Iona Nikolaou","lat":35.101594,"lng":33.386838},{"name":"Ave. Archiepiskopou Makariou C - Kimonos","lat":35.106126,"lng":33.385213},{"name":"Ave. Archiepiskopou Makariou C - Riga Feraiou","lat":35.109267,"lng":33.38412},{"name":"Ave. Archiepiskopou Makariou C - Petrou Iliadi","lat":35.112313,"lng":33.381972},{"name":"Ave. Archiep. Makariou C - Petrou Giallourou","lat":35.11422,"lng":33.380577},{"name":"Ave. Arch. Makariou C - Giannou Kranidioti Ave.","lat":35.117131,"lng":33.378088},{"name":"Lemesou Ave. - Kampou","lat":35.119759,"lng":33.376827},{"name":"Lemesou Ave. - Volvo","lat":35.126836,"lng":33.374533},{"name":"The Mall of Cyprus - Verginas","lat":35.129695,"lng":33.374162},{"name":"Athalassa Botanic Gardens ","lat":35.137788,"lng":33.378732},{"name":"Fytoriou - Cyprus Institute","lat":35.138424,"lng":33.382786},{"name":"Fytoriou - Radio Station","lat":35.139692,"lng":33.397886},{"name":"Fytoriou - Agios Georgios","lat":35.140608,"lng":33.40171},{"name":"University of Cyprus - Oceanography Center","lat":35.144386,"lng":33.407152},{"name":"University of Cyprus - North Campus Entrance","lat":35.146928,"lng":33.415453}]