[{"name":"Dimokratias 2","lat":35.10299,"lng":33.420036},{"name":"Dimokratias - Eleftheriou Venizelou","lat":35.101587,"lng":33.418833},{"name":"Epistrofis - Myrtou","lat":35.100936,"lng":33.416591},{"name":"Epistrofis - Kosta Varnali","lat":35.101994,"lng":33.415774},{"name":"Epistrofis - Geriou","lat":35.104562,"lng":33.41379},{"name":"Ave. Geriou - Ammochostou","lat":35.105561,"lng":33.414223},{"name":"Geri Elementary School A","lat":35.106088,"lng":33.418296},{"name":"Agiou Mina - Griva Digeni","lat":35.106308,"lng":33.422632},{"name":"Griva Digeni - Meletiou Metaxaki","lat":35.106755,"lng":33.423556},{"name":"Griva Digeni - Nikou Kazantzaki","lat":35.10832,"lng":33.424771},{"name":"Griva Digeni - Thaleias","lat":35.110559,"lng":33.426582},{"name":"Archiepiskopou Makariou C - Theodosi Pieridi","lat":35.112532,"lng":33.427152},{"name":"Archiep. Makariou C - Georgiou Papandreou","lat":35.114333,"lng":33.422541},{"name":"Ave. Athalassas - Konstantinou Giallourou","lat":35.116346,"lng":33.419369},{"name":"University of Cyprus - Oceanography Center","lat":35.144386,"lng":33.407152},{"name":"University of Cyprus - North Campus Entrance","lat":35.146928,"lng":33.415453}]