[{"name":"Famagusta Central Bus Station","lat":35.039476,"lng":33.983638},{"name":"1 Apriliou Ave. - Tasou Markou 1","lat":35.040749,"lng":33.977843},{"name":"Xenion Education 1","lat":35.041868,"lng":33.977812},{"name":"1 Apriliou Ave. - Cheimaras","lat":35.046108,"lng":33.977556},{"name":"Griva Digeni Ave. - Daidalou","lat":35.050049,"lng":33.976276},{"name":"Paralimni Lyceum","lat":35.052257,"lng":33.980962},{"name":"Giorki Papadopoulou - Christou Tsiarta","lat":35.051991,"lng":33.9904},{"name":"Giorki Papadopoulou - Apollonos","lat":35.052889,"lng":33.995148},{"name":"Giorki Papadopoulou - Parnithos 1","lat":35.056007,"lng":34.000954},{"name":"Kappari Ave. - 1st Stop","lat":35.055959,"lng":34.006655},{"name":"Kappari Ave. - 3rd Stop","lat":35.053464,"lng":34.010704},{"name":"Kappari Ave. - 5th Stop","lat":35.050164,"lng":34.014983},{"name":"Protara Ave. - 6th Stop","lat":35.048425,"lng":34.012692},{"name":"Protara Ave. - 6th Stop","lat":35.048455,"lng":34.009096},{"name":"Protara Ave. - 4th Stop","lat":35.047447,"lng":34.006704},{"name":"Agia Varvara Church 1","lat":35.045154,"lng":34.001644},{"name":"Protara Ave. - 2nd Stop","lat":35.043077,"lng":33.994349},{"name":"B´ Paralimni Elementary School 2","lat":35.041443,"lng":33.991249},{"name":"Dimitras - Thermopylon","lat":35.038751,"lng":33.988585},{"name":"C´ Paralimni Elementary School","lat":35.033652,"lng":33.982352},{"name":"1 Apriliou Ave.  - 1st Stop","lat":35.027927,"lng":33.982294},{"name":"1 Apriliou Ave.  - 2nd Stop","lat":35.027611,"lng":33.982312},{"name":"1 Apriliou Ave. - Agiou Nektariou","lat":35.032773,"lng":33.979622},{"name":"1 Apriliou Ave. - Alikarnassou","lat":35.038233,"lng":33.977955},{"name":"Famagusta Central Bus Station","lat":35.039476,"lng":33.983638}]