[{"name":"Deryneia (Green Line) 2","lat":35.069357,"lng":33.960164},{"name":"Ammochostou Ave. - Dim. Christodoulou 2","lat":35.065644,"lng":33.961064},{"name":"Archiep. Makariou C´ - Stadiou","lat":35.06231,"lng":33.95961},{"name":"Archiep. Makariou C´ - Anagenniseos","lat":35.060665,"lng":33.954349},{"name":"Archiep. Makariou C´  - Christ. Karona","lat":35.057679,"lng":33.949972},{"name":"Deryneia Municipal Swimming Pool 2","lat":35.049947,"lng":33.934279},{"name":"Archiep. Makariou C´ - 1st Stop","lat":35.045934,"lng":33.928477},{"name":"Foti Pitta Ave. - Panou Ioannou","lat":35.041111,"lng":33.923588},{"name":"Foti Pitta - Akropoleos","lat":35.038503,"lng":33.91914},{"name":"Modestou Panteli - Agion Anargyron 1","lat":35.019184,"lng":33.901759},{"name":"Modestou Panteli - Dionysiou Solomou 2","lat":35.011864,"lng":33.894194},{"name":"Achyronas Liopetriou 2","lat":35.007892,"lng":33.893504},{"name":"Michail Koutsofta - Mpoumpoulinas","lat":35.004368,"lng":33.893345},{"name":"Agia Thekla Tourist Area - 10th Stop","lat":34.97555,"lng":33.905367},{"name":"Agia Thekla Tourist Area - 8th Stop","lat":34.976515,"lng":33.91022},{"name":"Agia Thekla Tourist Area - 6th Stop","lat":34.977646,"lng":33.915732},{"name":"Agia Thekla Tourist Area - 4th Stop","lat":34.979569,"lng":33.92259},{"name":"Agia Thekla Tourist Area - 2nd Stop","lat":34.981356,"lng":33.929468},{"name":"Agia Thekla Beach 2","lat":34.981112,"lng":33.935414},{"name":"Agia Napa Marina 2","lat":34.980083,"lng":33.942512},{"name":"Agias Theklas - 4th Stop","lat":34.985128,"lng":33.945342},{"name":"Agias Theklas - 2nd Stop","lat":34.986899,"lng":33.948419},{"name":"Makronissos Beach 2","lat":34.988502,"lng":33.955516},{"name":"Landa Beach 2","lat":34.988984,"lng":33.959586},{"name":"Nissi Bay Beach 2","lat":34.988926,"lng":33.966872},{"name":"Nisi Ave. - Asprovounou","lat":34.990101,"lng":33.974435},{"name":"Nisi Ave. - Isaak kai Solomou","lat":34.988792,"lng":33.983579},{"name":"Ave. Nisi Ave. - Agias Mavris 2","lat":34.988266,"lng":33.987254},{"name":"Nisi Ave. - Katalymmata","lat":34.987343,"lng":33.995483},{"name":"Evagora Pallikaridi - Kassandrou","lat":34.983975,"lng":33.997151},{"name":"Agia Napa Harbour 2","lat":34.984026,"lng":34.000811},{"name":"Agia Napa Monastery 2","lat":34.988322,"lng":34.00025},{"name":"Dionysiou Solomou - Kryou Nerou Ave.","lat":34.98851,"lng":34.002684},{"name":"Kryou Nerou Ave. - 1st Stop","lat":34.986852,"lng":34.006827},{"name":"Kryou Nerou Ave. - 2ndStop 1","lat":34.986175,"lng":34.009142},{"name":"Kryou Nerou Ave. - Marina Hotel 1","lat":34.985224,"lng":34.016087},{"name":"Agia Napa Police Station","lat":34.992999,"lng":34.001764},{"name":"Paralimni - Agia Napa Road - 1st Stop","lat":34.997178,"lng":34.000127},{"name":"Paralimni - Agia Napa Road - 3rd Stop","lat":35.00241,"lng":33.998766},{"name":"Paralimni - Agia Napa Road - 5th Stop","lat":35.010088,"lng":33.993873},{"name":"Paralimni - Agia Napa Road - 7th Stop","lat":35.014063,"lng":33.989526},{"name":"Paralimni - Agia Napa Road - 9th Stop","lat":35.020125,"lng":33.985949},{"name":"1 Apriliou Ave.  - 2nd Stop","lat":35.027611,"lng":33.982312},{"name":"1 Apriliou Ave. - Agiou Nektariou","lat":35.032773,"lng":33.979622},{"name":"1 Apriliou Ave. - Alikarnassou","lat":35.038233,"lng":33.977955},{"name":"Famagusta Central Bus Station","lat":35.039476,"lng":33.983638},{"name":"1 Apriliou Ave. - Tasou Markou 1","lat":35.040749,"lng":33.977843},{"name":"Xenion Education 1","lat":35.041868,"lng":33.977812},{"name":"1 Apriliou Ave. - Cheimaras","lat":35.046108,"lng":33.977556},{"name":"Griva Digeni Ave. - Daidalou","lat":35.050049,"lng":33.976276},{"name":"Eleftherias - Nikodimou Mylona","lat":35.054138,"lng":33.972454},{"name":"Eleftherias - Grigori Afxentiou","lat":35.057079,"lng":33.969956},{"name":"Eleftherias - Agiou Stylianou","lat":35.058953,"lng":33.966754},{"name":"Famagusta General Hospital","lat":35.061631,"lng":33.971304},{"name":"Eleftherias - Afroditis","lat":35.061678,"lng":33.963068},{"name":"Ammochostou Ave. - Eleftheriou Iakovou","lat":35.063834,"lng":33.960747},{"name":"Ammochostou Ave. - Dim. Christodoulou 1","lat":35.065581,"lng":33.960987},{"name":"Deryneia (Green Line) 1","lat":35.069257,"lng":33.960273}]