[{"name":"Deryneia (Green Line) 2","lat":35.069357,"lng":33.960164},{"name":"Ammochostou Ave. - Dim. Christodoulou 2","lat":35.065644,"lng":33.961064},{"name":"Eleftherias - Ammochostou Ave.","lat":35.062793,"lng":33.961283},{"name":"Eleftherias - Daidalou","lat":35.061193,"lng":33.963973},{"name":"Famagusta General Hospital","lat":35.061631,"lng":33.971304},{"name":"Eleftherias - Ippokratous","lat":35.058805,"lng":33.967169},{"name":"Eleftherias - Kyriakou Matsi","lat":35.055878,"lng":33.971356},{"name":"Griva Digeni Ave. - Thessalonikis","lat":35.049693,"lng":33.976864},{"name":"1 Apriliou Ave. - Georgiou Griva Digeni Ave.","lat":35.0445,"lng":33.977877},{"name":"Xenion Education 2","lat":35.041614,"lng":33.977941},{"name":"1 Apriliou Ave. - Tasou Markou 2","lat":35.040847,"lng":33.977976},{"name":"Famagusta Central Bus Station","lat":35.039476,"lng":33.983638},{"name":"1 Apriliou Ave. - Marias Sygklitikis","lat":35.03612,"lng":33.978226},{"name":"1 Apriliou Ave. - Stadiou","lat":35.032417,"lng":33.980144},{"name":"1 Apriliou Ave.  - 1st Stop","lat":35.027927,"lng":33.982294},{"name":"Paralimni - Agia Napa Road - 10th Stop","lat":35.019679,"lng":33.986459},{"name":"Paralimni - Agia Napa Road - 8th Stop","lat":35.013385,"lng":33.990899},{"name":"Paralimni - Agia Napa Road - 6th Stop","lat":35.010113,"lng":33.994082},{"name":"Paralimni - Agia Napa Road - 4th Stop","lat":35.002389,"lng":33.999084},{"name":"Paralimni - Agia Napa Road - 2nd Stop","lat":34.997121,"lng":34.000422},{"name":"Kavo Gkreko - 3rd Stop","lat":34.992259,"lng":34.002861},{"name":"Kavo Gkreko - 2nd Stop","lat":34.987482,"lng":34.012478},{"name":"Kryou Nerou Ave. - Marina Hotel 2","lat":34.985178,"lng":34.016218},{"name":"Kryou Nerou Ave. - 2ndStop 2","lat":34.986026,"lng":34.009688},{"name":"Kryou Nerou Ave. - Melission","lat":34.98765,"lng":34.004164},{"name":"Agia Napa Monastery 1","lat":34.988385,"lng":34.00036},{"name":"Agia Napa Harbour 1","lat":34.985029,"lng":34.000549},{"name":"Evagora Pallikaridi - Kassandrou","lat":34.983975,"lng":33.997151},{"name":"Nisi Ave.  - Giouri Gkagkarin","lat":34.987322,"lng":33.993543},{"name":"Ave. Nisi Ave. - Agias Mavris 1","lat":34.988034,"lng":33.988051},{"name":"Nisi Ave. - Vatheias Gonias","lat":34.988741,"lng":33.982143},{"name":"Nisi Ave. - Neofytou Poullou","lat":34.989388,"lng":33.976848},{"name":"Nisi Ave. - Sotou Chatziprokopiou","lat":34.990119,"lng":33.971148},{"name":"Nissi Bay Beach 1","lat":34.989513,"lng":33.969081},{"name":"Landa Beach 1","lat":34.988856,"lng":33.960911},{"name":"Makronissos Beach 1","lat":34.987777,"lng":33.951399},{"name":"Agias Theklas - 1st Stop","lat":34.984966,"lng":33.945373},{"name":"Agia Napa Marina 1","lat":34.979515,"lng":33.941312},{"name":"Agia Thekla Beach 1","lat":34.980816,"lng":33.934041},{"name":"Agia Thekla Tourist Area - 1st Stop","lat":34.981015,"lng":33.928084},{"name":"Agia Thekla Tourist Area - 3rd Stop","lat":34.978994,"lng":33.921126},{"name":"Agia Thekla Tourist Area - 5th Stop","lat":34.976079,"lng":33.909382},{"name":"Agia Thekla Tourist Area - 7th Stop","lat":34.975542,"lng":33.90403},{"name":"Liopetri Community Stadium","lat":35.000316,"lng":33.892512},{"name":"Achyronos - Konstantinou Kanari","lat":35.005974,"lng":33.89322},{"name":"Achyronas Liopetriou 1","lat":35.008534,"lng":33.893259},{"name":"Modestou Panteli - Dionysiou Solomou 1","lat":35.012359,"lng":33.894319},{"name":"Modestou Panteli - Agion Anargyron 1","lat":35.019184,"lng":33.901759},{"name":"Foti Pitta - Petrou Peskesi","lat":35.037554,"lng":33.918176},{"name":"Archiep. Makariou C´ - Arch. Michail","lat":35.041902,"lng":33.92398},{"name":"Archiep. Makariou C´ - 2nd Stop","lat":35.04623,"lng":33.928667},{"name":"Deryneia Municipal Swimming Pool 1","lat":35.050197,"lng":33.9346},{"name":"Archiep. Makariou C´ - Alakatis","lat":35.060667,"lng":33.954185},{"name":"Archiep. Makariou C´ - Promitheos","lat":35.062391,"lng":33.959644},{"name":"Ammochostou Ave. - Eleftheriou Iakovou","lat":35.063834,"lng":33.960747},{"name":"Ammochostou Ave. - Dim. Christodoulou 1","lat":35.065581,"lng":33.960987},{"name":"Deryneia (Green Line) 1","lat":35.069257,"lng":33.960273}]