[{"name":"Strovilia Crossing Point 2","lat":35.095449,"lng":33.899406},{"name":"Strovilia 2","lat":35.084589,"lng":33.880134},{"name":"Vrysoulles - Strovilia 1","lat":35.081113,"lng":33.873339},{"name":"Acheritou - Vasou Sergiou","lat":35.075521,"lng":33.880969},{"name":"Acheritou Community Board 2","lat":35.073552,"lng":33.882746},{"name":"Kosta Ilia - Andrea Mantoles 2","lat":35.070492,"lng":33.879467},{"name":"Apostolou Varnava - Ydragogeiou","lat":35.042031,"lng":33.915211},{"name":"Agias Triados - 1 Apriliou","lat":35.037659,"lng":33.915063},{"name":"Foti Pitta - Petrou Peskesi","lat":35.037554,"lng":33.918176},{"name":"Archiep. Makariou C´ - Arch. Michail","lat":35.041902,"lng":33.92398},{"name":"Archiep. Makariou C´ - 2nd Stop","lat":35.04623,"lng":33.928667},{"name":"Deryneia Municipal Swimming Pool 1","lat":35.050197,"lng":33.9346},{"name":"Archiep. Makariou C´ - Alakatis","lat":35.060667,"lng":33.954185},{"name":"Archiep. Makariou C´ - Promitheos","lat":35.062391,"lng":33.959644},{"name":"Eleftherias - Ammochostou Ave.","lat":35.062793,"lng":33.961283},{"name":"Eleftherias - Daidalou","lat":35.061193,"lng":33.963973},{"name":"Famagusta General Hospital","lat":35.061631,"lng":33.971304},{"name":"Eleftherias - Ippokratous","lat":35.058805,"lng":33.967169},{"name":"Eleftherias - Kyriakou Matsi","lat":35.055878,"lng":33.971356},{"name":"Griva Digeni Ave. - Thessalonikis","lat":35.049693,"lng":33.976864},{"name":"1 Apriliou Ave. - Georgiou Griva Digeni Ave.","lat":35.0445,"lng":33.977877},{"name":"Xenion Education 2","lat":35.041614,"lng":33.977941},{"name":"1 Apriliou Ave. - Tasou Markou 2","lat":35.040847,"lng":33.977976},{"name":"Famagusta Central Bus Station","lat":35.039476,"lng":33.983638},{"name":"B´ Paralimni Elementary School 1","lat":35.040768,"lng":33.990013},{"name":"Protara Ave. - 1st Stop","lat":35.04222,"lng":33.992146},{"name":"Protara Ave. - 3rd Stop","lat":35.043265,"lng":33.994483},{"name":"Protara Ave. - Psychari","lat":35.044119,"lng":33.998123},{"name":"Agia Varvara Church 2","lat":35.045696,"lng":34.00256},{"name":"Ave. Protara - Antaiou","lat":35.047679,"lng":34.006959},{"name":"Protara Ave. - 5th Stop","lat":35.048731,"lng":34.010656},{"name":"Agia Triada Beach 1","lat":35.048784,"lng":34.017192},{"name":"Vrysoudion - 1st Stop","lat":35.04742,"lng":34.025026},{"name":"Louma Beach 1","lat":35.043774,"lng":34.029596},{"name":"Vrysoudion - 3rd Stop","lat":35.042002,"lng":34.031273},{"name":"Paralimni Port 1","lat":35.036576,"lng":34.035217},{"name":"Perneras Ave. - Pinias 1","lat":35.031969,"lng":34.031969},{"name":"Perneras Ave. - Ellinon","lat":35.031918,"lng":34.034797},{"name":"Perneras Ave. - Perneras","lat":35.031361,"lng":34.036664},{"name":"Perneras - Ifaistou","lat":35.030322,"lng":34.039085},{"name":"Perneras - Potami Beach","lat":35.029312,"lng":34.042141},{"name":"Afroditis - Athinas","lat":35.027966,"lng":34.042453},{"name":"Perneras Ave. - 2nd Stop","lat":35.025884,"lng":34.039171},{"name":"Protara - Kavo Gkreko Ave. - 7th Stop","lat":35.022878,"lng":34.039572},{"name":"Protara - Kavo Gkreko Ave. - Dionysou","lat":35.018742,"lng":34.044495},{"name":"Protara - Vrisi Beach","lat":35.017624,"lng":34.04766},{"name":"Protara - Sunrise Beach","lat":35.015282,"lng":34.052606},{"name":"Protara - Fig Tree Bay","lat":35.011413,"lng":34.056841},{"name":"Protara - Kavo Gkreko Ave. - Dafnis","lat":35.007547,"lng":34.058611},{"name":"Protara - Kavo Gkreko Ave. - Vyzakias","lat":35.001011,"lng":34.061661},{"name":"Protara - Kavo Gkreko Ave. - 15th Stop","lat":34.996167,"lng":34.064962},{"name":"Konnou - Iras","lat":34.993744,"lng":34.067692},{"name":"Konnou - Kirkis 1","lat":34.990883,"lng":34.070098},{"name":"Konnou - Grecian Park Hotel 1","lat":34.986532,"lng":34.068606},{"name":"Konnos Beach 1","lat":34.983672,"lng":34.066695}]