[{"name":"Famagusta Central Bus Station","lat":35.039476,"lng":33.983638},{"name":"Griva Digeni Ave. - Konstantinoupoleos 1","lat":35.042423,"lng":33.979376},{"name":"1 Apriliou Ave. - Georgiou Griva Digeni Ave.","lat":35.0445,"lng":33.977877},{"name":"Xenion Education 2","lat":35.041614,"lng":33.977941},{"name":"1 Apriliou Ave. - Tasou Markou 2","lat":35.040847,"lng":33.977976},{"name":"1 Apriliou Ave. - Marias Sygklitikis","lat":35.03612,"lng":33.978226},{"name":"Paralimniou 1","lat":35.024595,"lng":33.966097},{"name":"Paralimniou - Grigori Afxentiou 1","lat":35.026379,"lng":33.958269},{"name":"Kyriakou Matsi - Agiou Antoniou","lat":35.025714,"lng":33.95574},{"name":"Kyriakou Matsi - Konstantinoupoleos","lat":35.024196,"lng":33.953761},{"name":"Apost. Andrea - Ag. Theodorou 1","lat":35.022617,"lng":33.950553},{"name":"Agias Theklas - Konstantinou Palaiologou","lat":35.023607,"lng":33.948394},{"name":"1 Apriliou - Dimokratias","lat":35.028049,"lng":33.951109},{"name":"Stadiou - Theod. Kolokotroni","lat":35.028081,"lng":33.947042},{"name":"Modestou Panteli - Agion Anargyron 2","lat":35.018987,"lng":33.901494},{"name":"Modestou Panteli - Dionysiou Solomou 2","lat":35.011864,"lng":33.894194},{"name":"Liopetri Square 1","lat":35.009677,"lng":33.892361},{"name":"Nikou Theofanous - Champi Michailidi","lat":34.982794,"lng":33.853954},{"name":"Eleftherias - Andrea Kazi","lat":34.977505,"lng":33.849528},{"name":"Panagias - Giorgalli 1","lat":34.973533,"lng":33.843615},{"name":"Meg. Alexandrou Ave. - Agias Triados","lat":34.974223,"lng":33.840379},{"name":"Anastasi Manoli - Grigori Afxentiou","lat":34.977397,"lng":33.840412}]