[{"name":"Archiepiskopou Makariou C Avenue 2","lat":34.99045,"lng":32.906259},{"name":"Kakopetria Square 2","lat":34.99007,"lng":32.904243},{"name":"Troodos Development Company 2","lat":34.991845,"lng":32.902499},{"name":"E.A.C.Galata 2","lat":34.993034,"lng":32.901906},{"name":"Archiep. Makariou C´ Ave - Andrea Avraamidi","lat":34.994503,"lng":32.900874},{"name":"Galata Folk Art Museum 2","lat":34.995999,"lng":32.899645},{"name":"Galata Square 2","lat":34.997495,"lng":32.898613},{"name":"Lefkosias - Troodous - Sinaoros 2","lat":35.007955,"lng":32.897745},{"name":"Ag. Ioannis Theologos Church 2","lat":35.010886,"lng":32.898345},{"name":"Lefkosias - Troodous - Chaniou Avenue 2","lat":35.015628,"lng":32.897385},{"name":"Lefkosias-Troodous - Old Kalliana Train Station 2","lat":35.019578,"lng":32.897764},{"name":"OSEL Tempria Offices","lat":35.023439,"lng":32.899403},{"name":"Chrysanhos Mylona Military Camp 2","lat":35.026082,"lng":32.900365},{"name":"Lefkosias - Troodous 2","lat":35.031655,"lng":32.900818},{"name":"Lefkosias - Troodous - Grigori Afxentiou","lat":35.037067,"lng":32.902654},{"name":"Markos Drakos Military Camp 2","lat":35.046529,"lng":32.905691},{"name":"Distrato Ag. Theodorou 2","lat":35.056957,"lng":32.911941},{"name":"Mitropoliti Chrysanthou Sarigianni - Atsas 2","lat":35.07064,"lng":32.930681},{"name":"Koutrafas Shooting Range 2","lat":35.086288,"lng":32.957907},{"name":"Koutrafas 2","lat":35.104517,"lng":32.972481},{"name":"21 Mili 2","lat":35.127648,"lng":33.013028},{"name":"Lefkosias - Troodous - SEDIGEP 2","lat":35.135275,"lng":33.02247},{"name":"Troodous - Georgiou Griva Digeni","lat":35.137015,"lng":33.027969},{"name":"Troodous - Grigori Afxentiou","lat":35.137427,"lng":33.03707},{"name":"Troodous - Stylianou Lena","lat":35.137624,"lng":33.042251},{"name":"Troodous - Karydion 2","lat":35.1391,"lng":33.050166},{"name":"Troodous - Skopy 2","lat":35.136265,"lng":33.056915},{"name":"Troodous","lat":35.135371,"lng":33.059549},{"name":"Morfou Avenue - Makariou C´ Avenue 2","lat":35.13274,"lng":33.073169},{"name":"Morfou Avenue - Pentadaktylou","lat":35.133088,"lng":33.078186},{"name":"Lefkosias Avenue - Avlonos","lat":35.132977,"lng":33.081994},{"name":"Lefkosias Ave. - Christou Tsiarta Ave. 2","lat":35.132839,"lng":33.087208},{"name":"Lefkosias Avenue - Apostolou Andrea","lat":35.132988,"lng":33.092795},{"name":"Grigori Afxentiou - 1st Peristerona 2","lat":35.135036,"lng":33.102216},{"name":"Grigori Afxentiou - Potato Packaging Factory 1","lat":35.135158,"lng":33.117232},{"name":"Grigori Afxentiou - Kosti Palama","lat":35.136663,"lng":33.127256},{"name":"Grigori Afxentiou - Deneias","lat":35.137083,"lng":33.129979},{"name":"Akaki High School 2","lat":35.137297,"lng":33.140199},{"name":"Grigori Afxentiou - 2nd Akaki 2","lat":35.137345,"lng":33.145446},{"name":"Grigori Afxentiou - 1st Akaki 2","lat":35.137395,"lng":33.149277},{"name":"Cyprus Forest Industries","lat":35.146909,"lng":33.175248},{"name":"Palaiometocho Lyceum 2","lat":35.147121,"lng":33.184305},{"name":"Archiepiskopou Makariou C´ - Kerkyras","lat":35.148091,"lng":33.192706},{"name":"Archiepiskopou Makariou C´ - Anexartisias","lat":35.148833,"lng":33.196923},{"name":"Kokkinotrimithia Police Station 2","lat":35.148698,"lng":33.202281},{"name":"Grigori Afxentiou - Archiepiskopou Kyprianou","lat":35.148422,"lng":33.205277},{"name":"Grigori Afxentiou - Apostolos Varnavas Church 2","lat":35.148561,"lng":33.208626},{"name":"Grigori Afxentiou - Post Office 2","lat":35.149253,"lng":33.21471},{"name":"Grigori Afxentiou - Zalongou","lat":35.148952,"lng":33.221933},{"name":"Grigori Afxentiou - Industrial Area 2","lat":35.149841,"lng":33.228709},{"name":"Archangelou Michail - Alexandrou Panagouli","lat":35.131842,"lng":33.303111},{"name":"Archan. Michail - Lefkotheou Makariou Stadiou Ave.","lat":35.146379,"lng":33.32342},{"name":"Avenue Lefkotheou - Agias Annas","lat":35.147597,"lng":33.323227},{"name":"Apolloneio Hospital 1","lat":35.147759,"lng":33.319813},{"name":"Makario Stadium Bus Station","lat":35.148468,"lng":33.314107}]