[{"name":"Chandria Square 2","lat":34.941918,"lng":32.993802},{"name":"Georgiou Griva Digeni Ave. - 2nd Chandria 1","lat":34.943532,"lng":32.993605},{"name":"Georgiou Griva Digeni Ave. - 3rd Chandria 1","lat":34.944487,"lng":32.990034},{"name":"Kyperounda Winery 1","lat":34.944414,"lng":32.981919},{"name":"Archiep. Makariou C´ Ave. - 7th Kyperounta 2","lat":34.941337,"lng":32.96821},{"name":"Archiep. Makariou C´ Ave. - 9th Kyperounta 1","lat":34.941993,"lng":32.961157},{"name":"Archiep. Makariou C´ Ave. - 10th Kyperounta 1","lat":34.94861,"lng":32.955262},{"name":"Kyperounta Hospital","lat":34.950619,"lng":32.952435},{"name":"Archiep. Makariou C´ Ave. - 11th Kyperounta 1","lat":34.949906,"lng":32.949434},{"name":"Archiepiskopou Makariou C´ Avenue - Karvounas 2","lat":34.942313,"lng":32.931063},{"name":"Platania - Forest Station 2","lat":34.949615,"lng":32.927399},{"name":"Distrato Spilion","lat":34.962699,"lng":32.926489},{"name":"Lefkosias - Troodous - Droseri Potamia 2","lat":34.969042,"lng":32.918356},{"name":"Lefkosias - Troodous - Sinaoros 2","lat":35.007955,"lng":32.897745},{"name":"Ag. Ioannis Theologos Church 2","lat":35.010886,"lng":32.898345},{"name":"Lefkosias - Troodous - Chaniou Avenue 2","lat":35.015628,"lng":32.897385},{"name":"Lefkosias-Troodous - Old Kalliana Train Station 2","lat":35.019578,"lng":32.897764},{"name":"OSEL Tempria Offices","lat":35.023439,"lng":32.899403},{"name":"Chrysanhos Mylona Military Camp 2","lat":35.026082,"lng":32.900365},{"name":"Lefkosias - Troodous 2","lat":35.031655,"lng":32.900818},{"name":"Lefkosias - Troodous - Grigori Afxentiou","lat":35.037067,"lng":32.902654},{"name":"Markos Drakos Military Camp 2","lat":35.046529,"lng":32.905691},{"name":"Distrato Ag. Theodorou 2","lat":35.056957,"lng":32.911941},{"name":"Mitropoliti Chrysanthou Sarigianni - Atsas 2","lat":35.07064,"lng":32.930681},{"name":"Koutrafas Shooting Range 2","lat":35.086288,"lng":32.957907},{"name":"Koutrafas 2","lat":35.104517,"lng":32.972481},{"name":"21 Mili 2","lat":35.127648,"lng":33.013028},{"name":"Lefkosias - Troodous - SEDIGEP 2","lat":35.135275,"lng":33.02247},{"name":"Troodous - Georgiou Griva Digeni","lat":35.137015,"lng":33.027969},{"name":"Troodous - Grigori Afxentiou","lat":35.137427,"lng":33.03707},{"name":"Troodous - Stylianou Lena","lat":35.137624,"lng":33.042251},{"name":"Troodous - Karydion 2","lat":35.1391,"lng":33.050166},{"name":"Troodous - Skopy 2","lat":35.136265,"lng":33.056915},{"name":"Troodous","lat":35.135371,"lng":33.059549},{"name":"Morfou Avenue - Makariou C´ Avenue 2","lat":35.13274,"lng":33.073169},{"name":"Morfou Avenue - Pentadaktylou","lat":35.133088,"lng":33.078186},{"name":"Lefkosias Avenue - Avlonos","lat":35.132977,"lng":33.081994},{"name":"Lefkosias Ave. - Christou Tsiarta Ave. 2","lat":35.132839,"lng":33.087208},{"name":"Lefkosias Avenue - Apostolou Andrea","lat":35.132988,"lng":33.092795},{"name":"Grigori Afxentiou - 1st Peristerona 2","lat":35.135036,"lng":33.102216},{"name":"Grigori Afxentiou - Potato Packaging Factory 1","lat":35.135158,"lng":33.117232},{"name":"Grigori Afxentiou - Kosti Palama","lat":35.136663,"lng":33.127256},{"name":"Grigori Afxentiou - Deneias","lat":35.137083,"lng":33.129979},{"name":"Akaki High School 2","lat":35.137297,"lng":33.140199},{"name":"Grigori Afxentiou - 2nd Akaki 2","lat":35.137345,"lng":33.145446},{"name":"Grigori Afxentiou - 1st Akaki 2","lat":35.137395,"lng":33.149277},{"name":"Cyprus Forest Industries","lat":35.146909,"lng":33.175248},{"name":"Palaiometocho Lyceum 2","lat":35.147121,"lng":33.184305},{"name":"Archiepiskopou Makariou C´ - Kerkyras","lat":35.148091,"lng":33.192706},{"name":"Archiepiskopou Makariou C´ - Anexartisias","lat":35.148833,"lng":33.196923},{"name":"Kokkinotrimithia Police Station 2","lat":35.148698,"lng":33.202281},{"name":"Grigori Afxentiou - Archiepiskopou Kyprianou","lat":35.148422,"lng":33.205277},{"name":"Grigori Afxentiou - Apostolos Varnavas Church 2","lat":35.148561,"lng":33.208626},{"name":"Grigori Afxentiou - Post Office 2","lat":35.149253,"lng":33.21471},{"name":"Grigori Afxentiou - Zalongou","lat":35.148952,"lng":33.221933},{"name":"Grigori Afxentiou - Industrial Area 2","lat":35.149841,"lng":33.228709},{"name":"Archangelou Michail - Alexandrou Panagouli","lat":35.131842,"lng":33.303111},{"name":"Spyrou Kyprianou Ave. - Diodos Kifea","lat":35.133496,"lng":33.312261},{"name":"Spyrou Kyprianou Ave. - Avraam Antoniou JUMBO","lat":35.129778,"lng":33.316845},{"name":"Spyrou Kyprianou Ave. - Pavilion","lat":35.127323,"lng":33.320952},{"name":"Spyrou Kyprianou Ave. - Roundabout Metro","lat":35.125698,"lng":33.325149},{"name":"Spyrou Kyprianou Ave. - Mesaorias","lat":35.122504,"lng":33.332446},{"name":"Roundabout Tseriou - Group 4","lat":35.121249,"lng":33.336392},{"name":"Spyrou Kyprianou Ave. - Hospital American Heard","lat":35.122354,"lng":33.340929},{"name":"Police Statio Strovolos - Nicosia","lat":35.124054,"lng":33.345787},{"name":"Spyrou Kyprianou Ave. - Iosif Hadjiosif","lat":35.126931,"lng":33.354865},{"name":"Spyrou Kyprianou Ave. - Strovolos Industrial Zone","lat":35.127969,"lng":33.357591},{"name":"Spyrou Kyprianou Ave. - Agios Therissos","lat":35.128974,"lng":33.362217},{"name":"Kalamon - Kampou","lat":35.127134,"lng":33.368333},{"name":"Kalamon -Hospital Round About","lat":35.124307,"lng":33.373007},{"name":"Lemesou Ave. - Volvo","lat":35.126836,"lng":33.374533},{"name":"The Mall of Cyprus - Verginas","lat":35.129695,"lng":33.374162},{"name":"Nicosia General Hospital","lat":35.128043,"lng":33.374879}]