[{"name":"University of Cyprus - North Campus Entrance","lat":35.146928,"lng":33.415453},{"name":"University of Cyprus - Parking Place","lat":35.147216,"lng":33.410448},{"name":"University of Cyprus - University House","lat":35.146048,"lng":33.408982},{"name":"Ave. Athalassis - UCY Student Halls 2","lat":35.143746,"lng":33.40436},{"name":"Athalassas - Eleftheriou Venizelou","lat":35.150239,"lng":33.404283},{"name":"Larnakos - Athalassis Avenue","lat":35.153892,"lng":33.401303},{"name":"Larnakos - Markou Drakou","lat":35.155309,"lng":33.398225},{"name":"Larnakos - Grigoriou Lampraki","lat":35.156907,"lng":33.39473},{"name":"Aglantzias - Aristidou","lat":35.15695,"lng":33.38968},{"name":"Ave. Aglantzias - Archiepiskopou Makariou C","lat":35.156978,"lng":33.383883},{"name":"Ave. Aglantzias - H.H.I.C. 2","lat":35.155599,"lng":33.380945},{"name":"Ave. Aglantzias - Lemesou Avenue","lat":35.155179,"lng":33.376661},{"name":"Lemesou Ave. - Alpha Bank","lat":35.154255,"lng":33.375339},{"name":"Armenias - Kalipsous","lat":35.152074,"lng":33.372002},{"name":"Armenias - Ifigenias","lat":35.152673,"lng":33.367625},{"name":"Armenias - Ippokratous","lat":35.153907,"lng":33.36516},{"name":"Arsinois - Acropoleos Ave","lat":35.155055,"lng":33.361081},{"name":"Arsinois - Patroklou Kokkinou","lat":35.155362,"lng":33.357953},{"name":"Glafkou - Dilou","lat":35.157797,"lng":33.354702},{"name":"Kyriakou Matsi - Agathonos","lat":35.156713,"lng":33.352282},{"name":"Proedrikou Megarou - English School","lat":35.154316,"lng":33.348857},{"name":"Ave. Strovolou - Omirou","lat":35.146958,"lng":33.345511},{"name":"Ave. Strovolou - Pythonos","lat":35.142597,"lng":33.341332},{"name":"Ave. Strovolou - Kantaras","lat":35.140773,"lng":33.338799},{"name":"Ave. Strovolou - Ilia Venezi","lat":35.140811,"lng":33.338196},{"name":"Strovolos Station","lat":35.141085,"lng":33.337154}]