[{"name":"Dionysios Solomos Square","lat":35.170706,"lng":33.358921},{"name":"Archiep. Makariou III Ave. - Iras","lat":35.165662,"lng":33.363192},{"name":"Archiep. Makariou III Ave. - Naxou","lat":35.162507,"lng":33.366066},{"name":"Technical School Nicosia III","lat":35.156847,"lng":33.373957},{"name":"Traffic Education Park","lat":35.147441,"lng":33.374364},{"name":"Lemesou Ave. - Kalispera","lat":35.141317,"lng":33.374687},{"name":"Nicosia General Hospital - Intercity","lat":35.126573,"lng":33.374839},{"name":"Choirokoitia Neolithic Settlement (OASIS)","lat":34.798172,"lng":33.348936},{"name":"Dimokratias Ave. - Andrea Theodosiou","lat":34.778882,"lng":32.444419},{"name":"Dimokratias Ave. - Thivon","lat":34.77221,"lng":32.442649},{"name":"Fire Station 2","lat":34.769159,"lng":32.436146},{"name":"Pafos District Courthouse 2","lat":34.77489,"lng":32.427375},{"name":"Karavella Bus Station","lat":34.778616,"lng":32.422125}]