[{"name":"Karavella Bus Station","lat":34.778616,"lng":32.422125},{"name":"Pafos District Courthouse 1","lat":34.774523,"lng":32.428066},{"name":"Fire Station 1","lat":34.769589,"lng":32.435465},{"name":"Stelios Kyriakides Stadium","lat":34.769237,"lng":32.441139},{"name":"Dimokratias Ave. - Andrea Evagorou","lat":34.776947,"lng":32.443229},{"name":"Nicosia General Hospital - Intercity","lat":35.126573,"lng":33.374839},{"name":"Lemesou Ave. - Ellispontou","lat":35.142364,"lng":33.374187},{"name":"Police Headquarters","lat":35.147784,"lng":33.374102},{"name":"Archiep. Makariou III Ave. - Ethnikis Frouras","lat":35.156386,"lng":33.374086},{"name":"Archiep. Makariou III Ave. - Dimofontos","lat":35.162761,"lng":33.365485},{"name":"Archiep. Makariou III Ave. - Mnasiadou","lat":35.166197,"lng":33.362096},{"name":"Dionysios Solomos Square","lat":35.170706,"lng":33.358921},{"name":"Ave. Louki Akrita - Ministry of Agriculture 1","lat":35.172137,"lng":33.347758}]