[{"name":"Karavella Bus Station","lat":34.778616,"lng":32.422125},{"name":"Pafos District Courthouse 1","lat":34.774523,"lng":32.428066},{"name":"Fire Station 1","lat":34.769589,"lng":32.435465},{"name":"Stelios Kyriakides Stadium","lat":34.769237,"lng":32.441139},{"name":"Dimokratias Ave. - Andrea Evagorou","lat":34.776947,"lng":32.443229},{"name":"Agios Georgios Chavouzas Church 2","lat":34.693668,"lng":33.015558},{"name":"Archiep. Leontiou AÂ´ - Old Hospital","lat":34.679109,"lng":33.037061},{"name":"Tzelal Bagiar - Agios Antonios Church 1","lat":34.671768,"lng":33.037756},{"name":"Fragklinou Rousvelt - Synergatismou","lat":34.666487,"lng":33.024241},{"name":"Omonoias Ave. - Tsiflikoudion","lat":34.662511,"lng":33.017615},{"name":"New Port - Passenger Building","lat":34.655693,"lng":33.022132}]