[{"name":"Foinikoudes - Larnaka Marina","lat":34.915408,"lng":33.638089},{"name":"Old Hospital","lat":34.917065,"lng":33.629892},{"name":"Municipal Library 1","lat":34.916343,"lng":33.624818},{"name":"Nikou kai Despoinas Pattichi Ave. - Arachovas","lat":34.918357,"lng":33.613622},{"name":"Nikou kai Despoinas Pattichi Ave. - Kalymnou","lat":34.916515,"lng":33.604993},{"name":"Lemesou Ave. - Makedonias 1","lat":34.909447,"lng":33.58445},{"name":"Choirokoitia Neolithic Settlement (OASIS)","lat":34.798172,"lng":33.348936},{"name":"Paradromos Amathountos - Grand Resort Hotel","lat":34.713767,"lng":33.164784},{"name":"Vasileos Georgiou AÂ´ - Amerikanas","lat":34.696485,"lng":33.090777},{"name":"28 Oktovriou - Debenhams 1","lat":34.688032,"lng":33.068081},{"name":"28 Oktovriou - Zoo","lat":34.681645,"lng":33.055609},{"name":"Spyrou Araouzou - Molos Parking Place","lat":34.672974,"lng":33.044917},{"name":"Tzelal Bagiar - Agios Antonios Church 1","lat":34.671768,"lng":33.037756},{"name":"New Port - Passenger Building","lat":34.655693,"lng":33.022132}]