[{"name":"Dionysios Solomos Square","lat":35.170706,"lng":33.358921},{"name":"Archiep. Makariou III Ave. - Iras","lat":35.165662,"lng":33.363192},{"name":"Archiep. Makariou III Ave. - Naxou","lat":35.162507,"lng":33.366066},{"name":"Technical School Nicosia III","lat":35.156847,"lng":33.373957},{"name":"Traffic Education Park","lat":35.147441,"lng":33.374364},{"name":"Lemesou Ave. - Kalispera","lat":35.141317,"lng":33.374687},{"name":"Nicosia General Hospital - Intercity","lat":35.126573,"lng":33.374839},{"name":"Alampra Bus Station","lat":35.002426,"lng":33.393866},{"name":"Choirokoitia Neolithic Settlement (OASIS)","lat":34.798172,"lng":33.348936},{"name":"Paradromos Amathountos - Grand Resort Hotel","lat":34.713767,"lng":33.164784},{"name":"Vasileos Georgiou AÂ´ - Amerikanas","lat":34.696485,"lng":33.090777},{"name":"28 Oktovriou - Debenhams 1","lat":34.688032,"lng":33.068081},{"name":"28 Oktovriou - Zoo","lat":34.681645,"lng":33.055609},{"name":"Spyrou Araouzou - Molos Parking Place","lat":34.672974,"lng":33.044917},{"name":"Tzelal Bagiar - Agios Antonios Church 1","lat":34.671768,"lng":33.037756},{"name":"New Port - Passenger Building","lat":34.655693,"lng":33.022132}]