[{"name":"Dionysios Solomos Square D","lat":35.171376,"lng":33.358243},{"name":"Archiep. Makariou III Ave. - Amaldas","lat":35.16798,"lng":33.360095},{"name":"Archiep. Makariou III Ave. - Iras","lat":35.165662,"lng":33.363192},{"name":"Archiep. Makariou III Ave. - Naxou","lat":35.162507,"lng":33.366066},{"name":"Archiep. Makariou III Ave. - Ioanni Kliridi","lat":35.161428,"lng":33.36796},{"name":"Archiep. Makariou III Ave. - Filimonos","lat":35.160835,"lng":33.370077},{"name":"Archiep. Makariou III Ave. - Ethnikis Frouras","lat":35.160197,"lng":33.372226},{"name":"Technical School Nicosia III","lat":35.156847,"lng":33.373957},{"name":"Lemesou Ave. - Alpha Bank","lat":35.154255,"lng":33.375339},{"name":"Lemesou Ave. - Melkonian","lat":35.151317,"lng":33.374612},{"name":"Traffic Education Park","lat":35.147441,"lng":33.374364},{"name":"Lemesou Ave. - Kalispera","lat":35.141317,"lng":33.374687},{"name":"Kalamon - Kampou","lat":35.127134,"lng":33.368333},{"name":"Kalamon -Hospital Round About","lat":35.124307,"lng":33.373007},{"name":"Lemesou Ave. - Volvo","lat":35.126836,"lng":33.374533},{"name":"The Mall of Cyprus - Verginas","lat":35.129695,"lng":33.374162},{"name":"Nicosia General Hospital","lat":35.128043,"lng":33.374879},{"name":"Lemesou Ave. - Athalassis","lat":35.120129,"lng":33.376917},{"name":"Giannou Kranidioti Ave. - South Roundabout","lat":35.116511,"lng":33.377405},{"name":"Ave. Giannou Kranidioti - Alekou Konstantinou","lat":35.111787,"lng":33.377229},{"name":"Giannou Kranidioti Ave. - Tzitzer","lat":35.109188,"lng":33.377733},{"name":"Giannou Kranidioti Ave. - Agiou Georgiou","lat":35.105199,"lng":33.378878},{"name":"Giannou Kranidioti Ave. - Stavrou Venizelou","lat":35.102853,"lng":33.379448},{"name":"Giannou Kranidioti Ave. - Dionysiou Solomou","lat":35.100002,"lng":33.379819},{"name":"Ave. Giannou Kranidioti - Michail Karaoli","lat":35.096324,"lng":33.379561},{"name":"Giannou Kranidioti Ave. - Areos","lat":35.08736,"lng":33.379728},{"name":"Giannou Kranidioti Ave. - Megalou Alexandrou","lat":35.083488,"lng":33.381081},{"name":"Lemesou Ave. - Panou Kranidioti","lat":35.080656,"lng":33.381101},{"name":"Ilioupoli","lat":35.077562,"lng":33.381372},{"name":"Lemesou Ave.- Elefsinow","lat":35.072388,"lng":33.380942},{"name":"Lemesou Ave. - Inomenon Ethnon","lat":35.067394,"lng":33.383331},{"name":"Lemesou Ave. - Tinou","lat":35.065612,"lng":33.385023},{"name":"Lemesou Ave. - Dixan","lat":35.054393,"lng":33.388348},{"name":"Lemesou Ave. - Karava","lat":35.045757,"lng":33.387419},{"name":"Lemesou Ave. - Alikos","lat":35.043287,"lng":33.387385},{"name":"Forum Private School 1","lat":35.03278,"lng":33.384902},{"name":"Kryoneri","lat":35.024518,"lng":33.391462},{"name":"Ave. Lemesou - Idalia","lat":35.020988,"lng":33.395523},{"name":"Ave. Lemesou - Omonoias Avenue","lat":35.017023,"lng":33.394737},{"name":"Ave. Lemesou - Archiepiskopou Makariou C","lat":35.014274,"lng":33.394186},{"name":"Ave. Lemesou - Kimonos","lat":35.007457,"lng":33.394077},{"name":"Alampra Bus Station","lat":35.002426,"lng":33.393866}]