[{"name":"Dionysios Solomos Square D","lat":35.171376,"lng":33.358243},{"name":"Archiep. Makariou III Ave. - Amaldas","lat":35.16798,"lng":33.360095},{"name":"Archiep. Makariou III Ave. - Iras","lat":35.165662,"lng":33.363192},{"name":"Archiep. Makariou III Ave. - Naxou","lat":35.162507,"lng":33.366066},{"name":"Archiep. Makariou III Ave. - Ioanni Kliridi","lat":35.161428,"lng":33.36796},{"name":"Archiep. Makariou III Ave. - Filimonos","lat":35.160835,"lng":33.370077},{"name":"Archiep. Makariou III Ave. - Ethnikis Frouras","lat":35.160197,"lng":33.372226},{"name":"Technical School Nicosia III","lat":35.156847,"lng":33.373957},{"name":"Lemesou Ave. - Alpha Bank","lat":35.154255,"lng":33.375339},{"name":"Lemesou Ave. - Melkonian","lat":35.151317,"lng":33.374612},{"name":"Traffic Education Park","lat":35.147441,"lng":33.374364},{"name":"Lemesou Ave. - Kalispera","lat":35.141317,"lng":33.374687},{"name":"Kryoneri","lat":35.024518,"lng":33.391462},{"name":"Ave. Lemesou - Idalia","lat":35.020988,"lng":33.395523},{"name":"Ave. Lemesou - Omonoias Avenue","lat":35.017023,"lng":33.394737},{"name":"Ave. Lemesou - Archiepiskopou Makariou C","lat":35.014274,"lng":33.394186},{"name":"Ave. Lemesou - Kimonos","lat":35.007457,"lng":33.394077},{"name":"Alampra Bus Station 2","lat":35.0024,"lng":33.393702}]