[{"name":"Alampra Bus Station 2","lat":35.0024,"lng":33.393702},{"name":"Ave. Lemesou - Larnakos","lat":35.00707,"lng":33.393922},{"name":"Chrysosotiros Church - Eirinis Avenue","lat":35.013419,"lng":33.393875},{"name":"Ave. Lemesou - Rodou Archangelou","lat":35.016978,"lng":33.394649},{"name":"Ave. Lemesou - Iroon","lat":35.021214,"lng":33.395381},{"name":"Lemesou Avenue - Steliou Christodoulou","lat":35.022785,"lng":33.394786},{"name":"Kryoneri","lat":35.024518,"lng":33.391462},{"name":"Lemesou Ave. - Ellispontou","lat":35.142364,"lng":33.374187},{"name":"Police Headquarters","lat":35.147784,"lng":33.374102},{"name":"Lemesou Ave. - San Sousi","lat":35.15312,"lng":33.374829},{"name":"Archiep. Makariou III Ave. - Ethnikis Frouras","lat":35.156386,"lng":33.374086},{"name":"Archiep. Makariou III Ave. - Dimitriou Papanikoli","lat":35.160791,"lng":33.369868},{"name":"Archiep. Makariou III Ave. - Karpenisiou","lat":35.161483,"lng":33.367609},{"name":"Archiep. Makariou III Ave. - Dimofontos","lat":35.162761,"lng":33.365485},{"name":"Archiep. Makariou III Ave. - Mnasiadou","lat":35.166197,"lng":33.362096},{"name":"Archiep. Makariou III Ave. - Theofani Theodotou","lat":35.167781,"lng":33.360138},{"name":"Solomos Square Alighting ","lat":35.170392,"lng":33.358392}]