[{"name":"Archiep. Makariou C Ave. - 1st Sia","lat":34.955723,"lng":33.386294},{"name":"Griva Digeni Ave. - 2nd Sia","lat":34.954957,"lng":33.391755},{"name":"Griva Digeni Ave. - 3rd Sia","lat":34.951242,"lng":33.399864},{"name":"Mosfiloti - Sia Road","lat":34.951479,"lng":33.412504},{"name":"Archiep. Makariou C´ - Omirou 1","lat":34.952849,"lng":33.42078},{"name":"Agia Marina Church 1","lat":34.953541,"lng":33.424047},{"name":"Platini Museum","lat":34.951981,"lng":33.426602},{"name":"1 Apriliou - Papamiichail Konstantinou 2","lat":34.950542,"lng":33.427865},{"name":"1 Apriliou - Georgiou Griva Digeni","lat":34.950519,"lng":33.426792},{"name":"Mosfiloti Elementary School","lat":34.951541,"lng":33.423522},{"name":"1 Apriliou - Archiep. Makariou C´","lat":34.951658,"lng":33.420763},{"name":"Trimythountos Bishopric","lat":34.951492,"lng":33.419338},{"name":"Lemesou Ave. - Mosfiloti Roundabout","lat":34.951972,"lng":33.41887},{"name":"Archiep. Makariou C´ - Theodorou Kolokotroni","lat":34.990404,"lng":33.402673},{"name":"Grigori Afxentiou - Lemesou Ave. 2","lat":34.994467,"lng":33.40403},{"name":"Lemesou Ave. - Filias","lat":34.997793,"lng":33.401745},{"name":"Alampra Bus Station","lat":35.002426,"lng":33.393866}]