[{"name":"Dorou Loizou - Petraki Giallourou","lat":34.951303,"lng":33.296805},{"name":"Ave. Arch. Makariou C - Agiou Dimitriou","lat":34.950993,"lng":33.298304},{"name":"Ave. Arch. Makariou C - Megalou Alexandrou","lat":34.950339,"lng":33.300109},{"name":"Ave. Arch. Makariou C - Stadiou","lat":34.949537,"lng":33.303567},{"name":"Ave. Arch. Makariou C - Modestou Panteli","lat":34.948427,"lng":33.307461},{"name":"Ave. Arch. Makariou C - Lefkas 2","lat":34.949296,"lng":33.313225},{"name":"Ave. Arch. Makariou C - Georgiou Papachristou 2","lat":34.950619,"lng":33.317874},{"name":"Apostolos Varnavas Church 2","lat":34.960364,"lng":33.332337},{"name":"Markou Drakou - Eleftherias","lat":34.963742,"lng":33.3367},{"name":"Papastavrou Papagathangelou","lat":34.987504,"lng":33.361428},{"name":"Papastavrou Papagathangelou - Giannou Kranidioti","lat":34.992656,"lng":33.366371},{"name":"Agia Varvara Elementary School","lat":34.996,"lng":33.36712},{"name":"Ave. Grigori Afxentiou - Limnou","lat":34.998356,"lng":33.36918},{"name":"Ave. Grigori Afxentiou - Dimitri Liperti","lat":34.999331,"lng":33.371682},{"name":"Agia Varvara High School 2","lat":35.000329,"lng":33.375632},{"name":"Ave. Grigori Afxentiou","lat":35.002064,"lng":33.380363},{"name":"Alampra Bus Station","lat":35.002426,"lng":33.393866}]