[{"name":"Archiep. Makariou C - 1st Mitsero","lat":35.041428,"lng":33.120957},{"name":"Mitsero Square","lat":35.042506,"lng":33.125389},{"name":"Archiep. Makariou C´ - 3rd Mitsero","lat":35.041711,"lng":33.126857},{"name":"Archiep. Makariou C´ - 4th Mitsero","lat":35.041105,"lng":33.128851},{"name":"Archiep. Makariou C´ - 5th Mitsero","lat":35.040776,"lng":33.132063},{"name":"Mitsero Community Stadium","lat":35.040134,"lng":33.13409},{"name":"Agia Varvara Church","lat":35.041053,"lng":33.142469},{"name":"Panagias Pantanassis - 5th Agrokipia 1","lat":35.041609,"lng":33.145046},{"name":"Panagias Pantanassis - 4th Agrokipia 2","lat":35.042944,"lng":33.152274},{"name":"Agrokipia Elementary School 2","lat":35.044554,"lng":33.155237},{"name":"Panagias Pantanassis - 2nd Agrokipia","lat":35.044035,"lng":33.159359},{"name":"Panagias Pantanassis - 1st Agrokipia 2","lat":35.044477,"lng":33.16573},{"name":"Griva Digeni-Leoforos Dimokratias","lat":35.045573,"lng":33.181665},{"name":"Agios Ioannis Malountas","lat":35.065931,"lng":33.18341},{"name":"Agios Ioannis","lat":35.065793,"lng":33.185098},{"name":"B´  Regional High School Nicosia - Malounta","lat":35.045125,"lng":33.185282},{"name":"Tamasos Bus Station","lat":35.043261,"lng":33.189916}]