[{"name":"Old Agios Georgios Church","lat":34.976674,"lng":33.255101},{"name":"Agios Georgios Church","lat":34.974055,"lng":33.252551},{"name":"Archiep. Makariou C´ Ave. - Machaira","lat":34.974753,"lng":33.250581},{"name":"Grigori Afxentiou Ave. - Agiou Ioanni","lat":35.004718,"lng":33.25521},{"name":"Kampia Elementary School","lat":35.007358,"lng":33.256325},{"name":"Ethnom. Archiep. Kyprianou - Panteli Katelari","lat":35.008863,"lng":33.256417},{"name":"Grigori Afxentiou Ave. - Makedonias 2","lat":35.026671,"lng":33.257054},{"name":"Grigori Afxentiou Ave. - Dimokratias 2","lat":35.031859,"lng":33.25559},{"name":"Michalaki Karaoli - Kythreas 1","lat":35.036432,"lng":33.25521},{"name":"Michalaki Karaoli - Pentadaktylou","lat":35.037251,"lng":33.25587},{"name":"Koutsoventi","lat":35.036727,"lng":33.256274},{"name":"Michalaki Karaoli - Kythreas 2","lat":35.036008,"lng":33.255143},{"name":"Grigori Afxentiou Ave. - Dimokratias 1","lat":35.031904,"lng":33.255689},{"name":"Georgiou Griva Digeni - Grigori Afxentiou Ave.","lat":35.030535,"lng":33.255049},{"name":"Georgiou Griva Digeni - Eleftheriou Venizelou 2","lat":35.031484,"lng":33.254054},{"name":"Eleftherias Square 1","lat":35.032515,"lng":33.252468},{"name":"Archiep. Makariou C´ Ave. - Archiep. Kyprianou 2","lat":35.03405,"lng":33.251464},{"name":"Tamasos Elementary School","lat":35.037063,"lng":33.250717},{"name":"Agios Nikolaos Church","lat":35.039492,"lng":33.244891},{"name":"Episkopeio Elementary School","lat":35.041703,"lng":33.244251},{"name":"Agios Irakleidios Monastery","lat":35.043078,"lng":33.246141},{"name":"Panteli Katelari Ave. - 1st  Episkopeio","lat":35.046607,"lng":33.248936},{"name":"Panteli Katelari Ave. - Archiep. Makariou C ´ 2","lat":35.055226,"lng":33.258635},{"name":"Archiep. Makariou C´  - Grigori Afxentiou","lat":35.058055,"lng":33.259883},{"name":"Michail Karaoli - Archiep. Makariou C´","lat":35.06084,"lng":33.260177},{"name":"Griva Digeni - 25 Martiou","lat":35.06535,"lng":33.259489},{"name":"Griva Digeni - 1st Psimolofou 2","lat":35.071289,"lng":33.261383},{"name":"Machaira - Nikis 2","lat":35.075974,"lng":33.262934},{"name":"Ave. Archiepiskopou Makariou C - Omonoias","lat":35.081061,"lng":33.266856},{"name":"Ave. Archiepiskopou Makariou C - Eleftherias 2","lat":35.082731,"lng":33.269724},{"name":"Deftera Community Board","lat":35.084193,"lng":33.273513},{"name":"Andrea Zitti - Grigori Afxentiou Avenue","lat":35.08391,"lng":33.274939}]