[{"name":"Apostolos Andreas Church","lat":35.041727,"lng":33.236718},{"name":"Stavrou Stylianidi - Panteli Katelari","lat":35.053068,"lng":33.242695},{"name":"Agiou Ilarionos - Dikomou","lat":35.053174,"lng":33.238934},{"name":"Markou Drakou","lat":35.054174,"lng":33.244025},{"name":"Agias Paraskevis Ave. - Chatzipieri Efthymiou","lat":35.055739,"lng":33.245916},{"name":"Ergates Public Kindergarden","lat":35.057127,"lng":33.246578},{"name":"Archiep. Makariou C´ Ave. - 3rd Ergates","lat":35.060218,"lng":33.247135},{"name":"Archiep. Makariou C´ Ave. - 1st Ergates 2","lat":35.062291,"lng":33.24769},{"name":"Archiep. Makariou C´ Ave. - 1st Ergates","lat":35.064799,"lng":33.247445},{"name":"Archiepiskopou Makariou C - Michail Karaoli","lat":35.074427,"lng":33.248462}]