[{"name":"Grigori Afxentiou - Apostolos Varnavas Church 1","lat":35.148399,"lng":33.208428},{"name":"Grigori Afxentiou - Praxitelous 1","lat":35.148313,"lng":33.205705},{"name":"Kokkinotrimithia Police Station 1","lat":35.148644,"lng":33.201984},{"name":"Ilektras - Mammari","lat":35.165643,"lng":33.206342},{"name":"Savva Rotsidi - 3rd Mammari Setl.","lat":35.168219,"lng":33.202911},{"name":"Kon. Palaiologou - 2nd Mammari Setl.","lat":35.169947,"lng":33.199335},{"name":"Kon. Palaiologou - 1st Mammari Setl.","lat":35.171715,"lng":33.198812},{"name":"Mammari Square","lat":35.174023,"lng":33.20454},{"name":"Mammari","lat":35.177546,"lng":33.206053},{"name":"25 Martiou ","lat":35.178496,"lng":33.204496}]