[{"name":"25 Martiou ","lat":35.178496,"lng":33.204496},{"name":"Mammari","lat":35.177546,"lng":33.206053},{"name":"Mammari Square","lat":35.174023,"lng":33.20454},{"name":"Kon. Palaiologou - 1st Mammari Setl.","lat":35.171715,"lng":33.198812},{"name":"Kon. Palaiologou - 2nd Mammari Setl.","lat":35.169947,"lng":33.199335},{"name":"Savva Rotsidi - 3rd Mammari Setl.","lat":35.168219,"lng":33.202911},{"name":"Ilektras - Mammari","lat":35.165643,"lng":33.206342},{"name":"Kokkinotrimithia Police Station 2","lat":35.148698,"lng":33.202281},{"name":"Grigori Afxentiou - Archiepiskopou Kyprianou","lat":35.148422,"lng":33.205277},{"name":"Grigori Afxentiou - Apostolos Varnavas Church 2","lat":35.148561,"lng":33.208626}]