[{"name":"Lefkosias Ave. - Christou Tsiarta Ave. 1","lat":35.132712,"lng":33.087954},{"name":"Peristerona - Orounta Road","lat":35.117622,"lng":33.093447},{"name":"Eirinis Ave. - 6th Orounta 1","lat":35.108955,"lng":33.094699},{"name":"Orounta Community Board 1","lat":35.102454,"lng":33.094308},{"name":"Eirinis Ave. - 4th Orounta 1","lat":35.099803,"lng":33.094228},{"name":"Eirinis Ave. - 3rd Orounta 1","lat":35.097477,"lng":33.09417},{"name":"Eirinis Ave. - 2nd Orounta 1","lat":35.095195,"lng":33.094047},{"name":"Eirinis Ave. - 1st Orounta 1","lat":35.091796,"lng":33.093879},{"name":"Kato Moni","lat":35.062798,"lng":33.091871},{"name":"Georgiou Griva Digeni Ave. - 5th Agia Marina 1","lat":35.050365,"lng":33.059641},{"name":"Agia Marina Elementary School","lat":35.050538,"lng":33.057086},{"name":"Agia Marina Church","lat":35.049564,"lng":33.056998},{"name":"Agia Marina Community Board 1","lat":35.047887,"lng":33.056547},{"name":"Grigori Afxentiou - 1st Agia Marina 1","lat":35.043505,"lng":33.054592},{"name":"Xyliatos","lat":35.029127,"lng":33.043171}]