[{"name":"Agia Eirini Lefkosias","lat":34.980554,"lng":32.968885},{"name":"Kannavia","lat":34.980988,"lng":32.976346},{"name":"Kannavia Helath Center","lat":34.982467,"lng":32.977079},{"name":"Tilepikoinonion - 3rd Vyzakia","lat":35.080217,"lng":33.013843},{"name":"Morfou - 4th Vyzakia","lat":35.081696,"lng":33.015961},{"name":"Agios Georgios Old Church - Potami","lat":35.102965,"lng":33.03013},{"name":"Potami Health Centre","lat":35.104354,"lng":33.02933},{"name":"Agios Georgios Church - Potami","lat":35.107529,"lng":33.025271},{"name":"Agiou Georgiou - 4th Potami","lat":35.109712,"lng":33.022561},{"name":"Agiou Georgiou - 5th Potami","lat":35.111533,"lng":33.020488},{"name":"Agiou Georgiou - 6th Potami","lat":35.114411,"lng":33.015056},{"name":"21 Mili 2","lat":35.127648,"lng":33.013028},{"name":"Troodous - Georgiou Griva Digeni","lat":35.137015,"lng":33.027969}]