[{"name":"Dionysios Solomos Square A","lat":35.170796,"lng":33.358998},{"name":"Evagorou Ave.  - Vasileos Pavlou","lat":35.167791,"lng":33.357008},{"name":"Ave. Dimostheni Severi - Skyrou","lat":35.165651,"lng":33.354704},{"name":"Ave. Georgiou Griva Digeni - Simou Menardou","lat":35.163701,"lng":33.352543},{"name":"Ave. Georgiou Griva Digeni - Prodromou 1","lat":35.164132,"lng":33.34991},{"name":"Ave. Georgiou Griva Digeni - Europa Hotel","lat":35.162989,"lng":33.346149},{"name":"Ave. Georgiou Griva Digeni - Engomi High School 1","lat":35.161301,"lng":33.343617},{"name":"Ave. Georgiou Griva Digeni - Metochi Kikkou 1","lat":35.160705,"lng":33.340803},{"name":"Ave. Georgiou Griva Digeni - Archangelou Michail","lat":35.161823,"lng":33.337437},{"name":"Ave. Georgiou Griva Digeni","lat":35.162839,"lng":33.335333},{"name":"Ave. Georgiou Griva Digeni - Nikou Kranidioti","lat":35.163813,"lng":33.332142},{"name":"Ave. Georgiou Griva Digeni - Engomi Old Cemetery","lat":35.163974,"lng":33.329287},{"name":"Ave. Georgiou Griva Digeni - Hilton Park 1","lat":35.164117,"lng":33.326279},{"name":"Ave. G. Griva Digeni - Cyprus Football Association","lat":35.164278,"lng":33.323436},{"name":"Av. Griva Digeni - Ag. Dometios-Engomi Ind. Area 1","lat":35.164845,"lng":33.320374},{"name":"Ave.8 Oktovriou - 28 Oktovriou Avenue","lat":35.16512,"lng":33.318619},{"name":"Ave.8 Oktovriou - Aftokratoros Ioustinianou","lat":35.160318,"lng":33.317096},{"name":"Ave. 28 Oktovriou - Mesolongiou","lat":35.157482,"lng":33.31535},{"name":"Ilia Papakyriakou - Pavlou Mela","lat":35.155443,"lng":33.316056},{"name":"Ilia Papakyriakou - Afroditis","lat":35.152012,"lng":33.317525},{"name":"Tassos Papadopoulos-Eleftheria","lat":35.148298,"lng":33.313876},{"name":"Ave. Iroon - Morfou Avenue","lat":35.143203,"lng":33.303318},{"name":"Ave. Iroon - Alexandrou Panagouli","lat":35.134968,"lng":33.300598},{"name":"NICOSIA MALL","lat":35.133332,"lng":33.279429}]