[{"name":"University of Cyprus - Oceanography Center","lat":35.144386,"lng":33.407152},{"name":"University of Cyprus - North Campus Entrance","lat":35.146928,"lng":33.415453},{"name":"Larnakos - Panepistimiou Avenue","lat":35.148487,"lng":33.412969},{"name":"Larnakos","lat":35.150677,"lng":33.408171},{"name":"Larnakos - Charilaou Michail","lat":35.152766,"lng":33.403713},{"name":"Larnakos - Athalassis Avenue","lat":35.153892,"lng":33.401303},{"name":"Larnakos - Markou Drakou","lat":35.155309,"lng":33.398225},{"name":"Larnakos - Grigoriou Lampraki","lat":35.156907,"lng":33.39473},{"name":"Larnakos - Aglantzias Avenue","lat":35.157833,"lng":33.392824},{"name":"Larnakos - Athinas","lat":35.159095,"lng":33.390063},{"name":"Larnakos - Parthenonos","lat":35.160737,"lng":33.387107},{"name":"Larnakos - Akadimia Park 2","lat":35.164184,"lng":33.383412},{"name":"Larnakos - Poseidonos","lat":35.165216,"lng":33.382285},{"name":"Larnakos - Andrea Dimitriou","lat":35.166582,"lng":33.38093},{"name":"Ave. Tzon Kennenty - Andrea Skotti","lat":35.172499,"lng":33.380299},{"name":"Ave. Tzon Kennenty - Markou Drakou","lat":35.172078,"lng":33.376398},{"name":"Markou Drakou - Aristeidou","lat":35.172684,"lng":33.375885},{"name":"Agiou Andreou - Praxandrou","lat":35.174827,"lng":33.376861},{"name":"Agiou Andreou - Evangelistria Church 1","lat":35.176695,"lng":33.37922},{"name":"Ave. Kyriakou Matsi - Aiakou","lat":35.178709,"lng":33.378153},{"name":"Ave. Salaminos - Aigeos","lat":35.174838,"lng":33.373215},{"name":"Ave. Salaminos - Anoigma Kolokasi 2","lat":35.17104,"lng":33.370991},{"name":"Ave. Stasinou - Alkaiou","lat":35.169038,"lng":33.368203},{"name":"Ave. Stasinou - Kritis","lat":35.168215,"lng":33.365817},{"name":"Bastion Davila","lat":35.168513,"lng":33.362886},{"name":"Diagorou","lat":35.169683,"lng":33.357247},{"name":"Chilonos - Michail Paridi","lat":35.170804,"lng":33.353331},{"name":"Ministry of Health 1","lat":35.169356,"lng":33.348944},{"name":"Ministry of Transport Communications and Works 1","lat":35.168863,"lng":33.344758},{"name":"Prigipos Karolou - Vasileos Konstantinou","lat":35.168966,"lng":33.340135},{"name":"Prigipos Karolou - Vasileos Georgiou","lat":35.168856,"lng":33.337686},{"name":"Ave. Kyriakou Matsi - Egkomis","lat":35.16854,"lng":33.334511},{"name":"Agios Dometios Police Station 1","lat":35.168401,"lng":33.332676},{"name":"Ave. Kyriakou Matsi - Neas Egkomis","lat":35.168256,"lng":33.32948},{"name":"Ave. Kyriakou Matsi - Dimokratias Avenue","lat":35.168553,"lng":33.326418},{"name":"Ave. Kyriakou Matsi - Coca Cola","lat":35.168743,"lng":33.32274},{"name":"Ave. Kyriakou Matsi - Vasilissis Freiderikis","lat":35.168572,"lng":33.319445},{"name":"Georg. Griva Digeni Ave. - Kolakasidi Roundabout 1","lat":35.165833,"lng":33.318435},{"name":"Ave.8 Oktovriou - 28 Oktovriou Avenue","lat":35.16512,"lng":33.318619},{"name":"Ave.8 Oktovriou - Aftokratoros Ioustinianou","lat":35.160318,"lng":33.317096},{"name":"Ave. 28 Oktovriou - Mesolongiou","lat":35.157482,"lng":33.31535},{"name":"Ilia Papakyriakou - Pavlou Mela","lat":35.155443,"lng":33.316056},{"name":"Ilia Papakyriakou - Afroditis","lat":35.152012,"lng":33.317525},{"name":"Makario Stadium Bus Station","lat":35.148468,"lng":33.314107}]