[{"name":"Makario Stadium Bus Station","lat":35.148468,"lng":33.314107},{"name":"Apolloneio Hospital","lat":35.147849,"lng":33.319891},{"name":"Avenue Lefkotheou - Archangelou Michail","lat":35.147778,"lng":33.32303},{"name":"Makedonitissis - Amazonon","lat":35.146892,"lng":33.327155},{"name":"Makedonitissis - Old Strovolos Cemetery 1","lat":35.146657,"lng":33.330722},{"name":"Elaionon - Anoixeos","lat":35.145352,"lng":33.333142},{"name":"Elaionon - Kostaki Ompasi","lat":35.143047,"lng":33.331871},{"name":"Elaionon - Evzonon","lat":35.138978,"lng":33.329165},{"name":"Evzonon - Evryviadou","lat":35.137629,"lng":33.331311},{"name":"Public Works Department 2","lat":35.138128,"lng":33.333508},{"name":"Ave. Strovolou - Ilia Venezi","lat":35.140811,"lng":33.338196},{"name":"Athinon - Orfeos","lat":35.140629,"lng":33.345253},{"name":"Athinon - Lefkados","lat":35.138811,"lng":33.347112},{"name":"Stavrou - Aitolon","lat":35.137551,"lng":33.349521},{"name":"Stavrou - Promitheos","lat":35.136579,"lng":33.351932},{"name":"Apostolos Andreas Church 1","lat":35.134545,"lng":33.365919},{"name":"Iroon - Isidorou","lat":35.133036,"lng":33.366955},{"name":"Dimokratias - Andromachis","lat":35.131159,"lng":33.367231},{"name":"Dimokratias 1","lat":35.130391,"lng":33.364813},{"name":"Kalamon - Kampou","lat":35.127134,"lng":33.368333},{"name":"Kalamon -Hospital Round About","lat":35.124307,"lng":33.373007},{"name":"Lemesou Ave. - Volvo","lat":35.126836,"lng":33.374533},{"name":"Nicosia General Hospital","lat":35.128043,"lng":33.374879}]