[{"name":"Mitropoliti Chrysanthou Sarigianni - Atsas 1","lat":35.070513,"lng":32.930188},{"name":"Linou Cemetery","lat":35.076152,"lng":32.896816},{"name":"Linou - Katydatya Intersection","lat":35.07656,"lng":32.888907},{"name":"Marathasas Ave.  - 3rd Kalopanagioti","lat":35.00231,"lng":32.826596},{"name":"Oikos","lat":35.000205,"lng":32.830195},{"name":"Markou Drakou - 3rd Kalopanagioti","lat":34.998432,"lng":32.825716},{"name":"Markou Drakou - 2nd Kalopanagioti","lat":34.993385,"lng":32.827853},{"name":"Sofokles Pogiatzis Square","lat":34.99095,"lng":32.827825},{"name":"Eleftherias Avenue - 2nd Moutoulla","lat":34.982736,"lng":32.822419},{"name":"Panagias Moutoullas - 1st Moutoulla","lat":34.983281,"lng":32.82462},{"name":"Filoxenias - 2nd Pedoulas","lat":34.968703,"lng":32.827203},{"name":"Filoxenias - 1st Pedoulas","lat":34.966675,"lng":32.827689},{"name":"Prodromos Camping Site","lat":34.951894,"lng":32.833229},{"name":"Prodromos Vilalge Center 1","lat":34.949792,"lng":32.832609}]