[{"name":"Kourdali Community Board","lat":34.97465,"lng":32.950449},{"name":"Spilia","lat":34.967384,"lng":32.956018},{"name":"Spilia Square","lat":34.966193,"lng":32.954299},{"name":"Lefkosias - Troodous - Droseri Potamia 2","lat":34.969042,"lng":32.918356},{"name":"Archiepiskopou Makariou C Avenue 2","lat":34.99045,"lng":32.906259}]