[{"name":"Troodos Square","lat":34.923725,"lng":32.881164},{"name":"Troodos Camping Site 2","lat":34.931709,"lng":32.884777},{"name":"Lefkosias - Troodous - Karvounas 2","lat":34.942006,"lng":32.930067},{"name":"Platania - Forest Station 2","lat":34.949615,"lng":32.927399},{"name":"Distrato Spilion","lat":34.962699,"lng":32.926489},{"name":"Lefkosias - Troodous - Droseri Potamia 2","lat":34.969042,"lng":32.918356},{"name":"Archiepiskopou Makariou C Avenue 2","lat":34.99045,"lng":32.906259}]