[{"name":"GSP Stadium","lat":35.113383,"lng":33.35924},{"name":"Lemesou Ave. - Ellispontou","lat":35.142364,"lng":33.374187},{"name":"Police Headquarters","lat":35.147784,"lng":33.374102},{"name":"Lemesou Ave. - San Sousi","lat":35.15312,"lng":33.374829},{"name":"Archiep. Makariou III Ave. - Ethnikis Frouras","lat":35.156386,"lng":33.374086},{"name":"Archiep. Makariou III Ave. - Dimofontos","lat":35.162761,"lng":33.365485},{"name":"Archiep. Makariou III Ave. - Theofani Theodotou","lat":35.167781,"lng":33.360138},{"name":"Ministry of Finance","lat":35.168626,"lng":33.354947},{"name":"G.Leventi - Evagorou","lat":35.169462,"lng":33.358849},{"name":"Archiep. Makariou III Ave. - Amaldas","lat":35.16798,"lng":33.360095},{"name":"Archiep. Makariou III Ave. - Naxou","lat":35.162507,"lng":33.366066},{"name":"Technical School Nicosia III","lat":35.156847,"lng":33.373957},{"name":"Lemesou Ave. - Alpha Bank","lat":35.154255,"lng":33.375339},{"name":"Lemesou Ave. - Melkonian","lat":35.151317,"lng":33.374612},{"name":"Traffic Education Park","lat":35.147441,"lng":33.374364},{"name":"Lemesou Ave. - Kalispera","lat":35.141317,"lng":33.374687},{"name":"GSP Stadium","lat":35.113383,"lng":33.35924}]