[
  {
    "description": "Agia Thekla Beach 2",
    "lat": 34.9811115683032,
    "lon": 33.9354140413884,
    "name": "Agia Thekla Beach 2"
  },
  {
    "description": "Agia Napa Marina 2",
    "lat": 34.9800828310617,
    "lon": 33.9425124889476,
    "name": "Agia Napa Marina 2"
  },
  {
    "description": "Agias Theklas - 4th Stop",
    "lat": 34.9851284101408,
    "lon": 33.9453422347931,
    "name": "Agias Theklas - 4th Stop"
  },
  {
    "description": "Agias Theklas - 2nd Stop",
    "lat": 34.9868988007468,
    "lon": 33.9484194348787,
    "name": "Agias Theklas - 2nd Stop"
  },
  {
    "description": "Makronissos Beach 2",
    "lat": 34.9885022885725,
    "lon": 33.9555159262288,
    "name": "Makronissos Beach 2"
  },
  {
    "description": "Landa Beach 2",
    "lat": 34.9889841529387,
    "lon": 33.9595864648807,
    "name": "Landa Beach 2"
  },
  {
    "description": "Nissi Bay Beach 2",
    "lat": 34.9889263480932,
    "lon": 33.9668719922403,
    "name": "Nissi Bay Beach 2"
  },
  {
    "description": "Nisi Ave. - Asprovounou",
    "lat": 34.9901012084762,
    "lon": 33.9744350728441,
    "name": "Nisi Ave. - Asprovounou"
  },
  {
    "description": "Nisi Ave. - Isaak kai Solomou",
    "lat": 34.9887921376311,
    "lon": 33.9835793257224,
    "name": "Nisi Ave. - Isaak kai Solomou"
  },
  {
    "description": "Ave. Nisi Ave. - Agias Mavris 2",
    "lat": 34.988266371929,
    "lon": 33.9872544479127,
    "name": "Ave. Nisi Ave. - Agias Mavris 2"
  },
  {
    "description": "Nisi Ave. - Katalymmata",
    "lat": 34.9873425670791,
    "lon": 33.9954826080579,
    "name": "Nisi Ave. - Katalymmata"
  },
  {
    "description": "Agia Napa Monastery 2",
    "lat": 34.9883223044173,
    "lon": 34.0002496230693,
    "name": "Agia Napa Monastery 2"
  },
  {
    "description": "Dionysiou Solomou - Kryou Nerou Ave.",
    "lat": 34.988509611231,
    "lon": 34.0026842659282,
    "name": "Dionysiou Solomou - Kryou Nerou Ave."
  },
  {
    "description": "Kryou Nerou Ave. - 1st Stop",
    "lat": 34.9868522646021,
    "lon": 34.0068274771151,
    "name": "Kryou Nerou Ave. - 1st Stop"
  },
  {
    "description": "Kryou Nerou Ave. - 2ndStop 1",
    "lat": 34.9861748090721,
    "lon": 34.0091419130705,
    "name": "Kryou Nerou Ave. - 2ndStop 1"
  },
  {
    "description": "Kryou Nerou Ave. - Marina Hotel 1",
    "lat": 34.9852241979448,
    "lon": 34.0160873994527,
    "name": "Kryou Nerou Ave. - Marina Hotel 1"
  },
  {
    "description": "Agia Napa Police Station",
    "lat": 34.9929986486873,
    "lon": 34.0017638238106,
    "name": "Agia Napa Police Station"
  },
  {
    "description": "Paralimni - Agia Napa Road - 1st Stop",
    "lat": 34.9971779850825,
    "lon": 34.0001272623057,
    "name": "Paralimni - Agia Napa Road - 1st Stop"
  },
  {
    "description": "Paralimni - Agia Napa Road - 3rd Stop",
    "lat": 35.0024100154508,
    "lon": 33.9987663321649,
    "name": "Paralimni - Agia Napa Road - 3rd Stop"
  },
  {
    "description": "Paralimni - Agia Napa Road - 5th Stop",
    "lat": 35.0100875492294,
    "lon": 33.9938730935711,
    "name": "Paralimni - Agia Napa Road - 5th Stop"
  },
  {
    "description": "Paralimni - Agia Napa Road - 7th Stop",
    "lat": 35.0140634788195,
    "lon": 33.9895262295049,
    "name": "Paralimni - Agia Napa Road - 7th Stop"
  },
  {
    "description": "Paralimni - Agia Napa Road - 9th Stop",
    "lat": 35.0201249341536,
    "lon": 33.985949300711,
    "name": "Paralimni - Agia Napa Road - 9th Stop"
  },
  {
    "description": "1 Apriliou Ave.  - 2nd Stop",
    "lat": 35.0275486010699,
    "lon": 33.9822785336421,
    "name": "1 Apriliou Ave.  - 2nd Stop"
  },
  {
    "description": "1 Apriliou Ave. - Agiou Nektariou",
    "lat": 35.0327728504195,
    "lon": 33.9796223370255,
    "name": "1 Apriliou Ave. - Agiou Nektariou"
  },
  {
    "description": "1 Apriliou Ave. - Alikarnassou",
    "lat": 35.0382325281524,
    "lon": 33.9779553054319,
    "name": "1 Apriliou Ave. - Alikarnassou"
  },
  {
    "description": "Paralimni Square Bus Station",
    "lat": 35.0394760084475,
    "lon": 33.983638211908,
    "name": "Paralimni Square Bus Station"
  },
  {
    "description": "B´ Paralimni Elementary School 1",
    "lat": 35.0407676818496,
    "lon": 33.9900125745783,
    "name": "B´ Paralimni Elementary School 1"
  },
  {
    "description": "Protara Ave. - 1st Stop",
    "lat": 35.0422200103053,
    "lon": 33.9921461048547,
    "name": "Protara Ave. - 1st Stop"
  },
  {
    "description": "Protara Ave. - 3rd Stop",
    "lat": 35.043264871686,
    "lon": 33.9944830878536,
    "name": "Protara Ave. - 3rd Stop"
  },
  {
    "description": "Protara Ave. - Psychari",
    "lat": 35.0441186403956,
    "lon": 33.9981225274155,
    "name": "Protara Ave. - Psychari"
  },
  {
    "description": "Agia Varvara Church 2",
    "lat": 35.0456960731696,
    "lon": 34.0025603014262,
    "name": "Agia Varvara Church 2"
  },
  {
    "description": "Ave. Protara - Antaiou",
    "lat": 35.047679423153,
    "lon": 34.0069593691173,
    "name": "Ave. Protara - Antaiou"
  },
  {
    "description": "Protara Ave. - 5th Stop",
    "lat": 35.0487307058956,
    "lon": 34.0106563870134,
    "name": "Protara Ave. - 5th Stop"
  },
  {
    "description": "Kappari Ave. - 6th Stop",
    "lat": 35.0497845621377,
    "lon": 34.0151100988854,
    "name": "Kappari Ave. - 6th Stop"
  },
  {
    "description": "Kappari Ave. - 4th Stop",
    "lat": 35.0526824062406,
    "lon": 34.0114616689817,
    "name": "Kappari Ave. - 4th Stop"
  },
  {
    "description": "Kappari Ave. - 2nd Stop",
    "lat": 35.0562627063173,
    "lon": 34.0059681758428,
    "name": "Kappari Ave. - 2nd Stop"
  },
  {
    "description": "Giorki Papadopoulou - Parnithos 2",
    "lat": 35.0557476108424,
    "lon": 34.0006545216086,
    "name": "Giorki Papadopoulou - Parnithos 2"
  },
  {
    "description": "Giorki Papadopoulou - Meg. Alexandrou",
    "lat": 35.0528877624669,
    "lon": 33.9953563392032,
    "name": "Giorki Papadopoulou - Meg. Alexandrou"
  },
  {
    "description": "Giorki Papadopoulou - Famagusta District Court",
    "lat": 35.0521784908628,
    "lon": 33.9927818982436,
    "name": "Giorki Papadopoulou - Famagusta District Court"
  },
  {
    "description": "Famagusta Police Headquarters 2",
    "lat": 35.0519977430046,
    "lon": 33.9873081333618,
    "name": "Famagusta Police Headquarters 2"
  },
  {
    "description": "Paralimni Lyceum",
    "lat": 35.0521392278799,
    "lon": 33.9809829675599,
    "name": "Paralimni Lyceum"
  }
]