[
  {
    "description": "Michail Zavou - Dimitri Lagiou 2",
    "lat": 34.7093473162386,
    "lon": 33.073241987991,
    "name": "Michail Zavou - Dimitri Lagiou 2"
  },
  {
    "description": "Michail Zavou - Acheritou",
    "lat": 34.7087267001485,
    "lon": 33.0705004840034,
    "name": "Michail Zavou - Acheritou"
  },
  {
    "description": "Agiou Epiktitou - Manou Katraki 2",
    "lat": 34.7098374528631,
    "lon": 33.0677604327667,
    "name": "Agiou Epiktitou - Manou Katraki 2"
  },
  {
    "description": "Agiou Epiktitou - Kokkinogias",
    "lat": 34.7116505384566,
    "lon": 33.0668664277662,
    "name": "Agiou Epiktitou - Kokkinogias"
  },
  {
    "description": "Kokkinogias - Agiou Epiktitou 2",
    "lat": 34.7123356434991,
    "lon": 33.0673256452586,
    "name": "Kokkinogias - Agiou Epiktitou 2"
  },
  {
    "description": "Kokkinogias - Agiou Epiktitou 1",
    "lat": 34.7139317808572,
    "lon": 33.0673706220355,
    "name": "Kokkinogias - Agiou Epiktitou 1"
  },
  {
    "description": "Agios Athanasios Cemetery 2",
    "lat": 34.7143923263145,
    "lon": 33.0662133809185,
    "name": "Agios Athanasios Cemetery 2"
  },
  {
    "description": "Charalampou Evagorou - Inomenon Ethnon",
    "lat": 34.7127701924395,
    "lon": 33.0641917624653,
    "name": "Charalampou Evagorou - Inomenon Ethnon"
  },
  {
    "description": "Charalampou Evagorou - Agiou Athanasiou",
    "lat": 34.7111488058603,
    "lon": 33.0606195173059,
    "name": "Charalampou Evagorou - Agiou Athanasiou"
  },
  {
    "description": "Agiou Athanasiou - Gianni Ritsou",
    "lat": 34.7094444778525,
    "lon": 33.0605199917269,
    "name": "Agiou Athanasiou - Gianni Ritsou"
  },
  {
    "description": "Agios Athanasios Industrial Zone 2",
    "lat": 34.7047983908233,
    "lon": 33.0641965241074,
    "name": "Agios Athanasios Industrial Zone 2"
  },
  {
    "description": "Andrea Kariolou - Ermi",
    "lat": 34.7029398463296,
    "lon": 33.0658111578776,
    "name": "Andrea Kariolou - Ermi"
  },
  {
    "description": "Elpidos - Igoumenitsas",
    "lat": 34.7021277026591,
    "lon": 33.0667932500718,
    "name": "Elpidos - Igoumenitsas"
  },
  {
    "description": "Petrompei Mavromichali - Chatzigeorgaki Kornesiou",
    "lat": 34.7009001348757,
    "lon": 33.0688341389062,
    "name": "Petrompei Mavromichali - Chatzigeorgaki Kornesiou"
  },
  {
    "description": "Linopetra Elementary School",
    "lat": 34.6979520508084,
    "lon": 33.0674668561848,
    "name": "Linopetra Elementary School"
  },
  {
    "description": "Karpasias - Dimitriou Kitrou",
    "lat": 34.6986839858238,
    "lon": 33.0647268243356,
    "name": "Karpasias - Dimitriou Kitrou"
  },
  {
    "description": "Karpasias - Kythreas",
    "lat": 34.70050590403,
    "lon": 33.0641495324538,
    "name": "Karpasias - Kythreas"
  },
  {
    "description": "Andrea Kariolou - Agiou Athanasiou Ave. 2",
    "lat": 34.7015261653881,
    "lon": 33.0617480954643,
    "name": "Andrea Kariolou - Agiou Athanasiou Ave. 2"
  },
  {
    "description": "Spyrou Kyprianou Ave. - Filikis Etaireias",
    "lat": 34.6984281503874,
    "lon": 33.0529561639197,
    "name": "Spyrou Kyprianou Ave. - Filikis Etaireias"
  },
  {
    "description": "Stavrou Stylianidi - Falirou",
    "lat": 34.699564956976,
    "lon": 33.0516684526371,
    "name": "Stavrou Stylianidi - Falirou"
  },
  {
    "description": "Stavrou Stylianidi - Vouliagmenis 1",
    "lat": 34.701855761466,
    "lon": 33.0510474796262,
    "name": "Stavrou Stylianidi - Vouliagmenis 1"
  },
  {
    "description": "Pavlou Liasidi - Avraam Antoniou 1",
    "lat": 34.7031631426158,
    "lon": 33.0515505758152,
    "name": "Pavlou Liasidi - Avraam Antoniou 1"
  },
  {
    "description": "Elpinikis - Troias 1",
    "lat": 34.7033428866654,
    "lon": 33.052981134106,
    "name": "Elpinikis - Troias 1"
  },
  {
    "description": "Elpinikis - Nikola Sofokleous",
    "lat": 34.7041263540244,
    "lon": 33.0554276114204,
    "name": "Elpinikis - Nikola Sofokleous"
  },
  {
    "description": "1 Oktovriou - Sysklipou",
    "lat": 34.7034672110157,
    "lon": 33.0572398017474,
    "name": "1 Oktovriou - Sysklipou"
  },
  {
    "description": "1 Oktovriou - Solomou Solomou",
    "lat": 34.7025380444791,
    "lon": 33.0579270799525,
    "name": "1 Oktovriou - Solomou Solomou"
  },
  {
    "description": "27 Elementary School - Timios Prodromos",
    "lat": 34.7008163666116,
    "lon": 33.0563535283743,
    "name": "27 Elementary School - Timios Prodromos"
  },
  {
    "description": "Georgiou Konstantinou - Solomou Solomou",
    "lat": 34.7008441813606,
    "lon": 33.0546829229765,
    "name": "Georgiou Konstantinou - Solomou Solomou"
  },
  {
    "description": "Milias - Ardanon",
    "lat": 34.702791935513,
    "lon": 33.0549244305383,
    "name": "Milias - Ardanon"
  },
  {
    "description": "Elpinikis - Troias 2",
    "lat": 34.7033516994966,
    "lon": 33.0534506757451,
    "name": "Elpinikis - Troias 2"
  },
  {
    "description": "Pavlou Liasidi - Avraam Antoniou 2",
    "lat": 34.7030641070216,
    "lon": 33.0511683352247,
    "name": "Pavlou Liasidi - Avraam Antoniou 2"
  },
  {
    "description": "Stavrou Stylianidi - Vouliagmenis 2",
    "lat": 34.7020451461099,
    "lon": 33.0510257573987,
    "name": "Stavrou Stylianidi - Vouliagmenis 2"
  },
  {
    "description": "Stavrou Stylianidi - Iridos",
    "lat": 34.6995378523401,
    "lon": 33.0517885441449,
    "name": "Stavrou Stylianidi - Iridos"
  },
  {
    "description": "Eptanisou - Grigori Afxentiou",
    "lat": 34.6977081610453,
    "lon": 33.0495272331094,
    "name": "Eptanisou - Grigori Afxentiou"
  },
  {
    "description": "10 Elementary School - Chalkoutsa 2",
    "lat": 34.6955433737069,
    "lon": 33.0507269692899,
    "name": "10 Elementary School - Chalkoutsa 2"
  },
  {
    "description": "Omirou - Konstantinou Davaki",
    "lat": 34.6940731829728,
    "lon": 33.0513811656866,
    "name": "Omirou - Konstantinou Davaki"
  },
  {
    "description": "Omirou - Machatma Gkanti",
    "lat": 34.6918991548381,
    "lon": 33.0530502667495,
    "name": "Omirou - Machatma Gkanti"
  },
  {
    "description": "Nikodimou Mylona - Riga Feraiou 2",
    "lat": 34.6907092628438,
    "lon": 33.0519577293993,
    "name": "Nikodimou Mylona - Riga Feraiou 2"
  },
  {
    "description": "Riga Feraiou - Dimitriou Glinou 2",
    "lat": 34.6893204365674,
    "lon": 33.0521206256056,
    "name": "Riga Feraiou - Dimitriou Glinou 2"
  },
  {
    "description": "Riga Feraiou - Vasili Vryonidi 2",
    "lat": 34.6876967379524,
    "lon": 33.0532222639656,
    "name": "Riga Feraiou - Vasili Vryonidi 2"
  },
  {
    "description": "Zoo - PASHDY",
    "lat": 34.6846393759327,
    "lon": 33.0538862435104,
    "name": "Zoo - PASHDY"
  },
  {
    "description": "Gladstonos - Aristodimou Pilavaki",
    "lat": 34.6837388024438,
    "lon": 33.0510581915224,
    "name": "Gladstonos - Aristodimou Pilavaki"
  },
  {
    "description": "B´ Elementary School 2",
    "lat": 34.6828563923632,
    "lon": 33.0477389574681,
    "name": "B´ Elementary School 2"
  },
  {
    "description": "Gladstonos - Zinonos",
    "lat": 34.681170955881,
    "lon": 33.0453472700374,
    "name": "Gladstonos - Zinonos"
  },
  {
    "description": "Gladstonos - Vragadinou",
    "lat": 34.6792603888362,
    "lon": 33.0419076004369,
    "name": "Gladstonos - Vragadinou"
  },
  {
    "description": "EMEL Bus Station Leontiou A´",
    "lat": 34.6792348518186,
    "lon": 33.0372354212458,
    "name": "EMEL Bus Station Leontiou A´"
  }
]