[
  {
    "description": "Kryou Nerou Ave. - Marina Hotel 2",
    "lat": 34.9851780174399,
    "lon": 34.0162183024577,
    "name": "Kryou Nerou Ave. - Marina Hotel 2"
  },
  {
    "description": "Kryou Nerou Ave. - 2ndStop 2",
    "lat": 34.98602599785,
    "lon": 34.0096878996335,
    "name": "Kryou Nerou Ave. - 2ndStop 2"
  },
  {
    "description": "Kryou Nerou Ave. - Melission",
    "lat": 34.9876497856868,
    "lon": 34.0041638620647,
    "name": "Kryou Nerou Ave. - Melission"
  },
  {
    "description": "Agia Napa Monastery 1",
    "lat": 34.9883845142944,
    "lon": 34.0003599456526,
    "name": "Agia Napa Monastery 1"
  },
  {
    "description": "Agia Napa Harbour 1",
    "lat": 34.9850286357056,
    "lon": 34.0005491993082,
    "name": "Agia Napa Harbour 1"
  },
  {
    "description": "Evangelou Floraki 2",
    "lat": 34.9847975438163,
    "lon": 34.0012366220288,
    "name": "Evangelou Floraki 2"
  },
  {
    "description": "Evagora Pallikaridi - Kassandrou",
    "lat": 34.9839745546796,
    "lon": 33.9971509723006,
    "name": "Evagora Pallikaridi - Kassandrou"
  },
  {
    "description": "Nisi Ave.  - Giouri Gkagkarin",
    "lat": 34.9873223873429,
    "lon": 33.9935430728798,
    "name": "Nisi Ave.  - Giouri Gkagkarin"
  },
  {
    "description": "Ave. Nisi Ave. - Agias Mavris 1",
    "lat": 34.9880344627944,
    "lon": 33.9880514914729,
    "name": "Ave. Nisi Ave. - Agias Mavris 1"
  },
  {
    "description": "Nisi Ave. - Vatheias Gonias",
    "lat": 34.9887406438684,
    "lon": 33.9821433888594,
    "name": "Nisi Ave. - Vatheias Gonias"
  },
  {
    "description": "Nisi Ave. - Neofytou Poullou",
    "lat": 34.9893875070241,
    "lon": 33.9768480544883,
    "name": "Nisi Ave. - Neofytou Poullou"
  },
  {
    "description": "Nisi Ave. - Sotou Chatziprokopiou",
    "lat": 34.9901185293082,
    "lon": 33.9711482252412,
    "name": "Nisi Ave. - Sotou Chatziprokopiou"
  },
  {
    "description": "Nissi Bay Beach 1",
    "lat": 34.9895128732205,
    "lon": 33.9690811996641,
    "name": "Nissi Bay Beach 1"
  },
  {
    "description": "Landa Beach 1",
    "lat": 34.9888564571742,
    "lon": 33.9609107339364,
    "name": "Landa Beach 1"
  },
  {
    "description": "Nisi Ave. - Makronisou",
    "lat": 34.9884970268497,
    "lon": 33.956184220467,
    "name": "Nisi Ave. - Makronisou"
  },
  {
    "description": "Makronissos Beach 1",
    "lat": 34.9877771925902,
    "lon": 33.9513987930417,
    "name": "Makronissos Beach 1"
  },
  {
    "description": "Agias Theklas - 1st Stop",
    "lat": 34.9849658620396,
    "lon": 33.9453732347674,
    "name": "Agias Theklas - 1st Stop"
  },
  {
    "description": "Agias Theklas - Waterpark 1",
    "lat": 34.9838938954213,
    "lon": 33.9429177138032,
    "name": "Agias Theklas - Waterpark 1"
  },
  {
    "description": "Agia Thekla Beach 1",
    "lat": 34.9808155572513,
    "lon": 33.9340412192035,
    "name": "Agia Thekla Beach 1"
  },
  {
    "description": "Agia Thekla Tourist Area - 1st Stop",
    "lat": 34.9810145328111,
    "lon": 33.9280835914121,
    "name": "Agia Thekla Tourist Area - 1st Stop"
  },
  {
    "description": "Agia Thekla Tourist Area - 3rd Stop",
    "lat": 34.9789935906198,
    "lon": 33.9211260117565,
    "name": "Agia Thekla Tourist Area - 3rd Stop"
  },
  {
    "description": "Agia Thekla Tourist Area - 5th Stop",
    "lat": 34.9760794253625,
    "lon": 33.9093824474811,
    "name": "Agia Thekla Tourist Area - 5th Stop"
  },
  {
    "description": "Agia Thekla Tourist Area - 7th Stop",
    "lat": 34.9755422964996,
    "lon": 33.9040304833861,
    "name": "Agia Thekla Tourist Area - 7th Stop"
  },
  {
    "description": "Michali Vrachimi - Potamou 1",
    "lat": 34.9751410618299,
    "lon": 33.8548493180133,
    "name": "Michali Vrachimi - Potamou 1"
  },
  {
    "description": "Eleftherias - Andrea Kazi",
    "lat": 34.97750483052,
    "lon": 33.8495277007459,
    "name": "Eleftherias - Andrea Kazi"
  }
]