[
  {
    "description": "Kryou Nerou Ave. - Marina Hotel 2",
    "lat": 34.9851780174399,
    "lon": 34.0162183024577,
    "name": "Kryou Nerou Ave. - Marina Hotel 2"
  },
  {
    "description": "Kryou Nerou Ave. - 2ndStop 2",
    "lat": 34.98602599785,
    "lon": 34.0096878996335,
    "name": "Kryou Nerou Ave. - 2ndStop 2"
  },
  {
    "description": "Kryou Nerou Ave. - Melission",
    "lat": 34.9876497856868,
    "lon": 34.0041638620647,
    "name": "Kryou Nerou Ave. - Melission"
  },
  {
    "description": "Agia Napa Monastery 1",
    "lat": 34.9883845142944,
    "lon": 34.0003599456526,
    "name": "Agia Napa Monastery 1"
  },
  {
    "description": "Agia Napa Harbour 1",
    "lat": 34.9850286357056,
    "lon": 34.0005491993082,
    "name": "Agia Napa Harbour 1"
  },
  {
    "description": "Evangelou Floraki 2",
    "lat": 34.9847975438163,
    "lon": 34.0012366220288,
    "name": "Evangelou Floraki 2"
  },
  {
    "description": "Evagora Pallikaridi - Kassandrou",
    "lat": 34.9839745546796,
    "lon": 33.9971509723006,
    "name": "Evagora Pallikaridi - Kassandrou"
  },
  {
    "description": "Nisi Ave.  - Giouri Gkagkarin",
    "lat": 34.9873223873429,
    "lon": 33.9935430728798,
    "name": "Nisi Ave.  - Giouri Gkagkarin"
  },
  {
    "description": "Ave. Nisi Ave. - Agias Mavris 1",
    "lat": 34.9880344627944,
    "lon": 33.9880514914729,
    "name": "Ave. Nisi Ave. - Agias Mavris 1"
  },
  {
    "description": "Nisi Ave. - Vatheias Gonias",
    "lat": 34.9887406438684,
    "lon": 33.9821433888594,
    "name": "Nisi Ave. - Vatheias Gonias"
  },
  {
    "description": "Nisi Ave. - Neofytou Poullou",
    "lat": 34.9893875070241,
    "lon": 33.9768480544883,
    "name": "Nisi Ave. - Neofytou Poullou"
  },
  {
    "description": "Nisi Ave. - Sotou Chatziprokopiou",
    "lat": 34.9901185293082,
    "lon": 33.9711482252412,
    "name": "Nisi Ave. - Sotou Chatziprokopiou"
  },
  {
    "description": "Nissi Bay Beach 1",
    "lat": 34.9895128732205,
    "lon": 33.9690811996641,
    "name": "Nissi Bay Beach 1"
  },
  {
    "description": "Landa Beach 1",
    "lat": 34.9888564571742,
    "lon": 33.9609107339364,
    "name": "Landa Beach 1"
  },
  {
    "description": "Nisi Ave. - Makronisou",
    "lat": 34.9884970268497,
    "lon": 33.956184220467,
    "name": "Nisi Ave. - Makronisou"
  },
  {
    "description": "Makronissos Beach 1",
    "lat": 34.9877771925902,
    "lon": 33.9513987930417,
    "name": "Makronissos Beach 1"
  },
  {
    "description": "Agias Theklas - 1st Stop",
    "lat": 34.9849658620396,
    "lon": 33.9453732347674,
    "name": "Agias Theklas - 1st Stop"
  },
  {
    "description": "Agias Theklas - Waterpark 1",
    "lat": 34.9838938954213,
    "lon": 33.9429177138032,
    "name": "Agias Theklas - Waterpark 1"
  },
  {
    "description": "Agia Thekla Beach 1",
    "lat": 34.9808155572513,
    "lon": 33.9340412192035,
    "name": "Agia Thekla Beach 1"
  },
  {
    "description": "Apost. Andrea - Ag. Theodorou 2",
    "lat": 35.0227660968111,
    "lon": 33.9510257333584,
    "name": "Apost. Andrea - Ag. Theodorou 2"
  },
  {
    "description": "Kyriakou Matsi - Tzon Kennenty",
    "lat": 35.024366810477,
    "lon": 33.9538723220818,
    "name": "Kyriakou Matsi - Tzon Kennenty"
  },
  {
    "description": "1 Apriliou - Dimokratias",
    "lat": 35.0280493934788,
    "lon": 33.951108850971,
    "name": "1 Apriliou - Dimokratias"
  },
  {
    "description": "Ammochostou 2",
    "lat": 35.0370190931687,
    "lon": 33.9548306123992,
    "name": "Ammochostou 2"
  },
  {
    "description": "Apostolos Varnavas Church 2",
    "lat": 35.0492652936546,
    "lon": 33.9569687075452,
    "name": "Apostolos Varnavas Church 2"
  },
  {
    "description": "Anagennisis Stadium",
    "lat": 35.051905109179,
    "lon": 33.9572407350655,
    "name": "Anagennisis Stadium"
  },
  {
    "description": "C´ Deryneia Elementary School 2",
    "lat": 35.0584349398956,
    "lon": 33.9581832587025,
    "name": "C´ Deryneia Elementary School 2"
  },
  {
    "description": "Archiep. Makariou C´ - Alakatis",
    "lat": 35.0606665900818,
    "lon": 33.9541847085198,
    "name": "Archiep. Makariou C´ - Alakatis"
  },
  {
    "description": "Archiep. Makariou C´ - Promitheos",
    "lat": 35.0623908345308,
    "lon": 33.9596441623166,
    "name": "Archiep. Makariou C´ - Promitheos"
  },
  {
    "description": "Ammochostou Ave. - Eleftheriou Iakovou",
    "lat": 35.0639150603851,
    "lon": 33.9607367391095,
    "name": "Ammochostou Ave. - Eleftheriou Iakovou"
  },
  {
    "description": "Ammochostou Ave. - Dim. Christodoulou 1",
    "lat": 35.0666729361939,
    "lon": 33.9609006608574,
    "name": "Ammochostou Ave. - Dim. Christodoulou 1"
  },
  {
    "description": "Deryneia (Green Line) 1",
    "lat": 35.0692567433799,
    "lon": 33.9602729004632,
    "name": "Deryneia (Green Line) 1"
  }
]