[
  {
    "description": "1st Agios Mamas 2",
    "lat": 34.8528663999333,
    "lon": 32.9467153526685,
    "name": "1st Agios Mamas 2"
  },
  {
    "description": "Agios Mamas Community Board 2",
    "lat": 34.8510547526727,
    "lon": 32.9488167930455,
    "name": "Agios Mamas Community Board 2"
  },
  {
    "description": "Fountain - 3rd Agios Mamas 2",
    "lat": 34.8502339653261,
    "lon": 32.9483906876949,
    "name": "Fountain - 3rd Agios Mamas 2"
  },
  {
    "description": "4th Agios Mamas 1",
    "lat": 34.8477814011304,
    "lon": 32.9489610201922,
    "name": "4th Agios Mamas 1"
  },
  {
    "description": "Kapileio 2",
    "lat": 34.8321392133555,
    "lon": 32.9580807097177,
    "name": "Kapileio 2"
  },
  {
    "description": "Archiep. Makariou C´ - 1st Limnatis 1",
    "lat": 34.8096296874724,
    "lon": 32.9543856742174,
    "name": "Archiep. Makariou C´ - 1st Limnatis 1"
  },
  {
    "description": "Timios Prodromos Church 2",
    "lat": 34.8116386042739,
    "lon": 32.9492457245731,
    "name": "Timios Prodromos Church 2"
  },
  {
    "description": "Limantis Central Station",
    "lat": 34.8138835500372,
    "lon": 32.9481400135937,
    "name": "Limantis Central Station"
  },
  {
    "description": "Grigori Afxentiou- 5th Limnatis 2",
    "lat": 34.8124228933925,
    "lon": 32.948643884062,
    "name": "Grigori Afxentiou- 5th Limnatis 2"
  },
  {
    "description": "Archiep. Makariou C´ - 3rd Limnatis 2",
    "lat": 34.8115667928106,
    "lon": 32.9500439285696,
    "name": "Archiep. Makariou C´ - 3rd Limnatis 2"
  },
  {
    "description": "Archiep. Makariou C´ - 2nd Limnatis 2",
    "lat": 34.8109451715569,
    "lon": 32.9515312755067,
    "name": "Archiep. Makariou C´ - 2nd Limnatis 2"
  },
  {
    "description": "Archiep. Makariou C´ - 1st Limnatis 2",
    "lat": 34.8096928238151,
    "lon": 32.9544184397811,
    "name": "Archiep. Makariou C´ - 1st Limnatis 2"
  },
  {
    "description": "Korfi 2",
    "lat": 34.7946092582247,
    "lon": 32.9636419625266,
    "name": "Korfi 2"
  },
  {
    "description": "Panagia Chrisokorfitissa Church 2",
    "lat": 34.7942492063628,
    "lon": 32.9659158543643,
    "name": "Panagia Chrisokorfitissa Church 2"
  },
  {
    "description": "Agias Eirinis - Apesia 2",
    "lat": 34.7871797053661,
    "lon": 32.9674380995945,
    "name": "Agias Eirinis - Apesia 2"
  },
  {
    "description": "Agias Zonis - Apesia 1",
    "lat": 34.7836096718763,
    "lon": 32.9714180257692,
    "name": "Agias Zonis - Apesia 1"
  },
  {
    "description": "Agia Zoni Church - Apesia",
    "lat": 34.7881830111553,
    "lon": 32.9778217869514,
    "name": "Agia Zoni Church - Apesia"
  },
  {
    "description": "Agias Zonis - Apesia 2",
    "lat": 34.7834744182614,
    "lon": 32.9714727223776,
    "name": "Agias Zonis - Apesia 2"
  },
  {
    "description": "Polemidia - Alassa Road 2",
    "lat": 34.744726858029,
    "lon": 32.9812091969898,
    "name": "Polemidia - Alassa Road 2"
  },
  {
    "description": "The Heritage 2",
    "lat": 34.7395422506546,
    "lon": 32.9859733233093,
    "name": "The Heritage 2"
  },
  {
    "description": "Lemesos - Troodos Road - Argyri Gavala 2",
    "lat": 34.7089274521079,
    "lon": 33.0004258868905,
    "name": "Lemesos - Troodos Road - Argyri Gavala 2"
  },
  {
    "description": "Lemesos - Troodos Road - Agias Anastasias",
    "lat": 34.7054194547858,
    "lon": 33.0032759147104,
    "name": "Lemesos - Troodos Road - Agias Anastasias"
  },
  {
    "description": "Giannou Kranidioti - Evagora Laniti",
    "lat": 34.7019024011066,
    "lon": 33.0054923845672,
    "name": "Giannou Kranidioti - Evagora Laniti"
  },
  {
    "description": "Giannou Kranidioti - Anoixeos",
    "lat": 34.6974110978269,
    "lon": 33.0112462235336,
    "name": "Giannou Kranidioti - Anoixeos"
  },
  {
    "description": "Nikou & Despoinas Pattichi - Sp. Kyprianou Ave. 1",
    "lat": 34.6917652918361,
    "lon": 33.0165406520715,
    "name": "Nikou & Despoinas Pattichi - Sp. Kyprianou Ave. 1"
  },
  {
    "description": "Nikou & Despoinas Pattichi - Epidamnou",
    "lat": 34.6882839198098,
    "lon": 33.0196514370874,
    "name": "Nikou & Despoinas Pattichi - Epidamnou"
  },
  {
    "description": "Nikou & Despoinas Pattichi - Annis Marias",
    "lat": 34.6874811173972,
    "lon": 33.0209067437208,
    "name": "Nikou & Despoinas Pattichi - Annis Marias"
  },
  {
    "description": "Nikou & Despoinas Pattichi - Dikaiarchou 2",
    "lat": 34.6863624089101,
    "lon": 33.023581179568,
    "name": "Nikou & Despoinas Pattichi - Dikaiarchou 2"
  },
  {
    "description": "Nikou & Despoinas Pattichi - Vas. Konstantinou 2",
    "lat": 34.6842149398374,
    "lon": 33.0291591222144,
    "name": "Nikou & Despoinas Pattichi - Vas. Konstantinou 2"
  },
  {
    "description": "Archiep. Leontiou A´ - Karatza 2",
    "lat": 34.6823114227731,
    "lon": 33.0320950419712,
    "name": "Archiep. Leontiou A´ - Karatza 2"
  },
  {
    "description": "Archiepiskopou Leontiou A´ - Filiou Zanettou",
    "lat": 34.6816798914142,
    "lon": 33.0331318750662,
    "name": "Archiepiskopou Leontiou A´ - Filiou Zanettou"
  },
  {
    "description": "EMEL Bus Station Leontiou A´",
    "lat": 34.6792348518186,
    "lon": 33.0372354212458,
    "name": "EMEL Bus Station Leontiou A´"
  }
]