[
  {
    "description": "Statos - Agios Fotios",
    "lat": 34.8839576750647,
    "lon": 32.6211337134259,
    "name": "Statos - Agios Fotios"
  },
  {
    "description": "2nd Stop Nea Pentalia",
    "lat": 34.8356522416193,
    "lon": 32.5964411272045,
    "name": "2nd Stop Nea Pentalia"
  },
  {
    "description": "1st Stop Nea Pentalia 2",
    "lat": 34.8378341290416,
    "lon": 32.6018005847149,
    "name": "1st Stop Nea Pentalia 2"
  },
  {
    "description": "Amargeti (Transfer)",
    "lat": 34.8251561856456,
    "lon": 32.5884985558725,
    "name": "Amargeti (Transfer)"
  },
  {
    "description": "1st Stop Amargeti 2",
    "lat": 34.822496726518,
    "lon": 32.5834160524194,
    "name": "1st Stop Amargeti 2"
  },
  {
    "description": "2nd Stop Amargeti",
    "lat": 34.8199437718237,
    "lon": 32.5831336681135,
    "name": "2nd Stop Amargeti"
  },
  {
    "description": "Eledio Community Board 2",
    "lat": 34.8089887946897,
    "lon": 32.5680353513649,
    "name": "Eledio Community Board 2"
  },
  {
    "description": "Axylou 2",
    "lat": 34.8054996639434,
    "lon": 32.5631775327644,
    "name": "Axylou 2"
  },
  {
    "description": "1st Stop Nata 1",
    "lat": 34.7816039983032,
    "lon": 32.5685497570376,
    "name": "1st Stop Nata 1"
  },
  {
    "description": "2nd Stop Nata 2",
    "lat": 34.7799423679462,
    "lon": 32.5704273382572,
    "name": "2nd Stop Nata 2"
  },
  {
    "description": "Nata Village Centre - Agios Nicolaos Church 2",
    "lat": 34.7788161037984,
    "lon": 32.5706954785515,
    "name": "Nata Village Centre - Agios Nicolaos Church 2"
  },
  {
    "description": "3rd Stop Agia Varvara Pafou 2",
    "lat": 34.7506972778589,
    "lon": 32.5127498952449,
    "name": "3rd Stop Agia Varvara Pafou 2"
  },
  {
    "description": "2nd Stop Agia Varvara Pafou 2",
    "lat": 34.7489803878972,
    "lon": 32.5096244157038,
    "name": "2nd Stop Agia Varvara Pafou 2"
  },
  {
    "description": "4th Stop Acheleia",
    "lat": 34.7345136680278,
    "lon": 32.4958044062628,
    "name": "4th Stop Acheleia"
  },
  {
    "description": "Ag. Georgios Church - Acheleia 2",
    "lat": 34.7382228312019,
    "lon": 32.4857100615028,
    "name": "Ag. Georgios Church - Acheleia 2"
  },
  {
    "description": "2nd Stop Acheleia",
    "lat": 34.7402995485645,
    "lon": 32.4799620168692,
    "name": "2nd Stop Acheleia"
  },
  {
    "description": "American Academy 2",
    "lat": 34.7449272669711,
    "lon": 32.4740445759668,
    "name": "American Academy 2"
  },
  {
    "description": "Elea Golf Club",
    "lat": 34.7475868776227,
    "lon": 32.4718208475347,
    "name": "Elea Golf Club"
  },
  {
    "description": "Archiep. Makariou C` Ave. - Ag. Sergiou 2",
    "lat": 34.7496650436112,
    "lon": 32.4686174095776,
    "name": "Archiep. Makariou C` Ave. - Ag. Sergiou 2"
  },
  {
    "description": "Archiep. Makariou C` Ave. - G. Vasileiadi",
    "lat": 34.753011603243,
    "lon": 32.4647282371788,
    "name": "Archiep. Makariou C` Ave. - G. Vasileiadi"
  },
  {
    "description": "Archiep. Makariou C` Ave. - Ag. Sergiou 2",
    "lat": 34.7564595946437,
    "lon": 32.4613734773989,
    "name": "Archiep. Makariou C` Ave. - Ag. Sergiou 2"
  },
  {
    "description": "Archiep. Makariou C` Ave. - Markou Drakou",
    "lat": 34.7577215568147,
    "lon": 32.4592237027772,
    "name": "Archiep. Makariou C` Ave. - Markou Drakou"
  },
  {
    "description": "Archiep. Makariou C` Ave. - Ippokratous",
    "lat": 34.7586955567914,
    "lon": 32.4572177929723,
    "name": "Archiep. Makariou C` Ave. - Ippokratous"
  },
  {
    "description": "Ippokratous - Tefkrou",
    "lat": 34.7582807079318,
    "lon": 32.4572095814029,
    "name": "Ippokratous - Tefkrou"
  },
  {
    "description": "Ippokratous - Agapinoros",
    "lat": 34.7558863204897,
    "lon": 32.456154484606,
    "name": "Ippokratous - Agapinoros"
  },
  {
    "description": "Ippokratous - Kozanis",
    "lat": 34.7559942364575,
    "lon": 32.4560882198715,
    "name": "Ippokratous - Kozanis"
  },
  {
    "description": "Archiep. Makariou C` Ave. - Arsinois",
    "lat": 34.7595984592426,
    "lon": 32.4554526898932,
    "name": "Archiep. Makariou C` Ave. - Arsinois"
  },
  {
    "description": "Archiep. Makariou C` Ave. - Korytsas",
    "lat": 34.7605031851966,
    "lon": 32.4520922254356,
    "name": "Archiep. Makariou C` Ave. - Korytsas"
  },
  {
    "description": "Archiep. Makariou C` Ave. - Kosta Karnavalou",
    "lat": 34.7620282607071,
    "lon": 32.450333831363,
    "name": "Archiep. Makariou C` Ave. - Kosta Karnavalou"
  },
  {
    "description": "Archiep. Makariou C` Ave. - Kyr. Partasidi",
    "lat": 34.7637497118435,
    "lon": 32.4481369780267,
    "name": "Archiep. Makariou C` Ave. - Kyr. Partasidi"
  },
  {
    "description": "A` High School - Ag. Theodoros 2",
    "lat": 34.7667249358952,
    "lon": 32.4440411799213,
    "name": "A` High School - Ag. Theodoros 2"
  },
  {
    "description": "Stelios Kyriakides Stadium",
    "lat": 34.7692365888427,
    "lon": 32.4411393633762,
    "name": "Stelios Kyriakides Stadium"
  },
  {
    "description": "Stratigou Alex. Papagou - Evzonon",
    "lat": 34.7743159110939,
    "lon": 32.4357938204752,
    "name": "Stratigou Alex. Papagou - Evzonon"
  },
  {
    "description": "Stratigou Alex. Papagou - Kritis",
    "lat": 34.7719002168216,
    "lon": 32.434072666316,
    "name": "Stratigou Alex. Papagou - Kritis"
  },
  {
    "description": "Archaeological Museum 2",
    "lat": 34.7713774580685,
    "lon": 32.430262290771,
    "name": "Archaeological Museum 2"
  },
  {
    "description": "Georg. Griva Digeni Ave. - Panikou Pastidi",
    "lat": 34.7727190556443,
    "lon": 32.4259910012814,
    "name": "Georg. Griva Digeni Ave. - Panikou Pastidi"
  },
  {
    "description": "Pafos City Hall",
    "lat": 34.7736844116156,
    "lon": 32.4241811128168,
    "name": "Pafos City Hall"
  },
  {
    "description": "Evagora Pallikaridi - Charalambou Mouskou 1",
    "lat": 34.7764438747649,
    "lon": 32.4222931057247,
    "name": "Evagora Pallikaridi - Charalambou Mouskou 1"
  },
  {
    "description": "Karavella Bus Station",
    "lat": 34.778616320876,
    "lon": 32.4221249543794,
    "name": "Karavella Bus Station"
  }
]