[
  {
    "description": "Larnaka Airport",
    "lat": 34.8710309947938,
    "lon": 33.606891856567,
    "name": "Larnaka Airport"
  },
  {
    "description": "Artemidos Ave. - Old Airport 2",
    "lat": 34.8883767824838,
    "lon": 33.6271775630317,
    "name": "Artemidos Ave. - Old Airport 2"
  },
  {
    "description": "Makenzy 2",
    "lat": 34.8915763496606,
    "lon": 33.6361650604304,
    "name": "Makenzy 2"
  },
  {
    "description": "Filopappou - Nitse 2",
    "lat": 34.8927673620808,
    "lon": 33.6343027814733,
    "name": "Filopappou - Nitse 2"
  },
  {
    "description": "Touzchane - ELDYK park",
    "lat": 34.8947757643552,
    "lon": 33.633048659962,
    "name": "Touzchane - ELDYK park"
  },
  {
    "description": "Touzchane - Saixpir",
    "lat": 34.8992738432202,
    "lon": 33.6333567989643,
    "name": "Touzchane - Saixpir"
  },
  {
    "description": "Touzchane - Onoufriou Kliridi",
    "lat": 34.9026480944544,
    "lon": 33.6347508950628,
    "name": "Touzchane - Onoufriou Kliridi"
  },
  {
    "description": "Touzchane - Sechit Ozat Ali",
    "lat": 34.9039902025888,
    "lon": 33.6350348650134,
    "name": "Touzchane - Sechit Ozat Ali"
  },
  {
    "description": "Oum Charam - Papoutsialik",
    "lat": 34.9052118827101,
    "lon": 33.6359308853095,
    "name": "Oum Charam - Papoutsialik"
  },
  {
    "description": "Istampoul",
    "lat": 34.907926598283,
    "lon": 33.6341128507713,
    "name": "Istampoul"
  },
  {
    "description": "Apolloniou Kitieos",
    "lat": 34.9093172753791,
    "lon": 33.6337294725468,
    "name": "Apolloniou Kitieos"
  },
  {
    "description": "Larnaka Community Centre",
    "lat": 34.9120294525845,
    "lon": 33.6323929153643,
    "name": "Larnaka Community Centre"
  },
  {
    "description": "Old Hospital",
    "lat": 34.9170651225385,
    "lon": 33.6298917314463,
    "name": "Old Hospital"
  },
  {
    "description": "Pancyprian Lyceum",
    "lat": 34.917629845022,
    "lon": 33.6305419493315,
    "name": "Pancyprian Lyceum"
  },
  {
    "description": "Grigori Afxentiou Ave. - Foinikoudes 2",
    "lat": 34.9178223662695,
    "lon": 33.6351304406883,
    "name": "Grigori Afxentiou Ave. - Foinikoudes 2"
  },
  {
    "description": "Archiep. Makariou C´ Ave. - Filiou Tsigaridi 1",
    "lat": 34.9187528603531,
    "lon": 33.6365279619346,
    "name": "Archiep. Makariou C´ Ave. - Filiou Tsigaridi 1"
  },
  {
    "description": "Archiep. Makariou C´ Ave. - Dimitras",
    "lat": 34.9222879264604,
    "lon": 33.6364786211071,
    "name": "Archiep. Makariou C´ Ave. - Dimitras"
  },
  {
    "description": "Archiep. Makariou C´ Ave. - Nigritis",
    "lat": 34.9259656563968,
    "lon": 33.636736941393,
    "name": "Archiep. Makariou C´ Ave. - Nigritis"
  },
  {
    "description": "Archiep. Makariou C´ Ave. - Kleov. Papakyriakou",
    "lat": 34.9283904237115,
    "lon": 33.6369089601145,
    "name": "Archiep. Makariou C´ Ave. - Kleov. Papakyriakou"
  },
  {
    "description": "Tassou Papadopoulou",
    "lat": 34.9327117968735,
    "lon": 33.638234402941,
    "name": "Tassou Papadopoulou"
  },
  {
    "description": "Intercollege 1",
    "lat": 34.9399431574488,
    "lon": 33.6417617240314,
    "name": "Intercollege 1"
  },
  {
    "description": "Ammochostou Ave. - Thetidos",
    "lat": 34.9461674095319,
    "lon": 33.6447342181427,
    "name": "Ammochostou Ave. - Thetidos"
  },
  {
    "description": "Oil and Gas Storages 1",
    "lat": 34.9503430392395,
    "lon": 33.6480086580294,
    "name": "Oil and Gas Storages 1"
  },
  {
    "description": "Ammochostou Ave. - Dafnis",
    "lat": 34.9555679119241,
    "lon": 33.6523431769861,
    "name": "Ammochostou Ave. - Dafnis"
  },
  {
    "description": "Ammochostou Ave. - Athinon 1",
    "lat": 34.9587872927012,
    "lon": 33.6556545787598,
    "name": "Ammochostou Ave. - Athinon 1"
  },
  {
    "description": "Oroklini Fire Station 1",
    "lat": 34.9617170868278,
    "lon": 33.6591391761901,
    "name": "Oroklini Fire Station 1"
  },
  {
    "description": "Ammochostou Ave. - Kalliskala 1",
    "lat": 34.9641437428232,
    "lon": 33.6622694541844,
    "name": "Ammochostou Ave. - Kalliskala 1"
  },
  {
    "description": "Ammochostou Ave. - Galaxia 1",
    "lat": 34.9679861487431,
    "lon": 33.6670216298259,
    "name": "Ammochostou Ave. - Galaxia 1"
  },
  {
    "description": "Princess Beach Hotel 1",
    "lat": 34.9697600402302,
    "lon": 33.6691173485713,
    "name": "Princess Beach Hotel 1"
  },
  {
    "description": "Akropoleos Ave. - Ithakis",
    "lat": 34.9738980258788,
    "lon": 33.6758006653445,
    "name": "Akropoleos Ave. - Ithakis"
  },
  {
    "description": "Akropoleos Ave. - Kantaras",
    "lat": 34.9756647815467,
    "lon": 33.6807559723753,
    "name": "Akropoleos Ave. - Kantaras"
  },
  {
    "description": "Pyla Beach Park 1",
    "lat": 34.9774279899023,
    "lon": 33.6863030546131,
    "name": "Pyla Beach Park 1"
  },
  {
    "description": "Akropoleos Ave. - Lordos - Sandy - Golden Bay",
    "lat": 34.978150542462,
    "lon": 33.6908665793858,
    "name": "Akropoleos Ave. - Lordos - Sandy - Golden Bay"
  },
  {
    "description": "Dasaki Pylas Beach 1",
    "lat": 34.9791648261302,
    "lon": 33.6964186578063,
    "name": "Dasaki Pylas Beach 1"
  },
  {
    "description": "K.O.T. Beach 1",
    "lat": 34.9795098220434,
    "lon": 33.6991495465459,
    "name": "K.O.T. Beach 1"
  },
  {
    "description": "Larnaka - Dekeleia Ave. - 1st Stop",
    "lat": 34.9797626880691,
    "lon": 33.7022083432584,
    "name": "Larnaka - Dekeleia Ave. - 1st Stop"
  },
  {
    "description": "Dekeleia Garrison",
    "lat": 34.9835708562098,
    "lon": 33.7201871519167,
    "name": "Dekeleia Garrison"
  },
  {
    "description": "Dekeleia Customs Office 2",
    "lat": 34.9819014934073,
    "lon": 33.7264393615085,
    "name": "Dekeleia Customs Office 2"
  },
  {
    "description": "EAC Dekeleia Roundabout 1",
    "lat": 34.9837549724442,
    "lon": 33.7390663544524,
    "name": "EAC Dekeleia Roundabout 1"
  },
  {
    "description": "Dekeleia Power Station 1",
    "lat": 34.9818950086295,
    "lon": 33.7438921819222,
    "name": "Dekeleia Power Station 1"
  }
]