[
  {
    "description": "Avdimou Health Centre ",
    "lat": 34.6953142244578,
    "lon": 32.762874684271,
    "name": "Avdimou Health Centre "
  },
  {
    "description": "Agios Thomas 1",
    "lat": 34.7162381496407,
    "lon": 32.7254211306323,
    "name": "Agios Thomas 1"
  },
  {
    "description": "Platanisteia - Hambis Printmaking Museum 1",
    "lat": 34.7120277225525,
    "lon": 32.7102336582937,
    "name": "Platanisteia - Hambis Printmaking Museum 1"
  },
  {
    "description": "2nd Alektora 1",
    "lat": 34.7105085355499,
    "lon": 32.6831892985545,
    "name": "2nd Alektora 1"
  },
  {
    "description": "1st Alektora",
    "lat": 34.6975864930289,
    "lon": 32.6731388247315,
    "name": "1st Alektora"
  }
]