[
  {
    "description": "Onasagorou - Mpoumpoulinas 1",
    "lat": 34.8630018394265,
    "lon": 33.5836832022205,
    "name": "Onasagorou - Mpoumpoulinas 1"
  },
  {
    "description": "Agiou Panteleimonos Ave. - Grigori Afxentiou",
    "lat": 34.8636542102182,
    "lon": 33.5867839414686,
    "name": "Agiou Panteleimonos Ave. - Grigori Afxentiou"
  },
  {
    "description": "Ermou - Antistaseos",
    "lat": 34.8696773059322,
    "lon": 33.5850323741532,
    "name": "Ermou - Antistaseos"
  },
  {
    "description": "25 Martiou Ave. - Antistaseos",
    "lat": 34.872952447642,
    "lon": 33.5827797171793,
    "name": "25 Martiou Ave. - Antistaseos"
  },
  {
    "description": "Artemidos - Vyzantiou",
    "lat": 34.8726287686417,
    "lon": 33.5863334460537,
    "name": "Artemidos - Vyzantiou"
  },
  {
    "description": "Dimokratias - Stadiou",
    "lat": 34.8735549175714,
    "lon": 33.5906072840172,
    "name": "Dimokratias - Stadiou"
  },
  {
    "description": "Timiou Prodromou - Omonoias",
    "lat": 34.8764018492077,
    "lon": 33.5929911338116,
    "name": "Timiou Prodromou - Omonoias"
  },
  {
    "description": "Timiou Prodromou - Dromolaxia - Airport Road 2",
    "lat": 34.8767401417597,
    "lon": 33.5975673676746,
    "name": "Timiou Prodromou - Dromolaxia - Airport Road 2"
  },
  {
    "description": "Larnaka Airport",
    "lat": 34.8710309947938,
    "lon": 33.606891856567,
    "name": "Larnaka Airport"
  },
  {
    "description": "Artemidos Ave. - Old Airport 2",
    "lat": 34.8883767824838,
    "lon": 33.6271775630317,
    "name": "Artemidos Ave. - Old Airport 2"
  },
  {
    "description": "Artemidos Ave. - Tasou Mitsopoulou Ave. 2",
    "lat": 34.8909296621304,
    "lon": 33.6304801550493,
    "name": "Artemidos Ave. - Tasou Mitsopoulou Ave. 2"
  },
  {
    "description": "Artemidos Ave. - Touzchane 2",
    "lat": 34.894864432719,
    "lon": 33.6316046671899,
    "name": "Artemidos Ave. - Touzchane 2"
  },
  {
    "description": "Larnaka Courthouse 2",
    "lat": 34.8992905675737,
    "lon": 33.630139073783,
    "name": "Larnaka Courthouse 2"
  },
  {
    "description": "Artemidos Ave. - Patticheion",
    "lat": 34.903988786381,
    "lon": 33.6301092877614,
    "name": "Artemidos Ave. - Patticheion"
  },
  {
    "description": "Artemidos Ave. - Okkoular 2",
    "lat": 34.9082938820796,
    "lon": 33.6293759375634,
    "name": "Artemidos Ave. - Okkoular 2"
  },
  {
    "description": "Artemidos Ave. - Faneromenis Ave.",
    "lat": 34.9104056241766,
    "lon": 33.6290527100655,
    "name": "Artemidos Ave. - Faneromenis Ave."
  },
  {
    "description": "Artemidos Ave. - Old G.S.Z. 2",
    "lat": 34.9127267380276,
    "lon": 33.6283479229143,
    "name": "Artemidos Ave. - Old G.S.Z. 2"
  },
  {
    "description": "Pancyprian Lyceum",
    "lat": 34.917629845022,
    "lon": 33.6305419493315,
    "name": "Pancyprian Lyceum"
  },
  {
    "description": "Grigori Afxentiou Ave. - Foinikoudes 2",
    "lat": 34.9178223662695,
    "lon": 33.6351304406883,
    "name": "Grigori Afxentiou Ave. - Foinikoudes 2"
  },
  {
    "description": "Archiep. Makariou C´ Ave. - Filiou Tsigaridi 1",
    "lat": 34.9187528603531,
    "lon": 33.6365279619346,
    "name": "Archiep. Makariou C´ Ave. - Filiou Tsigaridi 1"
  },
  {
    "description": "Larnaca Station",
    "lat": 34.9192327751747,
    "lon": 33.6378672895804,
    "name": "Larnaca Station"
  }
]