[
  {
    "description": "B´ Trachoni Elementary School",
    "lat": 34.6574583740088,
    "lon": 32.9693442000963,
    "name": "B´ Trachoni Elementary School"
  },
  {
    "description": "Pentadaktylou 2",
    "lat": 34.65852217846,
    "lon": 32.9681214896371,
    "name": "Pentadaktylou 2"
  },
  {
    "description": "Dimokratias - Lefkonoikou 2",
    "lat": 34.6598470571844,
    "lon": 32.9653379801874,
    "name": "Dimokratias - Lefkonoikou 2"
  },
  {
    "description": "Lefkonoikou 2",
    "lat": 34.6591340553567,
    "lon": 32.9633410808987,
    "name": "Lefkonoikou 2"
  },
  {
    "description": "A´ Trachoni Elementary School",
    "lat": 34.6592688897235,
    "lon": 32.9619222460089,
    "name": "A´ Trachoni Elementary School"
  },
  {
    "description": "Ammochostou - Apostolou Varnava",
    "lat": 34.6607020164389,
    "lon": 32.95966242444,
    "name": "Ammochostou - Apostolou Varnava"
  },
  {
    "description": "Archiep. Makariou C´ - Agiou Panteleimonos 2",
    "lat": 34.6588973316099,
    "lon": 32.9564765250939,
    "name": "Archiep. Makariou C´ - Agiou Panteleimonos 2"
  },
  {
    "description": "Agiou Mamantos - Agiou Rafail 2",
    "lat": 34.6571392431758,
    "lon": 32.9576451756715,
    "name": "Agiou Mamantos - Agiou Rafail 2"
  },
  {
    "description": "Agios Mamas Church 2",
    "lat": 34.657501096339,
    "lon": 32.9610499804706,
    "name": "Agios Mamas Church 2"
  },
  {
    "description": "Griva Digeni - Ethnikis Antistaseos",
    "lat": 34.6552391214127,
    "lon": 32.9661802095772,
    "name": "Griva Digeni - Ethnikis Antistaseos"
  },
  {
    "description": "Konstantinou kai Evripidou Ave. - Griva Digeni 2",
    "lat": 34.6546897858073,
    "lon": 32.9690396538454,
    "name": "Konstantinou kai Evripidou Ave. - Griva Digeni 2"
  },
  {
    "description": "Konstantinou kai Evripidi Ave. - Flamoudiou",
    "lat": 34.6534731986507,
    "lon": 32.9725322337056,
    "name": "Konstantinou kai Evripidi Ave. - Flamoudiou"
  },
  {
    "description": "Fragklinou Rousvelt - Andrea Iordanous",
    "lat": 34.6573810646342,
    "lon": 32.9993888489748,
    "name": "Fragklinou Rousvelt - Andrea Iordanous"
  },
  {
    "description": "16 Elementary School - Zakaki 2",
    "lat": 34.6585082893475,
    "lon": 33.0022372795802,
    "name": "16 Elementary School - Zakaki 2"
  },
  {
    "description": "Fragklinou Rousvelt - Oinouson 2",
    "lat": 34.6595362714255,
    "lon": 33.0045400965739,
    "name": "Fragklinou Rousvelt - Oinouson 2"
  },
  {
    "description": "Fragklinou Rousvelt - Pierias",
    "lat": 34.6602935894571,
    "lon": 33.0081744309292,
    "name": "Fragklinou Rousvelt - Pierias"
  },
  {
    "description": "Fragklinou Rousvelt - Saronikou",
    "lat": 34.6614294023094,
    "lon": 33.013271353294,
    "name": "Fragklinou Rousvelt - Saronikou"
  },
  {
    "description": "Fragklinou Rousvelt - New Port Traffic Lights",
    "lat": 34.6635480288833,
    "lon": 33.0178884059459,
    "name": "Fragklinou Rousvelt - New Port Traffic Lights"
  },
  {
    "description": "Fragklinou Rousvelt - Galilaiou",
    "lat": 34.6659910008168,
    "lon": 33.0231715682533,
    "name": "Fragklinou Rousvelt - Galilaiou"
  },
  {
    "description": "Department of Lands and Surveys 2",
    "lat": 34.668515864309,
    "lon": 33.0239908865553,
    "name": "Department of Lands and Surveys 2"
  },
  {
    "description": "Dimokratias - Pragas",
    "lat": 34.6712575762628,
    "lon": 33.0226272731857,
    "name": "Dimokratias - Pragas"
  },
  {
    "description": "Dimokratias - Artemidos",
    "lat": 34.67235784776,
    "lon": 33.0221691266413,
    "name": "Dimokratias - Artemidos"
  },
  {
    "description": "Misiaouli kai Kavazoglou - Ippokratous",
    "lat": 34.6738546243294,
    "lon": 33.0232392514133,
    "name": "Misiaouli kai Kavazoglou - Ippokratous"
  },
  {
    "description": "D´ Elementary School",
    "lat": 34.6744131686009,
    "lon": 33.0260447280247,
    "name": "D´ Elementary School"
  },
  {
    "description": "Misiaouli kai Kavazoglou - Palaipafou",
    "lat": 34.6742317224524,
    "lon": 33.0307165567819,
    "name": "Misiaouli kai Kavazoglou - Palaipafou"
  },
  {
    "description": "Gilntiz - Mpemper Mechmet",
    "lat": 34.6742396868872,
    "lon": 33.0346461834065,
    "name": "Gilntiz - Mpemper Mechmet"
  },
  {
    "description": "Navarinou - Simou Menardou 2",
    "lat": 34.6762315191909,
    "lon": 33.0384129923283,
    "name": "Navarinou - Simou Menardou 2"
  },
  {
    "description": "EMEL Bus Station Leontiou A´",
    "lat": 34.6792348518186,
    "lon": 33.0372354212458,
    "name": "EMEL Bus Station Leontiou A´"
  }
]