[
  {
    "description": "Stavrou Stylianidi - Panteli Katelari",
    "lat": 35.0530675403759,
    "lon": 33.2426946110551,
    "name": "Stavrou Stylianidi - Panteli Katelari"
  },
  {
    "description": "Agiou Ilarionos - Dikomou",
    "lat": 35.0531741966494,
    "lon": 33.2389336672024,
    "name": "Agiou Ilarionos - Dikomou"
  },
  {
    "description": "Markou Drakou",
    "lat": 35.0541740041373,
    "lon": 33.2440247589294,
    "name": "Markou Drakou"
  },
  {
    "description": "Agias Paraskevis Ave. - Chatzipieri Efthymiou",
    "lat": 35.0557392016148,
    "lon": 33.2459155866161,
    "name": "Agias Paraskevis Ave. - Chatzipieri Efthymiou"
  },
  {
    "description": "Ergates Public Kindergarden",
    "lat": 35.057126526223,
    "lon": 33.2465777238505,
    "name": "Ergates Public Kindergarden"
  },
  {
    "description": "Archiep. Makariou C´ Ave. - 3rd Ergates",
    "lat": 35.0602183341366,
    "lon": 33.2471353548554,
    "name": "Archiep. Makariou C´ Ave. - 3rd Ergates"
  },
  {
    "description": "Archiep. Makariou C´ Ave. - 1st Ergates 2",
    "lat": 35.0622911869414,
    "lon": 33.2476899508999,
    "name": "Archiep. Makariou C´ Ave. - 1st Ergates 2"
  },
  {
    "description": "Archiep. Makariou C´ Ave. - 1st Ergates",
    "lat": 35.0647985007716,
    "lon": 33.2474452760026,
    "name": "Archiep. Makariou C´ Ave. - 1st Ergates"
  },
  {
    "description": "Archiepiskopou Makariou C - Michail Karaoli",
    "lat": 35.0744269093729,
    "lon": 33.2484615134784,
    "name": "Archiepiskopou Makariou C - Michail Karaoli"
  }
]