[
  {
    "description": "Dimokratias - Ethnikis Antistaseos",
    "lat": 34.6924713855958,
    "lon": 32.9211937770616,
    "name": "Dimokratias - Ethnikis Antistaseos"
  },
  {
    "description": "Kyprou - Ammochostou 2",
    "lat": 34.6927471746892,
    "lon": 32.9155707213527,
    "name": "Kyprou - Ammochostou 2"
  },
  {
    "description": "Kyprou - Keryneias 2",
    "lat": 34.690754357032,
    "lon": 32.9157692649862,
    "name": "Kyprou - Keryneias 2"
  },
  {
    "description": "Kyprou - Dimokratias 2",
    "lat": 34.685749906133,
    "lon": 32.9164730299914,
    "name": "Kyprou - Dimokratias 2"
  },
  {
    "description": "Kyprou - Salaminos 2",
    "lat": 34.6832247141171,
    "lon": 32.9162135628357,
    "name": "Kyprou - Salaminos 2"
  },
  {
    "description": "Ellados - Enoseos 1",
    "lat": 34.6823538521537,
    "lon": 32.9220548654075,
    "name": "Ellados - Enoseos 1"
  },
  {
    "description": "Ellados - Irlandias 1",
    "lat": 34.6859172732647,
    "lon": 32.9241912874337,
    "name": "Ellados - Irlandias 1"
  },
  {
    "description": "Gallias - Club Aphrodite",
    "lat": 34.6876127874361,
    "lon": 32.924429924074,
    "name": "Gallias - Club Aphrodite"
  },
  {
    "description": "Ellados - Irlandias 2",
    "lat": 34.6857189744195,
    "lon": 32.9243443079387,
    "name": "Ellados - Irlandias 2"
  },
  {
    "description": "Ellados - Enoseos 2",
    "lat": 34.6823088254154,
    "lon": 32.9221531576967,
    "name": "Ellados - Enoseos 2"
  },
  {
    "description": "Agios Charalampos Church 2",
    "lat": 34.678673757881,
    "lon": 32.9208356992803,
    "name": "Agios Charalampos Church 2"
  },
  {
    "description": "Archiep. Makariou C - Pafou",
    "lat": 34.6741751549812,
    "lon": 32.9229248612639,
    "name": "Archiep. Makariou C - Pafou"
  },
  {
    "description": "Kolossi Elementary School A´ 2",
    "lat": 34.6708448891661,
    "lon": 32.9337557982178,
    "name": "Kolossi Elementary School A´ 2"
  },
  {
    "description": "Griva Digeni - Galilaiou",
    "lat": 34.6731271632649,
    "lon": 32.9351293309064,
    "name": "Griva Digeni - Galilaiou"
  },
  {
    "description": "Griva Digeni - Agiou Epiktitou.",
    "lat": 34.6779883226685,
    "lon": 32.9360752421941,
    "name": "Griva Digeni - Agiou Epiktitou."
  },
  {
    "description": "Georgiou Griva Digeni - Agias Sofias",
    "lat": 34.6811358135487,
    "lon": 32.9365313174707,
    "name": "Georgiou Griva Digeni - Agias Sofias"
  },
  {
    "description": "Dimitri Liperti - Griva Digeni 2",
    "lat": 34.6829489711092,
    "lon": 32.9376106934239,
    "name": "Dimitri Liperti - Griva Digeni 2"
  },
  {
    "description": "Citizen Service Centre",
    "lat": 34.6829862483706,
    "lon": 32.9400123543128,
    "name": "Citizen Service Centre"
  },
  {
    "description": "Ammochostou - Apostolou Andreou",
    "lat": 34.6800293873684,
    "lon": 32.9421104315828,
    "name": "Ammochostou - Apostolou Andreou"
  },
  {
    "description": "Ammochostou - Ag. Foteini & Ap. Andreas Church 2",
    "lat": 34.6792359661178,
    "lon": 32.9424384719939,
    "name": "Ammochostou - Ag. Foteini & Ap. Andreas Church 2"
  },
  {
    "description": "Ammochostou - Agiou Georgiou Ave.",
    "lat": 34.6770359379669,
    "lon": 32.9431713653496,
    "name": "Ammochostou - Agiou Georgiou Ave."
  },
  {
    "description": "Agiou Georgiou Ave. - Agiou Vichianou",
    "lat": 34.6834250225223,
    "lon": 32.9535598184541,
    "name": "Agiou Georgiou Ave. - Agiou Vichianou"
  },
  {
    "description": "Agiou Georgiou Ave. - Kassianou",
    "lat": 34.6842292357911,
    "lon": 32.958024394481,
    "name": "Agiou Georgiou Ave. - Kassianou"
  },
  {
    "description": "Agiou Georgiou Ave. - Kassianou",
    "lat": 34.6840587978197,
    "lon": 32.9607318740582,
    "name": "Agiou Georgiou Ave. - Kassianou"
  },
  {
    "description": "Agios Georgios Church 2",
    "lat": 34.6840776199816,
    "lon": 32.9632536718684,
    "name": "Agios Georgios Church 2"
  },
  {
    "description": "Ilia Kannaourou - Kronou",
    "lat": 34.6833482936683,
    "lon": 32.96719496485,
    "name": "Ilia Kannaourou - Kronou"
  },
  {
    "description": "Ilia Kannaourou - Aigyptou",
    "lat": 34.6825733542023,
    "lon": 32.9695096140556,
    "name": "Ilia Kannaourou - Aigyptou"
  },
  {
    "description": "Ilia Kannaourou - Akanthous",
    "lat": 34.6819071194171,
    "lon": 32.9742367580326,
    "name": "Ilia Kannaourou - Akanthous"
  },
  {
    "description": "Ilia Kannaourou - Oresti",
    "lat": 34.6814210044456,
    "lon": 32.9786472004348,
    "name": "Ilia Kannaourou - Oresti"
  },
  {
    "description": "Ilia Kannaourou - Kyparissona",
    "lat": 34.6809167627678,
    "lon": 32.9835597539281,
    "name": "Ilia Kannaourou - Kyparissona"
  },
  {
    "description": "Ilia Kannaourou - 9 Street",
    "lat": 34.6811517660152,
    "lon": 32.9881992322345,
    "name": "Ilia Kannaourou - 9 Street"
  },
  {
    "description": "Pafou - Monovolikos 2",
    "lat": 34.6795920652345,
    "lon": 32.9935157033909,
    "name": "Pafou - Monovolikos 2"
  },
  {
    "description": "Pafou - 28 Elementary School 2",
    "lat": 34.6779870140949,
    "lon": 32.9971181459976,
    "name": "Pafou - 28 Elementary School 2"
  },
  {
    "description": "Pafou - Christou Keli",
    "lat": 34.6758768063371,
    "lon": 33.0034275727436,
    "name": "Pafou - Christou Keli"
  },
  {
    "description": "Pafou - Omonoias Ave.",
    "lat": 34.6760209945225,
    "lon": 33.0059818889107,
    "name": "Pafou - Omonoias Ave."
  },
  {
    "description": "Pafou - Evgeniou Voulgareos",
    "lat": 34.6757772831842,
    "lon": 33.0095513457284,
    "name": "Pafou - Evgeniou Voulgareos"
  },
  {
    "description": "Pafou - Dimosthenous",
    "lat": 34.6749834247207,
    "lon": 33.0126404032058,
    "name": "Pafou - Dimosthenous"
  },
  {
    "description": "Pafou - Vasileos Pavlou A´ 2",
    "lat": 34.6739729552189,
    "lon": 33.0165043674397,
    "name": "Pafou - Vasileos Pavlou A´ 2"
  },
  {
    "description": "Agios Ioannis Police Station 2",
    "lat": 34.67454972814,
    "lon": 33.0190696625303,
    "name": "Agios Ioannis Police Station 2"
  },
  {
    "description": "Archiep. Makariou C´ Ave. - Souez 2",
    "lat": 34.6762176885773,
    "lon": 33.0212204734455,
    "name": "Archiep. Makariou C´ Ave. - Souez 2"
  },
  {
    "description": "Archiep. Makariou C´ Ave. - Vyzantiou",
    "lat": 34.6788863567926,
    "lon": 33.0246051858907,
    "name": "Archiep. Makariou C´ Ave. - Vyzantiou"
  },
  {
    "description": "Archiep. Makariou C´ Ave. - Fire Station 2",
    "lat": 34.681518858102,
    "lon": 33.0279901033579,
    "name": "Archiep. Makariou C´ Ave. - Fire Station 2"
  },
  {
    "description": "Archiep. Leontiou A´ - Karatza 2",
    "lat": 34.6823114227731,
    "lon": 33.0320950419712,
    "name": "Archiep. Leontiou A´ - Karatza 2"
  },
  {
    "description": "Archiepiskopou Leontiou A´ - Filiou Zanettou",
    "lat": 34.6816798914142,
    "lon": 33.0331318750662,
    "name": "Archiepiskopou Leontiou A´ - Filiou Zanettou"
  },
  {
    "description": "EMEL Bus Station Leontiou A´",
    "lat": 34.6792348518186,
    "lon": 33.0372354212458,
    "name": "EMEL Bus Station Leontiou A´"
  }
]