[
  {
    "description": "Gernan Oncology Hospital 2",
    "lat": 34.72880575589,
    "lon": 33.0606433279323,
    "name": "Gernan Oncology Hospital 2"
  },
  {
    "description": "Agios Athanasios Cemetery 2",
    "lat": 34.7143923263145,
    "lon": 33.0662133809185,
    "name": "Agios Athanasios Cemetery 2"
  },
  {
    "description": "Charalampou Evagorou - Inomenon Ethnon",
    "lat": 34.7127701924395,
    "lon": 33.0641917624653,
    "name": "Charalampou Evagorou - Inomenon Ethnon"
  },
  {
    "description": "Charalampou Evagorou - Agiou Athanasiou",
    "lat": 34.7111488058603,
    "lon": 33.0606195173059,
    "name": "Charalampou Evagorou - Agiou Athanasiou"
  },
  {
    "description": "Anoikodomiseos - Monemvasias",
    "lat": 34.7104280480221,
    "lon": 33.0592539449908,
    "name": "Anoikodomiseos - Monemvasias"
  },
  {
    "description": "Anoikodomiseos - Aretis 2",
    "lat": 34.7093918355048,
    "lon": 33.0574950481095,
    "name": "Anoikodomiseos - Aretis 2"
  },
  {
    "description": "Anoikodomiseos - Machiton Eldyk",
    "lat": 34.7088879002557,
    "lon": 33.0551905436369,
    "name": "Anoikodomiseos - Machiton Eldyk"
  },
  {
    "description": "Charalampou Fteroudi - Agiou Mina",
    "lat": 34.7086008749551,
    "lon": 33.0516631503391,
    "name": "Charalampou Fteroudi - Agiou Mina"
  },
  {
    "description": "Renatou Kartesiou - Mersinakiou 2",
    "lat": 34.7071953710241,
    "lon": 33.0485391715176,
    "name": "Renatou Kartesiou - Mersinakiou 2"
  },
  {
    "description": "14 Elementary School - Mesa Geitonia",
    "lat": 34.701911384342,
    "lon": 33.0472912906282,
    "name": "14 Elementary School - Mesa Geitonia"
  },
  {
    "description": "Archiep. Makariou C´ Ave. - Grigori Afxentiou",
    "lat": 34.6996484669944,
    "lon": 33.0457941061496,
    "name": "Archiep. Makariou C´ Ave. - Grigori Afxentiou"
  },
  {
    "description": "Markou Drakou - Dimitriou Charalampous 2",
    "lat": 34.7001989833944,
    "lon": 33.0446479114348,
    "name": "Markou Drakou - Dimitriou Charalampous 2"
  },
  {
    "description": "Markou Drakou - Avraam Linkoln",
    "lat": 34.7018043653975,
    "lon": 33.0441028118013,
    "name": "Markou Drakou - Avraam Linkoln"
  },
  {
    "description": "Markou Drakou - Feidonos 2",
    "lat": 34.7025802896409,
    "lon": 33.0430222087096,
    "name": "Markou Drakou - Feidonos 2"
  },
  {
    "description": "Kalogeropoulos High School 2",
    "lat": 34.7029419344527,
    "lon": 33.0403034680062,
    "name": "Kalogeropoulos High School 2"
  },
  {
    "description": "Kosti Palama - Eresou 2",
    "lat": 34.702031666051,
    "lon": 33.0386432976159,
    "name": "Kosti Palama - Eresou 2"
  },
  {
    "description": "Kosti Palama - Filopappou 2",
    "lat": 34.6995966348956,
    "lon": 33.0392754646528,
    "name": "Kosti Palama - Filopappou 2"
  },
  {
    "description": "Kosti Palama - Str. Alexandrou Papagou 2",
    "lat": 34.6951232633795,
    "lon": 33.0407910035964,
    "name": "Kosti Palama - Str. Alexandrou Papagou 2"
  },
  {
    "description": "Kosti Palama - Michail Georgalla 2",
    "lat": 34.6937344235062,
    "lon": 33.0410414403294,
    "name": "Kosti Palama - Michail Georgalla 2"
  },
  {
    "description": "Agios Nektarios Church",
    "lat": 34.6918767553682,
    "lon": 33.0409859336905,
    "name": "Agios Nektarios Church"
  },
  {
    "description": "12 Elementary School - Laniteio",
    "lat": 34.6909573313067,
    "lon": 33.0397736030073,
    "name": "12 Elementary School - Laniteio"
  },
  {
    "description": "Kritis - Vasileiou Tou Megalou 2",
    "lat": 34.6900830568523,
    "lon": 33.038332048366,
    "name": "Kritis - Vasileiou Tou Megalou 2"
  },
  {
    "description": "Laniteio Lyceum 1",
    "lat": 34.6877117004736,
    "lon": 33.0371955468095,
    "name": "Laniteio Lyceum 1"
  },
  {
    "description": "Ioanni Tsirou - Post Office 2",
    "lat": 34.6858454381703,
    "lon": 33.035709980505,
    "name": "Ioanni Tsirou - Post Office 2"
  },
  {
    "description": "Dodekanisou - Katholiki High School 2",
    "lat": 34.6834830673247,
    "lon": 33.034595449124,
    "name": "Dodekanisou - Katholiki High School 2"
  },
  {
    "description": "Dodekanisou - Archiepiskopou Leontiou A´ 2",
    "lat": 34.6805069084406,
    "lon": 33.0354566103523,
    "name": "Dodekanisou - Archiepiskopou Leontiou A´ 2"
  },
  {
    "description": "EMEL Bus Station Leontiou A´",
    "lat": 34.6792348518186,
    "lon": 33.0372354212458,
    "name": "EMEL Bus Station Leontiou A´"
  }
]