[
  {
    "description": "Archiepiskopou Makariou C Avenue 1",
    "lat": 34.9906034472674,
    "lon": 32.9066863449739,
    "name": "Archiepiskopou Makariou C Avenue 1"
  },
  {
    "description": "Lefkosias - Troodous - Droseri Potamia 1",
    "lat": 34.9691684842322,
    "lon": 32.9186073461989,
    "name": "Lefkosias - Troodous - Droseri Potamia 1"
  },
  {
    "description": "Distrato Spilion",
    "lat": 34.9633482921503,
    "lon": 32.9266203443388,
    "name": "Distrato Spilion"
  },
  {
    "description": "Platania - Forest Station 1",
    "lat": 34.9496512633479,
    "lon": 32.9275525191135,
    "name": "Platania - Forest Station 1"
  },
  {
    "description": "Archiepiskopou Makariou C´ Avenue - Karvounas 1",
    "lat": 34.9424213734973,
    "lon": 32.9312712798999,
    "name": "Archiepiskopou Makariou C´ Avenue - Karvounas 1"
  },
  {
    "description": "Archiep. Makariou C´ Ave. - 12th Kyperounta",
    "lat": 34.949129420956,
    "lon": 32.9473431147341,
    "name": "Archiep. Makariou C´ Ave. - 12th Kyperounta"
  },
  {
    "description": "Archiep. Makariou C´ Ave. - 11th Kyperounta 2",
    "lat": 34.9499960183095,
    "lon": 32.9495001135699,
    "name": "Archiep. Makariou C´ Ave. - 11th Kyperounta 2"
  },
  {
    "description": "Kyperounta Hospital",
    "lat": 34.950619411433,
    "lon": 32.9524349017202,
    "name": "Kyperounta Hospital"
  },
  {
    "description": "Archiep. Makariou C´ Ave. - 9th Kyperounta 2",
    "lat": 34.9420108335886,
    "lon": 32.9613211211968,
    "name": "Archiep. Makariou C´ Ave. - 9th Kyperounta 2"
  },
  {
    "description": "Archiep. Makariou C´ Ave. - 7th Kyperounta 1",
    "lat": 34.941219112353,
    "lon": 32.9675415923505,
    "name": "Archiep. Makariou C´ Ave. - 7th Kyperounta 1"
  },
  {
    "description": "Archiep. Makariou C´ Ave. - 7th Kyperounta 2",
    "lat": 34.9413365168504,
    "lon": 32.9682095506847,
    "name": "Archiep. Makariou C´ Ave. - 7th Kyperounta 2"
  },
  {
    "description": "Grigori Afxentiou - 6th Kyperounta",
    "lat": 34.9393349621421,
    "lon": 32.9695243985513,
    "name": "Grigori Afxentiou - 6th Kyperounta"
  },
  {
    "description": "1 Apriliou - 5th Kyperounta 1",
    "lat": 34.9386868956006,
    "lon": 32.9747370967164,
    "name": "1 Apriliou - 5th Kyperounta 1"
  },
  {
    "description": "Georgiou Charalampous - 4th Kyperounta 2",
    "lat": 34.9404091312028,
    "lon": 32.9741999807552,
    "name": "Georgiou Charalampous - 4th Kyperounta 2"
  },
  {
    "description": "Stylianou Lena - 3rd Kyperounta 1",
    "lat": 34.9418160011267,
    "lon": 32.9748456467083,
    "name": "Stylianou Lena - 3rd Kyperounta 1"
  },
  {
    "description": "Stylianou Lena - 2nd Kyperounta 2",
    "lat": 34.9427454872926,
    "lon": 32.9783825625439,
    "name": "Stylianou Lena - 2nd Kyperounta 2"
  },
  {
    "description": "Stylianou Lena - Cyta 2",
    "lat": 34.9445490979587,
    "lon": 32.9789844119253,
    "name": "Stylianou Lena - Cyta 2"
  },
  {
    "description": "Kyperounda Winery 1",
    "lat": 34.944414307376,
    "lon": 32.9819193959345,
    "name": "Kyperounda Winery 1"
  },
  {
    "description": "Georgiou Griva Digeni Ave. - 3rd Chandria 1",
    "lat": 34.9444873843057,
    "lon": 32.9900343038382,
    "name": "Georgiou Griva Digeni Ave. - 3rd Chandria 1"
  },
  {
    "description": "Georgiou Griva Digeni Ave. - 2nd Chandria 1",
    "lat": 34.9435317670774,
    "lon": 32.9936045065459,
    "name": "Georgiou Griva Digeni Ave. - 2nd Chandria 1"
  },
  {
    "description": "Chandria Square 2",
    "lat": 34.9419176399911,
    "lon": 32.9938017493779,
    "name": "Chandria Square 2"
  }
]