[
  {
    "description": "Archiepiskopou Makariou C Avenue 1",
    "lat": 34.9906034472674,
    "lon": 32.9066863449739,
    "name": "Archiepiskopou Makariou C Avenue 1"
  },
  {
    "description": "Lefkosias - Troodous - Droseri Potamia 1",
    "lat": 34.9691684842322,
    "lon": 32.9186073461989,
    "name": "Lefkosias - Troodous - Droseri Potamia 1"
  },
  {
    "description": "Distrato Spilion",
    "lat": 34.9633482921503,
    "lon": 32.9266203443388,
    "name": "Distrato Spilion"
  },
  {
    "description": "Platania - Forest Station 1",
    "lat": 34.9496512633479,
    "lon": 32.9275525191135,
    "name": "Platania - Forest Station 1"
  },
  {
    "description": "Lefkosias - Troodous - Karvounas 1",
    "lat": 34.9417082387721,
    "lon": 32.9299577618315,
    "name": "Lefkosias - Troodous - Karvounas 1"
  },
  {
    "description": "Troodos Camping Site 1",
    "lat": 34.9311673134329,
    "lon": 32.883672071618,
    "name": "Troodos Camping Site 1"
  },
  {
    "description": "Troodos Square",
    "lat": 34.9237254138149,
    "lon": 32.8811644088428,
    "name": "Troodos Square"
  }
]