[
  {
    "description": "Old Agios Georgios Church",
    "lat": 34.9766738216939,
    "lon": 33.2551007919218,
    "name": "Old Agios Georgios Church"
  },
  {
    "description": "Agios Georgios Church",
    "lat": 34.9740550739559,
    "lon": 33.2525510630361,
    "name": "Agios Georgios Church"
  },
  {
    "description": "Archiep. Makariou C´ Ave. - Machaira",
    "lat": 34.9747534982591,
    "lon": 33.2505812520187,
    "name": "Archiep. Makariou C´ Ave. - Machaira"
  },
  {
    "description": "Grigori Afxentiou Ave. - Agiou Ioanni",
    "lat": 35.0047177833814,
    "lon": 33.2552097311352,
    "name": "Grigori Afxentiou Ave. - Agiou Ioanni"
  },
  {
    "description": "Kampia Elementary School",
    "lat": 35.0073575324682,
    "lon": 33.2563248537493,
    "name": "Kampia Elementary School"
  },
  {
    "description": "Ethnom. Archiep. Kyprianou - Panteli Katelari",
    "lat": 35.00886324291,
    "lon": 33.2564172294841,
    "name": "Ethnom. Archiep. Kyprianou - Panteli Katelari"
  },
  {
    "description": "Grigori Afxentiou Ave. - Makedonias 2",
    "lat": 35.0266712297898,
    "lon": 33.2570538235166,
    "name": "Grigori Afxentiou Ave. - Makedonias 2"
  },
  {
    "description": "Grigori Afxentiou Ave. - Dimokratias 2",
    "lat": 35.0318593076294,
    "lon": 33.255590072468,
    "name": "Grigori Afxentiou Ave. - Dimokratias 2"
  },
  {
    "description": "Michalaki Karaoli - Kythreas 1",
    "lat": 35.036431909922,
    "lon": 33.2552096224333,
    "name": "Michalaki Karaoli - Kythreas 1"
  },
  {
    "description": "Michalaki Karaoli - Pentadaktylou",
    "lat": 35.0372510985976,
    "lon": 33.255869987755,
    "name": "Michalaki Karaoli - Pentadaktylou"
  },
  {
    "description": "Koutsoventi",
    "lat": 35.0367272393384,
    "lon": 33.2562740068295,
    "name": "Koutsoventi"
  },
  {
    "description": "Michalaki Karaoli - Kythreas 2",
    "lat": 35.0360082352481,
    "lon": 33.2551425243645,
    "name": "Michalaki Karaoli - Kythreas 2"
  },
  {
    "description": "Grigori Afxentiou Ave. - Dimokratias 1",
    "lat": 35.0319041862938,
    "lon": 33.2556888785075,
    "name": "Grigori Afxentiou Ave. - Dimokratias 1"
  },
  {
    "description": "Georgiou Griva Digeni - Grigori Afxentiou Ave.",
    "lat": 35.0305348939583,
    "lon": 33.2550487750797,
    "name": "Georgiou Griva Digeni - Grigori Afxentiou Ave."
  },
  {
    "description": "Georgiou Griva Digeni - Eleftheriou Venizelou 2",
    "lat": 35.0314838037849,
    "lon": 33.2540541018151,
    "name": "Georgiou Griva Digeni - Eleftheriou Venizelou 2"
  },
  {
    "description": "Eleftherias Square 1",
    "lat": 35.0325150942827,
    "lon": 33.2524676571449,
    "name": "Eleftherias Square 1"
  },
  {
    "description": "Archiep. Makariou C´ Ave. - Archiep. Kyprianou 2",
    "lat": 35.0340501303702,
    "lon": 33.2514637623855,
    "name": "Archiep. Makariou C´ Ave. - Archiep. Kyprianou 2"
  },
  {
    "description": "Tamasos Elementary School",
    "lat": 35.0370634745518,
    "lon": 33.2507165040664,
    "name": "Tamasos Elementary School"
  },
  {
    "description": "Agios Nikolaos Church",
    "lat": 35.0394920228922,
    "lon": 33.2448911059934,
    "name": "Agios Nikolaos Church"
  },
  {
    "description": "Episkopeio Elementary School",
    "lat": 35.0417025650058,
    "lon": 33.2442508120413,
    "name": "Episkopeio Elementary School"
  },
  {
    "description": "Agios Irakleidios Monastery",
    "lat": 35.0430784001783,
    "lon": 33.2461407872042,
    "name": "Agios Irakleidios Monastery"
  },
  {
    "description": "Panteli Katelari Ave. - 1st  Episkopeio",
    "lat": 35.046607495951,
    "lon": 33.2489364555161,
    "name": "Panteli Katelari Ave. - 1st  Episkopeio"
  },
  {
    "description": "Panteli Katelari Ave. - Archiep. Makariou C ´ 2",
    "lat": 35.0552258157099,
    "lon": 33.2586346560295,
    "name": "Panteli Katelari Ave. - Archiep. Makariou C ´ 2"
  },
  {
    "description": "Archiep. Makariou C´  - Grigori Afxentiou",
    "lat": 35.0580545885195,
    "lon": 33.2598827810817,
    "name": "Archiep. Makariou C´  - Grigori Afxentiou"
  },
  {
    "description": "Michail Karaoli - Archiep. Makariou C´",
    "lat": 35.0608403106621,
    "lon": 33.2601767450082,
    "name": "Michail Karaoli - Archiep. Makariou C´"
  },
  {
    "description": "Griva Digeni - 25 Martiou",
    "lat": 35.0653504415212,
    "lon": 33.2594891417572,
    "name": "Griva Digeni - 25 Martiou"
  },
  {
    "description": "Griva Digeni - 1st Psimolofou 2",
    "lat": 35.071288779969,
    "lon": 33.2613834973006,
    "name": "Griva Digeni - 1st Psimolofou 2"
  },
  {
    "description": "Machaira - Nikis 2",
    "lat": 35.0759744241932,
    "lon": 33.2629340729373,
    "name": "Machaira - Nikis 2"
  },
  {
    "description": "Ave. Archiepiskopou Makariou C - Omonoias",
    "lat": 35.0810606286936,
    "lon": 33.2668555310411,
    "name": "Ave. Archiepiskopou Makariou C - Omonoias"
  },
  {
    "description": "Ave. Archiepiskopou Makariou C - Eleftherias 2",
    "lat": 35.0827314977716,
    "lon": 33.2697240683372,
    "name": "Ave. Archiepiskopou Makariou C - Eleftherias 2"
  },
  {
    "description": "Deftera Community Board",
    "lat": 35.0841928272672,
    "lon": 33.2735134980478,
    "name": "Deftera Community Board"
  },
  {
    "description": "Andrea Zitti - Grigori Afxentiou Avenue",
    "lat": 35.0839100688512,
    "lon": 33.2749386376613,
    "name": "Andrea Zitti - Grigori Afxentiou Avenue"
  }
]