[
  {
    "description": "Karavella Bus Station",
    "lat": 34.778616320876,
    "lon": 32.4221249543794,
    "name": "Karavella Bus Station"
  },
  {
    "description": "7 Elementary School - Agios Kendeas 1",
    "lat": 34.7768072972581,
    "lon": 32.4247714368252,
    "name": "7 Elementary School - Agios Kendeas 1"
  },
  {
    "description": "Nikolaou Nikolaidi Ave. - Charal. Mouskou",
    "lat": 34.7764951415018,
    "lon": 32.4274183917525,
    "name": "Nikolaou Nikolaidi Ave. - Charal. Mouskou"
  },
  {
    "description": "Anexartisias Ave. - Eptanisou",
    "lat": 34.7743891925316,
    "lon": 32.4379899717632,
    "name": "Anexartisias Ave. - Eptanisou"
  },
  {
    "description": "Dimokratias Ave. - Thivon",
    "lat": 34.7722103112332,
    "lon": 32.4426492813995,
    "name": "Dimokratias Ave. - Thivon"
  },
  {
    "description": "A` High School - Ag. Theodoros 1",
    "lat": 34.7672189940113,
    "lon": 32.4436226157175,
    "name": "A` High School - Ag. Theodoros 1"
  },
  {
    "description": "Archiep. Makariou C` Ave. - Ellados",
    "lat": 34.7641888377087,
    "lon": 32.4475330556782,
    "name": "Archiep. Makariou C` Ave. - Ellados"
  },
  {
    "description": "Archiep. Makariou C` Ave. - Olympiados",
    "lat": 34.7617774012893,
    "lon": 32.4506960835969,
    "name": "Archiep. Makariou C` Ave. - Olympiados"
  },
  {
    "description": "Geroskipou Art Museum",
    "lat": 34.759926476827,
    "lon": 32.4541939641612,
    "name": "Geroskipou Art Museum"
  },
  {
    "description": "Archiep. Makariou C` Ave. - Al. Panagouli",
    "lat": 34.7589023723357,
    "lon": 32.4570853205206,
    "name": "Archiep. Makariou C` Ave. - Al. Panagouli"
  },
  {
    "description": "Archiep. Makariou C` Ave. - Ag. Sergiou 1",
    "lat": 34.756191246285,
    "lon": 32.4618669001097,
    "name": "Archiep. Makariou C` Ave. - Ag. Sergiou 1"
  },
  {
    "description": "Archiep. Makariou C` Ave. - Filias",
    "lat": 34.7528419525787,
    "lon": 32.4651117343522,
    "name": "Archiep. Makariou C` Ave. - Filias"
  },
  {
    "description": "American Academy 1",
    "lat": 34.7453419748184,
    "lon": 32.4740200977946,
    "name": "American Academy 1"
  },
  {
    "description": "1st Stop Acheleia",
    "lat": 34.740112978729,
    "lon": 32.4806186330465,
    "name": "1st Stop Acheleia"
  },
  {
    "description": "Ag. Georgios Church - Acheleia 1",
    "lat": 34.7386787516233,
    "lon": 32.4847677782398,
    "name": "Ag. Georgios Church - Acheleia 1"
  },
  {
    "description": "3rd Stop Acheleia",
    "lat": 34.7349074057902,
    "lon": 32.4950701441028,
    "name": "3rd Stop Acheleia"
  },
  {
    "description": "Archiep. Makariou C` Ave. - Anexartisias 1",
    "lat": 34.7287723221796,
    "lon": 32.5120266264025,
    "name": "Archiep. Makariou C` Ave. - Anexartisias 1"
  },
  {
    "description": "Salaminos - Archiep. Makariou C` Ave. 1",
    "lat": 34.7291192273234,
    "lon": 32.5130840887172,
    "name": "Salaminos - Archiep. Makariou C` Ave. 1"
  },
  {
    "description": "Timi Elementary School 1",
    "lat": 34.7303709658286,
    "lon": 32.5149117878844,
    "name": "Timi Elementary School 1"
  },
  {
    "description": "Salaminos - Ioanni Makrygianni 1",
    "lat": 34.7331048820549,
    "lon": 32.5152999726968,
    "name": "Salaminos - Ioanni Makrygianni 1"
  },
  {
    "description": "Salaminos - Stadiou",
    "lat": 34.7349609774868,
    "lon": 32.5171788943611,
    "name": "Salaminos - Stadiou"
  },
  {
    "description": "Salaminos - Keryneias 1",
    "lat": 34.7331148962404,
    "lon": 32.5178231779738,
    "name": "Salaminos - Keryneias 1"
  },
  {
    "description": "G. Griva Digeni Ave. - Kon. Kanari",
    "lat": 34.7322162117326,
    "lon": 32.5186039377931,
    "name": "G. Griva Digeni Ave. - Kon. Kanari"
  },
  {
    "description": "Agias Marinas - Lemesos - Pafos Highway 1",
    "lat": 34.7366989767938,
    "lon": 32.5257438851013,
    "name": "Agias Marinas - Lemesos - Pafos Highway 1"
  },
  {
    "description": "Agias Marinas - 2nd Stop",
    "lat": 34.7391530861332,
    "lon": 32.5307330643382,
    "name": "Agias Marinas - 2nd Stop"
  },
  {
    "description": "Agia Marina Church 1",
    "lat": 34.740216031928,
    "lon": 32.5327807970096,
    "name": "Agia Marina Church 1"
  },
  {
    "description": "Anarita Elementary School 1",
    "lat": 34.7412068867458,
    "lon": 32.5348508348443,
    "name": "Anarita Elementary School 1"
  },
  {
    "description": "Andrea Tselepou - Vladimirou Irakleous",
    "lat": 34.7392396240006,
    "lon": 32.5368500348606,
    "name": "Andrea Tselepou - Vladimirou Irakleous"
  },
  {
    "description": "Kosta Karnavalou - Spyrou Kyprianou",
    "lat": 34.736735695632,
    "lon": 32.537639589655,
    "name": "Kosta Karnavalou - Spyrou Kyprianou"
  },
  {
    "description": "Spyrou Kyprianou - Evagora Pallikaridi",
    "lat": 34.7357845365152,
    "lon": 32.5365088350701,
    "name": "Spyrou Kyprianou - Evagora Pallikaridi"
  },
  {
    "description": "Agios Onisiforos Church 1",
    "lat": 34.7355840771988,
    "lon": 32.5336042887355,
    "name": "Agios Onisiforos Church 1"
  },
  {
    "description": "Agiou Onisiforou - Highway Exit 1",
    "lat": 34.7287215237786,
    "lon": 32.5312398565901,
    "name": "Agiou Onisiforou - Highway Exit 1"
  },
  {
    "description": "Old Lemesos - Pafos Road - 3rd Stop",
    "lat": 34.7202521982316,
    "lon": 32.5355142956288,
    "name": "Old Lemesos - Pafos Road - 3rd Stop"
  },
  {
    "description": "Eleftherias Ave. - Pentadaktylou",
    "lat": 34.7165527384955,
    "lon": 32.5325862985293,
    "name": "Eleftherias Ave. - Pentadaktylou"
  },
  {
    "description": "Agios Georgios Church",
    "lat": 34.714594460379,
    "lon": 32.5322150890845,
    "name": "Agios Georgios Church"
  }
]