[
  {
    "description": "Karavella Bus Station",
    "lat": 34.778616320876,
    "lon": 32.4221249543794,
    "name": "Karavella Bus Station"
  },
  {
    "description": "Evagora Pallikaridi - Charalambou Mouskou 2",
    "lat": 34.7763634448883,
    "lon": 32.4224466703481,
    "name": "Evagora Pallikaridi - Charalambou Mouskou 2"
  },
  {
    "description": "C.T.O. Offices",
    "lat": 34.7746227725429,
    "lon": 32.4204916463545,
    "name": "C.T.O. Offices"
  },
  {
    "description": "Apostolou Pavlou Ave. - Anapafseos",
    "lat": 34.7727565051574,
    "lon": 32.4186796541143,
    "name": "Apostolou Pavlou Ave. - Anapafseos"
  },
  {
    "description": "Apostolou Pavlou Ave. - Niovis",
    "lat": 34.7695393927569,
    "lon": 32.4172487953047,
    "name": "Apostolou Pavlou Ave. - Niovis"
  },
  {
    "description": "Kings Avenue Mall 2",
    "lat": 34.7660767498971,
    "lon": 32.4153936033586,
    "name": "Kings Avenue Mall 2"
  },
  {
    "description": "Tafoi Ton Vasileon - Chandrinou",
    "lat": 34.7655673754091,
    "lon": 32.4107421102745,
    "name": "Tafoi Ton Vasileon - Chandrinou"
  },
  {
    "description": "Tombs of the Kings Bus Station",
    "lat": 34.7700851526625,
    "lon": 32.4107318563524,
    "name": "Tombs of the Kings Bus Station"
  },
  {
    "description": "Tafoi Ton Vasileon - Angelou Sikelianou",
    "lat": 34.7662613381543,
    "lon": 32.4106606857937,
    "name": "Tafoi Ton Vasileon - Angelou Sikelianou"
  },
  {
    "description": "Agion Anargyron - Ifaistou",
    "lat": 34.7635824030481,
    "lon": 32.4142529093797,
    "name": "Agion Anargyron - Ifaistou"
  },
  {
    "description": "Agioi Anargyroi Church 2",
    "lat": 34.761424325451,
    "lon": 32.4174150954836,
    "name": "Agioi Anargyroi Church 2"
  },
  {
    "description": "Ikarou - Pyrgotelou",
    "lat": 34.7597724978887,
    "lon": 32.4189673594908,
    "name": "Ikarou - Pyrgotelou"
  },
  {
    "description": "Iasonos - Nestoros",
    "lat": 34.7572519404518,
    "lon": 32.4217821597267,
    "name": "Iasonos - Nestoros"
  },
  {
    "description": "Poseidonos Ave. - 1st Stop",
    "lat": 34.7538167248285,
    "lon": 32.4199924088154,
    "name": "Poseidonos Ave. - 1st Stop"
  },
  {
    "description": "Poseidonos Ave. - 3rd Stop",
    "lat": 34.7524242349487,
    "lon": 32.4210947149952,
    "name": "Poseidonos Ave. - 3rd Stop"
  },
  {
    "description": "Poseidonos Ave. - 5th Stop",
    "lat": 34.7494882035672,
    "lon": 32.4237809794508,
    "name": "Poseidonos Ave. - 5th Stop"
  },
  {
    "description": "Neapolis University 2",
    "lat": 34.7498037060993,
    "lon": 32.4275808135072,
    "name": "Neapolis University 2"
  },
  {
    "description": "Geroskipou Municipal Stadium 2",
    "lat": 34.7451363078701,
    "lon": 32.441989985651,
    "name": "Geroskipou Municipal Stadium 2"
  },
  {
    "description": "Ierokipion Ave. - 1st Stop",
    "lat": 34.7466426309659,
    "lon": 32.4460220894897,
    "name": "Ierokipion Ave. - 1st Stop"
  },
  {
    "description": "Geroskipou High School 1",
    "lat": 34.7551187720507,
    "lon": 32.4518983462542,
    "name": "Geroskipou High School 1"
  },
  {
    "description": "Ippokratous - Kozanis",
    "lat": 34.7559942364575,
    "lon": 32.4560882198715,
    "name": "Ippokratous - Kozanis"
  },
  {
    "description": "Archiep. Makariou C` Ave. - Al. Panagouli",
    "lat": 34.7589023723357,
    "lon": 32.4570853205206,
    "name": "Archiep. Makariou C` Ave. - Al. Panagouli"
  },
  {
    "description": "Archiep. Makariou C` Ave. - Ag. Sergiou 1",
    "lat": 34.756191246285,
    "lon": 32.4618669001097,
    "name": "Archiep. Makariou C` Ave. - Ag. Sergiou 1"
  },
  {
    "description": "Archiep. Makariou C` Ave. - Filias",
    "lat": 34.7528419525787,
    "lon": 32.4651117343522,
    "name": "Archiep. Makariou C` Ave. - Filias"
  },
  {
    "description": "American Academy 1",
    "lat": 34.7453419748184,
    "lon": 32.4740200977946,
    "name": "American Academy 1"
  },
  {
    "description": "1st Stop Acheleia",
    "lat": 34.740112978729,
    "lon": 32.4806186330465,
    "name": "1st Stop Acheleia"
  },
  {
    "description": "Ag. Georgios Church - Acheleia 1",
    "lat": 34.7386787516233,
    "lon": 32.4847677782398,
    "name": "Ag. Georgios Church - Acheleia 1"
  },
  {
    "description": "3rd Stop Acheleia",
    "lat": 34.7349074057902,
    "lon": 32.4950701441028,
    "name": "3rd Stop Acheleia"
  },
  {
    "description": "Archiep. Makariou C` Ave. - Anexartisias 1",
    "lat": 34.7287723221796,
    "lon": 32.5120266264025,
    "name": "Archiep. Makariou C` Ave. - Anexartisias 1"
  },
  {
    "description": "Old Lemesos - Pafos Road - 1st Stop",
    "lat": 34.7233747153902,
    "lon": 32.5267592749869,
    "name": "Old Lemesos - Pafos Road - 1st Stop"
  },
  {
    "description": "Old Lemesos - Pafos Road - 3rd Stop",
    "lat": 34.7202521982316,
    "lon": 32.5355142956288,
    "name": "Old Lemesos - Pafos Road - 3rd Stop"
  },
  {
    "description": "Old Lemesos - Pafos Road - 5th Stop",
    "lat": 34.7180309322553,
    "lon": 32.5418938045008,
    "name": "Old Lemesos - Pafos Road - 5th Stop"
  },
  {
    "description": "Old Lemesos - Pafos Road - 7th Stop",
    "lat": 34.7145815546232,
    "lon": 32.5503436827246,
    "name": "Old Lemesos - Pafos Road - 7th Stop"
  },
  {
    "description": "Old Lemesos - Pafos Road - 11th Stop",
    "lat": 34.6861793422567,
    "lon": 32.5844494186138,
    "name": "Old Lemesos - Pafos Road - 11th Stop"
  },
  {
    "description": "Aphrodite Hills",
    "lat": 34.6830939284883,
    "lon": 32.6085688807181,
    "name": "Aphrodite Hills"
  },
  {
    "description": "Old Lemesos - Pafos Road - 16th Stop",
    "lat": 34.6757533875034,
    "lon": 32.6057653307469,
    "name": "Old Lemesos - Pafos Road - 16th Stop"
  },
  {
    "description": "Old Lemesos - Pafos Road - 14th Stop",
    "lat": 34.6861787093738,
    "lon": 32.5842638313027,
    "name": "Old Lemesos - Pafos Road - 14th Stop"
  },
  {
    "description": "Old Lemesos - Pafos Road - 12th Stop",
    "lat": 34.6949113509229,
    "lon": 32.577385354537,
    "name": "Old Lemesos - Pafos Road - 12th Stop"
  },
  {
    "description": "Old Lemesos - Pafos Road - 9th Stop 2",
    "lat": 34.7007239699559,
    "lon": 32.5736870211811,
    "name": "Old Lemesos - Pafos Road - 9th Stop 2"
  },
  {
    "description": "3rd Stop Kouklia",
    "lat": 34.7084082918722,
    "lon": 32.5766069216297,
    "name": "3rd Stop Kouklia"
  },
  {
    "description": "1st Stop Archimandrita 1",
    "lat": 34.7498284953047,
    "lon": 32.6772268649811,
    "name": "1st Stop Archimandrita 1"
  }
]