[
  {
    "description": "Agros - Lemesos Road - 3rd Kato Mylos",
    "lat": 34.8932046965343,
    "lon": 33.0072999846326,
    "name": "Agros - Lemesos Road - 3rd Kato Mylos"
  },
  {
    "description": "Kato Mylos Community Board 1",
    "lat": 34.8947016703318,
    "lon": 33.0063698172835,
    "name": "Kato Mylos Community Board 1"
  },
  {
    "description": "Panagia Potamitissa Church 2",
    "lat": 34.9076417662006,
    "lon": 32.9913085424955,
    "name": "Panagia Potamitissa Church 2"
  },
  {
    "description": "2nd Dymes 1",
    "lat": 34.9166045114535,
    "lon": 32.9841588086845,
    "name": "2nd Dymes 1"
  },
  {
    "description": "1st Dymes - 1",
    "lat": 34.9210948427964,
    "lon": 32.9812457231186,
    "name": "1st Dymes - 1"
  },
  {
    "description": "Archiep. Makariou C´ Ave. - 7th Kyperounta 1",
    "lat": 34.941219112353,
    "lon": 32.9675415923505,
    "name": "Archiep. Makariou C´ Ave. - 7th Kyperounta 1"
  }
]