[
  {
    "description": "Kato Platres Community Board 2",
    "lat": 34.8797383786404,
    "lon": 32.8421732279311,
    "name": "Kato Platres Community Board 2"
  },
  {
    "description": "Distrato Foini 1",
    "lat": 34.8879044049231,
    "lon": 32.8391809051581,
    "name": "Distrato Foini 1"
  },
  {
    "description": "Steliou Perikleous Ave. - 5th Foini 1",
    "lat": 34.8923314806033,
    "lon": 32.8387563924895,
    "name": "Steliou Perikleous Ave. - 5th Foini 1"
  },
  {
    "description": "Foini Village Center 1",
    "lat": 34.8923832360037,
    "lon": 32.8369942461092,
    "name": "Foini Village Center 1"
  },
  {
    "description": "Foini Youth Center 1",
    "lat": 34.8938977754316,
    "lon": 32.83668480624,
    "name": "Foini Youth Center 1"
  },
  {
    "description": "Dimou Irodotou - 2nd Foini 1",
    "lat": 34.8942159181452,
    "lon": 32.8319232656711,
    "name": "Dimou Irodotou - 2nd Foini 1"
  },
  {
    "description": "Agios Georgios Kapourallis Church",
    "lat": 34.917608059341,
    "lon": 32.813757109257,
    "name": "Agios Georgios Kapourallis Church"
  },
  {
    "description": "1st Lemithou 1",
    "lat": 34.9509819805598,
    "lon": 32.8138021333057,
    "name": "1st Lemithou 1"
  },
  {
    "description": "Prodromos Vilalge Center 1",
    "lat": 34.9497919905832,
    "lon": 32.8326094109962,
    "name": "Prodromos Vilalge Center 1"
  }
]