[
  {
    "description": "Kofinou Station",
    "lat": 34.826273309476,
    "lon": 33.3899202268482,
    "name": "Kofinou Station"
  },
  {
    "description": "Archiep. Makariou C´ Ave. - Evgeniou Panagiotou",
    "lat": 34.8286384079375,
    "lon": 33.3919545098653,
    "name": "Archiep. Makariou C´ Ave. - Evgeniou Panagiotou"
  },
  {
    "description": "Kofinou Police Station",
    "lat": 34.8302653116882,
    "lon": 33.3935916947298,
    "name": "Kofinou Police Station"
  },
  {
    "description": "Archiep. Makariou C´ Ave. - Larnakos Ave.",
    "lat": 34.8312626024158,
    "lon": 33.3947228700224,
    "name": "Archiep. Makariou C´ Ave. - Larnakos Ave."
  },
  {
    "description": "Kofinou - Political Asylum Road - 1st Stop",
    "lat": 34.8436105802776,
    "lon": 33.4075243994762,
    "name": "Kofinou - Political Asylum Road - 1st Stop"
  },
  {
    "description": "Political Asylum",
    "lat": 34.8440010570309,
    "lon": 33.4147234549166,
    "name": "Political Asylum"
  },
  {
    "description": "Kofinou - Political Asylum Road - 2nd Stop",
    "lat": 34.8436459902881,
    "lon": 33.4077214551973,
    "name": "Kofinou - Political Asylum Road - 2nd Stop"
  },
  {
    "description": "Kofinou - Highway Exit",
    "lat": 34.8363432366218,
    "lon": 33.3991109344646,
    "name": "Kofinou - Highway Exit"
  },
  {
    "description": "Anglisides - Menogeia Road - 2nd Stop",
    "lat": 34.8466193274217,
    "lon": 33.4395007361835,
    "name": "Anglisides - Menogeia Road - 2nd Stop"
  },
  {
    "description": "Archiep. Makariou C´ Ave. - Kyriakou Matsi",
    "lat": 34.8521238626443,
    "lon": 33.4532036875843,
    "name": "Archiep. Makariou C´ Ave. - Kyriakou Matsi"
  },
  {
    "description": "Archiep. Makariou C´ Ave. - Tasou Isaak",
    "lat": 34.8529203656834,
    "lon": 33.454827034241,
    "name": "Archiep. Makariou C´ Ave. - Tasou Isaak"
  },
  {
    "description": "Georg. Griva Digeni Ave. - Anexartisias",
    "lat": 34.8526609106642,
    "lon": 33.4566852384574,
    "name": "Georg. Griva Digeni Ave. - Anexartisias"
  },
  {
    "description": "Anglisides Public Kindergarden 1",
    "lat": 34.8518943927994,
    "lon": 33.4566919419264,
    "name": "Anglisides Public Kindergarden 1"
  },
  {
    "description": "Anglisides Elementary School 1",
    "lat": 34.8482518673763,
    "lon": 33.4589360711177,
    "name": "Anglisides Elementary School 1"
  },
  {
    "description": "Tasou Konstantinou Ave. - 3th Stop",
    "lat": 34.8296276602623,
    "lon": 33.4644538017244,
    "name": "Tasou Konstantinou Ave. - 3th Stop"
  },
  {
    "description": "Michalaki Paridi - 8th Stop",
    "lat": 34.8289839134171,
    "lon": 33.4700602904448,
    "name": "Michalaki Paridi - 8th Stop"
  },
  {
    "description": "Aplanta Military Camp 2",
    "lat": 34.8301584648424,
    "lon": 33.4741242307649,
    "name": "Aplanta Military Camp 2"
  },
  {
    "description": "Alethriko - Anafotia Road - 2nd Stop",
    "lat": 34.8505100734333,
    "lon": 33.4925414076006,
    "name": "Alethriko - Anafotia Road - 2nd Stop"
  },
  {
    "description": "Grigori Afxentiou Ave. - Olympou 2",
    "lat": 34.8545092423978,
    "lon": 33.4936810432804,
    "name": "Grigori Afxentiou Ave. - Olympou 2"
  },
  {
    "description": "Filias Ave. - Kyriakou Chatzichristou",
    "lat": 34.8593550479974,
    "lon": 33.4928457439578,
    "name": "Filias Ave. - Kyriakou Chatzichristou"
  },
  {
    "description": "Eirinis Ave. 2",
    "lat": 34.862681993306,
    "lon": 33.492974993006,
    "name": "Eirinis Ave. 2"
  },
  {
    "description": "Eirinis Ave. - Salaminos Ave.",
    "lat": 34.8637276464565,
    "lon": 33.4930687562396,
    "name": "Eirinis Ave. - Salaminos Ave."
  },
  {
    "description": "Anexartisias Ave. - Eirinis Avenue 2",
    "lat": 34.865674941296,
    "lon": 33.4931897861284,
    "name": "Anexartisias Ave. - Eirinis Avenue 2"
  },
  {
    "description": "Anexartisias Ave. - Highway Exit 2",
    "lat": 34.86650117679,
    "lon": 33.4962362678988,
    "name": "Anexartisias Ave. - Highway Exit 2"
  },
  {
    "description": "Anexartisias Ave. - Ag. Georgiou Xorinou 2",
    "lat": 34.8686445948394,
    "lon": 33.5013039351747,
    "name": "Anexartisias Ave. - Ag. Georgiou Xorinou 2"
  },
  {
    "description": "Klavdia - Alethriko Road - 2nd Stop",
    "lat": 34.8776335163933,
    "lon": 33.5124868125232,
    "name": "Klavdia - Alethriko Road - 2nd Stop"
  },
  {
    "description": "Klavdia - Highway Exit 1",
    "lat": 34.889870890507,
    "lon": 33.5333014860752,
    "name": "Klavdia - Highway Exit 1"
  },
  {
    "description": "A2 Industrial Area",
    "lat": 34.9085910283765,
    "lon": 33.5729498422037,
    "name": "A2 Industrial Area"
  },
  {
    "description": "Lemesou Ave. - Charilaou Trikoupi 2",
    "lat": 34.9083162703107,
    "lon": 33.5795485625504,
    "name": "Lemesou Ave. - Charilaou Trikoupi 2"
  },
  {
    "description": "Lemesou Ave. - Makedonias 2",
    "lat": 34.9097790299223,
    "lon": 33.5847912719885,
    "name": "Lemesou Ave. - Makedonias 2"
  },
  {
    "description": "Lemesou Ave. - Kritis",
    "lat": 34.91100376662,
    "lon": 33.5907221029325,
    "name": "Lemesou Ave. - Kritis"
  },
  {
    "description": "Kamares - Old Aqueduct 2",
    "lat": 34.912833624016,
    "lon": 33.5982338403757,
    "name": "Kamares - Old Aqueduct 2"
  },
  {
    "description": "G. Christodoulidi Ave. - Dafnidos",
    "lat": 34.9186395946966,
    "lon": 33.6003122340309,
    "name": "G. Christodoulidi Ave. - Dafnidos"
  },
  {
    "description": "New Hospital 2",
    "lat": 34.9217524628238,
    "lon": 33.6035755347927,
    "name": "New Hospital 2"
  },
  {
    "description": "Mall Metropolis",
    "lat": 34.924193545739,
    "lon": 33.6077209580138,
    "name": "Mall Metropolis"
  },
  {
    "description": "Georg. Griva Digeni Ave. - Ag. Georgios Church 2",
    "lat": 34.9232552988576,
    "lon": 33.6114036101475,
    "name": "Georg. Griva Digeni Ave. - Ag. Georgios Church 2"
  },
  {
    "description": "Fire Station 2",
    "lat": 34.9212721837046,
    "lon": 33.6148375251659,
    "name": "Fire Station 2"
  },
  {
    "description": "Georg. Griva Digeni Ave. - Kon. Palaiologou Ave. 2",
    "lat": 34.9194167146212,
    "lon": 33.6179766426449,
    "name": "Georg. Griva Digeni Ave. - Kon. Palaiologou Ave. 2"
  },
  {
    "description": "Georg. Griva Digeni Ave. - Thessalonikis Ave.",
    "lat": 34.9180133596127,
    "lon": 33.6208562831158,
    "name": "Georg. Griva Digeni Ave. - Thessalonikis Ave."
  },
  {
    "description": "Municipal Library 2",
    "lat": 34.916724235321,
    "lon": 33.6243059543314,
    "name": "Municipal Library 2"
  },
  {
    "description": "Municipal Park 2",
    "lat": 34.9168095577485,
    "lon": 33.6269996632646,
    "name": "Municipal Park 2"
  },
  {
    "description": "Pancyprian Lyceum",
    "lat": 34.917629845022,
    "lon": 33.6305419493315,
    "name": "Pancyprian Lyceum"
  },
  {
    "description": "Grigori Afxentiou Ave. - Foinikoudes 2",
    "lat": 34.9178223662695,
    "lon": 33.6351304406883,
    "name": "Grigori Afxentiou Ave. - Foinikoudes 2"
  },
  {
    "description": "Archiep. Makariou C´ Ave. - Filiou Tsigaridi 1",
    "lat": 34.9187528603531,
    "lon": 33.6365279619346,
    "name": "Archiep. Makariou C´ Ave. - Filiou Tsigaridi 1"
  },
  {
    "description": "Larnaca Station",
    "lat": 34.9192327751747,
    "lon": 33.6378672895804,
    "name": "Larnaca Station"
  }
]