[
  {
    "description": "Grigori Afxentiou - Apostolos Varnavas Church 1",
    "lat": 35.1483987228201,
    "lon": 33.2084278633846,
    "name": "Grigori Afxentiou - Apostolos Varnavas Church 1"
  },
  {
    "description": "Grigori Afxentiou - Praxitelous 1",
    "lat": 35.1483132038858,
    "lon": 33.2057049705884,
    "name": "Grigori Afxentiou - Praxitelous 1"
  },
  {
    "description": "Kokkinotrimithia Police Station 1",
    "lat": 35.1486440827389,
    "lon": 33.2019840671989,
    "name": "Kokkinotrimithia Police Station 1"
  },
  {
    "description": "Kokkinotrimithias Setl. 1",
    "lat": 35.1559984309308,
    "lon": 33.1874433431365,
    "name": "Kokkinotrimithias Setl. 1"
  },
  {
    "description": "Deneia Park",
    "lat": 35.1664942654294,
    "lon": 33.1485508364644,
    "name": "Deneia Park"
  },
  {
    "description": "Deneia Roundabout",
    "lat": 35.1665904476843,
    "lon": 33.1435656395204,
    "name": "Deneia Roundabout"
  }
]