[
  {
    "description": "Kourdali Community Board",
    "lat": 34.9746502447257,
    "lon": 32.950449054285,
    "name": "Kourdali Community Board"
  },
  {
    "description": "Spilia",
    "lat": 34.96738429748,
    "lon": 32.9560182440138,
    "name": "Spilia"
  },
  {
    "description": "Spilia Square",
    "lat": 34.9661933540224,
    "lon": 32.9542990709374,
    "name": "Spilia Square"
  },
  {
    "description": "Lefkosias - Troodous - Droseri Potamia 2",
    "lat": 34.9690420704098,
    "lon": 32.9183555159527,
    "name": "Lefkosias - Troodous - Droseri Potamia 2"
  },
  {
    "description": "Archiepiskopou Makariou C Avenue 2",
    "lat": 34.9904498215295,
    "lon": 32.9062591796455,
    "name": "Archiepiskopou Makariou C Avenue 2"
  }
]