[
  {
    "description": "Kyperounta Hospital",
    "lat": 34.950619411433,
    "lon": 32.9524349017202,
    "name": "Kyperounta Hospital"
  },
  {
    "description": "Archiep. Makariou C Ave. - 10th Kyperounta 2",
    "lat": 34.9480145958923,
    "lon": 32.9557328926518,
    "name": "Archiep. Makariou C Ave. - 10th Kyperounta 2"
  },
  {
    "description": "Archiep. Makariou C´ Ave. - 9th Kyperounta 2",
    "lat": 34.9420108335886,
    "lon": 32.9613211211968,
    "name": "Archiep. Makariou C´ Ave. - 9th Kyperounta 2"
  },
  {
    "description": "Archiep. Makariou C´ Ave. - 7th Kyperounta 1",
    "lat": 34.941219112353,
    "lon": 32.9675415923505,
    "name": "Archiep. Makariou C´ Ave. - 7th Kyperounta 1"
  },
  {
    "description": "Kyperounda Winery 2",
    "lat": 34.9444954894286,
    "lon": 32.9820836478446,
    "name": "Kyperounda Winery 2"
  },
  {
    "description": "Georgiou Griva Digeni Ave. - 3rd Chandria 2",
    "lat": 34.9445324710273,
    "lon": 32.9900233470627,
    "name": "Georgiou Griva Digeni Ave. - 3rd Chandria 2"
  },
  {
    "description": "Georgiou Griva Digeni Ave. - 2nd Chandria 2",
    "lat": 34.9435047263898,
    "lon": 32.9938344835054,
    "name": "Georgiou Griva Digeni Ave. - 2nd Chandria 2"
  },
  {
    "description": "Chandria Square 1",
    "lat": 34.9418455112818,
    "lon": 32.9940317250329,
    "name": "Chandria Square 1"
  },
  {
    "description": "Agridia",
    "lat": 34.9279675684177,
    "lon": 32.99512764207,
    "name": "Agridia"
  },
  {
    "description": "Apeitios School - Glafkos Clerides Sport Centre 1",
    "lat": 34.916811975906,
    "lon": 33.0153704827747,
    "name": "Apeitios School - Glafkos Clerides Sport Centre 1"
  },
  {
    "description": "Panagia Eleousa Church 2",
    "lat": 34.9175960626536,
    "lon": 33.018534526178,
    "name": "Panagia Eleousa Church 2"
  },
  {
    "description": "Agros Post Office 2",
    "lat": 34.9165137812369,
    "lon": 33.0196399902421,
    "name": "Agros Post Office 2"
  },
  {
    "description": "C.A.P.O. Agros Office 2",
    "lat": 34.9170543599704,
    "lon": 33.0223879839957,
    "name": "C.A.P.O. Agros Office 2"
  },
  {
    "description": "Petrou Iliadi Ave. 2",
    "lat": 34.9136544924256,
    "lon": 33.0236788326143,
    "name": "Petrou Iliadi Ave. 2"
  },
  {
    "description": "Anastasi Pitta - 2nd Agios Ioannis 1",
    "lat": 34.8961431420494,
    "lon": 33.0191645100296,
    "name": "Anastasi Pitta - 2nd Agios Ioannis 1"
  },
  {
    "description": "Kato Mylos Community Board 1",
    "lat": 34.8947016703318,
    "lon": 33.0063698172835,
    "name": "Kato Mylos Community Board 1"
  },
  {
    "description": "2nd Kato Mylos",
    "lat": 34.8950174020697,
    "lon": 33.0035242079279,
    "name": "2nd Kato Mylos"
  }
]