[
  {
    "description": "Archiep. Makariou C´ Ave. - 7th Kyperounta 2",
    "lat": 34.9413365168504,
    "lon": 32.9682095506847,
    "name": "Archiep. Makariou C´ Ave. - 7th Kyperounta 2"
  },
  {
    "description": "Grigori Afxentiou - 6th Kyperounta",
    "lat": 34.9393349621421,
    "lon": 32.9695243985513,
    "name": "Grigori Afxentiou - 6th Kyperounta"
  },
  {
    "description": "1st Dymes - 2",
    "lat": 34.9211669900153,
    "lon": 32.9812894995674,
    "name": "1st Dymes - 2"
  },
  {
    "description": "2nd Dymes 2",
    "lat": 34.9163069303609,
    "lon": 32.9841479182865,
    "name": "2nd Dymes 2"
  },
  {
    "description": "Panagia Potamitissa Church 1",
    "lat": 34.9075063749346,
    "lon": 32.9896775428609,
    "name": "Panagia Potamitissa Church 1"
  },
  {
    "description": "2nd Kato Mylos",
    "lat": 34.8950174020697,
    "lon": 33.0035242079279,
    "name": "2nd Kato Mylos"
  },
  {
    "description": "1st Kato Mylos",
    "lat": 34.8952698535106,
    "lon": 33.0047390891335,
    "name": "1st Kato Mylos"
  },
  {
    "description": "Agros - Lemesos Road - 3rd Kato Mylos",
    "lat": 34.8932046965343,
    "lon": 33.0072999846326,
    "name": "Agros - Lemesos Road - 3rd Kato Mylos"
  }
]