[
  {
    "description": "Larnaca Station",
    "lat": 34.9192327751747,
    "lon": 33.6378672895804,
    "name": "Larnaca Station"
  },
  {
    "description": "Grigori Afxentiou Ave. - Foinikoudes 1",
    "lat": 34.9176764344531,
    "lon": 33.6354467945138,
    "name": "Grigori Afxentiou Ave. - Foinikoudes 1"
  },
  {
    "description": "Old Hospital",
    "lat": 34.9170651225385,
    "lon": 33.6298917314463,
    "name": "Old Hospital"
  },
  {
    "description": "Municipal Park 1",
    "lat": 34.9167370826448,
    "lon": 33.62706479651,
    "name": "Municipal Park 1"
  },
  {
    "description": "Municipal Library 1",
    "lat": 34.9163428757828,
    "lon": 33.6248175920962,
    "name": "Municipal Library 1"
  },
  {
    "description": "Georg. Griva Digeni Ave. - 1 Apriliou Ave.",
    "lat": 34.9179424535888,
    "lon": 33.6206149027479,
    "name": "Georg. Griva Digeni Ave. - 1 Apriliou Ave."
  },
  {
    "description": "Georg. Griva Digeni Ave. - Kon. Palaiologou Ave. 1",
    "lat": 34.9192814590881,
    "lon": 33.617975628774,
    "name": "Georg. Griva Digeni Ave. - Kon. Palaiologou Ave. 1"
  },
  {
    "description": "Nikou kai Despoinas Pattichi Ave. - Fire Station",
    "lat": 34.9198418920834,
    "lon": 33.6159325876502,
    "name": "Nikou kai Despoinas Pattichi Ave. - Fire Station"
  },
  {
    "description": "Nikou kai Despoinas Pattichi Ave. - Arachovas",
    "lat": 34.9183566940243,
    "lon": 33.6136224907785,
    "name": "Nikou kai Despoinas Pattichi Ave. - Arachovas"
  },
  {
    "description": "Electricity Authority 2",
    "lat": 34.9171740620836,
    "lon": 33.608512168341,
    "name": "Electricity Authority 2"
  },
  {
    "description": "Nikou kai Despoinas Pattichi Ave. - Kalymnou",
    "lat": 34.9165153281923,
    "lon": 33.6049931961769,
    "name": "Nikou kai Despoinas Pattichi Ave. - Kalymnou"
  },
  {
    "description": "G. Christodoulidi Ave. - Dafnidos",
    "lat": 34.9186395946966,
    "lon": 33.6003122340309,
    "name": "G. Christodoulidi Ave. - Dafnidos"
  },
  {
    "description": "Peiraia Park",
    "lat": 34.9191342938408,
    "lon": 33.5987393620505,
    "name": "Peiraia Park"
  },
  {
    "description": "Vergina High School 2",
    "lat": 34.9201261487427,
    "lon": 33.596918271296,
    "name": "Vergina High School 2"
  },
  {
    "description": "Vergina Lyceum",
    "lat": 34.9211554385646,
    "lon": 33.5948127586923,
    "name": "Vergina Lyceum"
  },
  {
    "description": "Kamares - Old Aqueduct 1",
    "lat": 34.9124918370702,
    "lon": 33.5980562111298,
    "name": "Kamares - Old Aqueduct 1"
  },
  {
    "description": "Lemesou Ave. - Kastalias",
    "lat": 34.9113629980213,
    "lon": 33.5947202253753,
    "name": "Lemesou Ave. - Kastalias"
  },
  {
    "description": "Lemesou Ave. - Larisis",
    "lat": 34.9107339454151,
    "lon": 33.5905778640178,
    "name": "Lemesou Ave. - Larisis"
  },
  {
    "description": "Lemesou Ave. - Makedonias 1",
    "lat": 34.9094470293519,
    "lon": 33.584449577531,
    "name": "Lemesou Ave. - Makedonias 1"
  },
  {
    "description": "Lemesou Ave. - Charilaou Trikoupi 1",
    "lat": 34.908023555517,
    "lon": 33.5785285020001,
    "name": "Lemesou Ave. - Charilaou Trikoupi 1"
  },
  {
    "description": "Klavdia - Highway Exit 1",
    "lat": 34.889870890507,
    "lon": 33.5333014860752,
    "name": "Klavdia - Highway Exit 1"
  },
  {
    "description": "6th Stop Klavdia",
    "lat": 34.8932093844903,
    "lon": 33.5161185493289,
    "name": "6th Stop Klavdia"
  },
  {
    "description": "5th Stop Klavdia",
    "lat": 34.8934138423976,
    "lon": 33.5146861145392,
    "name": "5th Stop Klavdia"
  },
  {
    "description": "3rd Stop Klavdia",
    "lat": 34.8927889748507,
    "lon": 33.5131828487583,
    "name": "3rd Stop Klavdia"
  },
  {
    "description": "2nd Stop Klavdia",
    "lat": 34.8922511285759,
    "lon": 33.5145584764786,
    "name": "2nd Stop Klavdia"
  },
  {
    "description": "1st Stop Klavdia",
    "lat": 34.8931046583875,
    "lon": 33.5174202703619,
    "name": "1st Stop Klavdia"
  },
  {
    "description": "Klavdia - Highway Exit 2",
    "lat": 34.8891217895089,
    "lon": 33.5334498588694,
    "name": "Klavdia - Highway Exit 2"
  },
  {
    "description": "Klavdia - Alethriko Road - 1st Stop",
    "lat": 34.8776959452803,
    "lon": 33.5126513344363,
    "name": "Klavdia - Alethriko Road - 1st Stop"
  },
  {
    "description": "Anexartisias Ave. - Ag. Georgiou Xorinou 1",
    "lat": 34.8686074879855,
    "lon": 33.5015553552256,
    "name": "Anexartisias Ave. - Ag. Georgiou Xorinou 1"
  },
  {
    "description": "Pizavou - Ioannou Georgiou",
    "lat": 34.8688876330651,
    "lon": 33.4970164846634,
    "name": "Pizavou - Ioannou Georgiou"
  },
  {
    "description": "Ioannou Georgiou - Agiou Georgiou Xorinou",
    "lat": 34.8672363941059,
    "lon": 33.4972691310926,
    "name": "Ioannou Georgiou - Agiou Georgiou Xorinou"
  },
  {
    "description": "Anexartisias Ave. - Highway Exit 1",
    "lat": 34.8664194405835,
    "lon": 33.4963780074301,
    "name": "Anexartisias Ave. - Highway Exit 1"
  },
  {
    "description": "Anexartisias Ave. - Eirinis Avenue 1",
    "lat": 34.8656027584722,
    "lon": 33.493200295883,
    "name": "Anexartisias Ave. - Eirinis Avenue 1"
  },
  {
    "description": "Salaminas Ave. - Mesolongiou",
    "lat": 34.8630182989606,
    "lon": 33.4945414715758,
    "name": "Salaminas Ave. - Mesolongiou"
  },
  {
    "description": "Ammochostou Ave. - Morfou 1",
    "lat": 34.8596952521322,
    "lon": 33.4956702730682,
    "name": "Ammochostou Ave. - Morfou 1"
  },
  {
    "description": "Akanthous",
    "lat": 34.8359657105483,
    "lon": 33.5119659785202,
    "name": "Akanthous"
  },
  {
    "description": "Gianni Fotiadi - 2nd Stop",
    "lat": 34.8396068264021,
    "lon": 33.5059730315338,
    "name": "Gianni Fotiadi - 2nd Stop"
  }
]