[
  {
    "description": "Larnaca Station",
    "lat": 34.9192327751747,
    "lon": 33.6378672895804,
    "name": "Larnaca Station"
  },
  {
    "description": "Grigori Afxentiou Ave. - Foinikoudes 1",
    "lat": 34.9176764344531,
    "lon": 33.6354467945138,
    "name": "Grigori Afxentiou Ave. - Foinikoudes 1"
  },
  {
    "description": "Old Hospital",
    "lat": 34.9170651225385,
    "lon": 33.6298917314463,
    "name": "Old Hospital"
  },
  {
    "description": "Municipal Park 1",
    "lat": 34.9167370826448,
    "lon": 33.62706479651,
    "name": "Municipal Park 1"
  },
  {
    "description": "Municipal Library 1",
    "lat": 34.9163428757828,
    "lon": 33.6248175920962,
    "name": "Municipal Library 1"
  },
  {
    "description": "Georg. Griva Digeni Ave. - 1 Apriliou Ave.",
    "lat": 34.9179424535888,
    "lon": 33.6206149027479,
    "name": "Georg. Griva Digeni Ave. - 1 Apriliou Ave."
  },
  {
    "description": "Georg. Griva Digeni Ave. - Kon. Palaiologou Ave. 1",
    "lat": 34.9192814590881,
    "lon": 33.617975628774,
    "name": "Georg. Griva Digeni Ave. - Kon. Palaiologou Ave. 1"
  },
  {
    "description": "Fire Station 1",
    "lat": 34.9211460005634,
    "lon": 33.6148256360473,
    "name": "Fire Station 1"
  },
  {
    "description": "Georg. Griva Digeni Ave. - Ag. Georgios Church 1",
    "lat": 34.9232927989392,
    "lon": 33.6111192329806,
    "name": "Georg. Griva Digeni Ave. - Ag. Georgios Church 1"
  },
  {
    "description": "Agios Georgios Church 1",
    "lat": 34.9228559002927,
    "lon": 33.6083351448841,
    "name": "Agios Georgios Church 1"
  },
  {
    "description": "New Hospital 1",
    "lat": 34.922015733272,
    "lon": 33.6050335619743,
    "name": "New Hospital 1"
  },
  {
    "description": "Archiepiskopou Paisiou",
    "lat": 34.9218408687037,
    "lon": 33.6002917535577,
    "name": "Archiepiskopou Paisiou"
  },
  {
    "description": "Antheon - Archiep. Paisiou",
    "lat": 34.9220636428672,
    "lon": 33.5953338740396,
    "name": "Antheon - Archiep. Paisiou"
  },
  {
    "description": "Pentadaktylou - Kormakiti",
    "lat": 34.9238448824834,
    "lon": 33.5943504374437,
    "name": "Pentadaktylou - Kormakiti"
  },
  {
    "description": "Pentadaktylou - Epikourou",
    "lat": 34.9260441052812,
    "lon": 33.5927130484186,
    "name": "Pentadaktylou - Epikourou"
  },
  {
    "description": "Agiou Prokopiou",
    "lat": 34.9276078837378,
    "lon": 33.5900856171411,
    "name": "Agiou Prokopiou"
  },
  {
    "description": "Orthodoxias - Trion Ierarchon",
    "lat": 34.9264621931785,
    "lon": 33.5883256195631,
    "name": "Orthodoxias - Trion Ierarchon"
  },
  {
    "description": "Orthodoxias - Archiep. Paisiou",
    "lat": 34.9248385894632,
    "lon": 33.5884235154843,
    "name": "Orthodoxias - Archiep. Paisiou"
  },
  {
    "description": "Archiep. Paisiou - Agion Panton",
    "lat": 34.9253123175008,
    "lon": 33.5855583729979,
    "name": "Archiep. Paisiou - Agion Panton"
  }
]