[
  {
    "description": "EMEL Bus Station Leontiou A´",
    "lat": 34.6792348518186,
    "lon": 33.0372354212458,
    "name": "EMEL Bus Station Leontiou A´"
  },
  {
    "description": "Archiep. Leontiou A´ - Panagioti Diomidous",
    "lat": 34.6813100525199,
    "lon": 33.0335138069715,
    "name": "Archiep. Leontiou A´ - Panagioti Diomidous"
  },
  {
    "description": "Archiep. Leontiou A´ - Karatza 1",
    "lat": 34.6819325517798,
    "lon": 33.0325424776436,
    "name": "Archiep. Leontiou A´ - Karatza 1"
  },
  {
    "description": "Nikou & Despoinas Pattichi - Vas. Konstantinou 1",
    "lat": 34.6845128197195,
    "lon": 33.0279256090837,
    "name": "Nikou & Despoinas Pattichi - Vas. Konstantinou 1"
  },
  {
    "description": "Nikou & Despoinas Pattichi - Dikaiarchou 1",
    "lat": 34.6862361771836,
    "lon": 33.0234828890117,
    "name": "Nikou & Despoinas Pattichi - Dikaiarchou 1"
  },
  {
    "description": "Nikou & Despoinas Pattichi - Nafsikas",
    "lat": 34.6883290651579,
    "lon": 33.0193020886893,
    "name": "Nikou & Despoinas Pattichi - Nafsikas"
  },
  {
    "description": "Nikou & Despoinas Pattichi - Sp. Kyprianou Ave. 2",
    "lat": 34.6904936695478,
    "lon": 33.0172500531958,
    "name": "Nikou & Despoinas Pattichi - Sp. Kyprianou Ave. 2"
  },
  {
    "description": "Paramali 1",
    "lat": 34.6763314128343,
    "lon": 32.7924453070854,
    "name": "Paramali 1"
  },
  {
    "description": "Gialousas Ave. - 2nd Avdimou 1",
    "lat": 34.6931412911943,
    "lon": 32.7630664888418,
    "name": "Gialousas Ave. - 2nd Avdimou 1"
  },
  {
    "description": "Avdimou Health Centre ",
    "lat": 34.6953142244578,
    "lon": 32.762874684271,
    "name": "Avdimou Health Centre "
  },
  {
    "description": "Gialousas Ave. - 2nd Avdimou 2",
    "lat": 34.6929161851667,
    "lon": 32.7632418189656,
    "name": "Gialousas Ave. - 2nd Avdimou 2"
  },
  {
    "description": "Gialousas Ave. - 3rd Avdimou",
    "lat": 34.6905694043771,
    "lon": 32.762145810263,
    "name": "Gialousas Ave. - 3rd Avdimou"
  },
  {
    "description": "Pissouri Police Station 1",
    "lat": 34.6758484767347,
    "lon": 32.69922562757,
    "name": "Pissouri Police Station 1"
  }
]