[
  {
    "description": "EMEL Bus Station Leontiou A´",
    "lat": 34.6792348518186,
    "lon": 33.0372354212458,
    "name": "EMEL Bus Station Leontiou A´"
  },
  {
    "description": "Archiep. Leontiou A´ - Panagioti Diomidous",
    "lat": 34.6813100525199,
    "lon": 33.0335138069715,
    "name": "Archiep. Leontiou A´ - Panagioti Diomidous"
  },
  {
    "description": "Archiep. Leontiou A´ - Karatza 1",
    "lat": 34.6819325517798,
    "lon": 33.0325424776436,
    "name": "Archiep. Leontiou A´ - Karatza 1"
  },
  {
    "description": "Archiep. Makariou C´ Ave. - Fire Station 1",
    "lat": 34.6819785912338,
    "lon": 33.0287653392861,
    "name": "Archiep. Makariou C´ Ave. - Fire Station 1"
  },
  {
    "description": "Archiep. Makariou C´ Ave. - Nikolaou Skoufa",
    "lat": 34.678426506456,
    "lon": 33.024288480921,
    "name": "Archiep. Makariou C´ Ave. - Nikolaou Skoufa"
  },
  {
    "description": "Archiep. Makariou C´ Ave. - Souez 1",
    "lat": 34.6767045091013,
    "lon": 33.0220502094444,
    "name": "Archiep. Makariou C´ Ave. - Souez 1"
  },
  {
    "description": "Archiep. Makariou C´ Ave. - Agios Ioannis Church",
    "lat": 34.6755865370387,
    "lon": 33.0206199435505,
    "name": "Archiep. Makariou C´ Ave. - Agios Ioannis Church"
  },
  {
    "description": "Agios Ioannis Police Station 1",
    "lat": 34.6740538047787,
    "lon": 33.018665671764,
    "name": "Agios Ioannis Police Station 1"
  },
  {
    "description": "Pafou - Vasileos Pavlou A´ 1",
    "lat": 34.6738827936264,
    "lon": 33.0163733626552,
    "name": "Pafou - Vasileos Pavlou A´ 1"
  },
  {
    "description": "Pafou - Omonoias Ave.",
    "lat": 34.6748120474387,
    "lon": 33.0129896794722,
    "name": "Pafou - Omonoias Ave."
  },
  {
    "description": "Pafou - Evgeniou Voulgareos",
    "lat": 34.6757773149791,
    "lon": 33.009136544433,
    "name": "Pafou - Evgeniou Voulgareos"
  },
  {
    "description": "Pafou - Miltonos",
    "lat": 34.6759758721961,
    "lon": 33.0066150049513,
    "name": "Pafou - Miltonos"
  },
  {
    "description": "Pafou - Apostolou Vakalopoulou",
    "lat": 34.6757595695826,
    "lon": 33.0035585577702,
    "name": "Pafou - Apostolou Vakalopoulou"
  },
  {
    "description": "Pafou - Sotirias Skipi",
    "lat": 34.6759760446396,
    "lon": 33.0013099019743,
    "name": "Pafou - Sotirias Skipi"
  },
  {
    "description": "Pafou - 28th Elementary School 1",
    "lat": 34.6773467574147,
    "lon": 32.9978822902509,
    "name": "Pafou - 28th Elementary School 1"
  },
  {
    "description": "Pafou - Monovolikos 1",
    "lat": 34.6789879110542,
    "lon": 32.9944545475505,
    "name": "Pafou - Monovolikos 1"
  },
  {
    "description": "Ilia Kannaourou - Ymittou",
    "lat": 34.6809984771997,
    "lon": 32.9883630016125,
    "name": "Ilia Kannaourou - Ymittou"
  },
  {
    "description": "Ilia Kannaourou - Dimitriou Papanikoli",
    "lat": 34.6807815232888,
    "lon": 32.983778110261,
    "name": "Ilia Kannaourou - Dimitriou Papanikoli"
  },
  {
    "description": "Ilia Kannaourou - Danais",
    "lat": 34.6812857280735,
    "lon": 32.9786035689758,
    "name": "Ilia Kannaourou - Danais"
  },
  {
    "description": "Ilia Kannaourou - Menelaou",
    "lat": 34.6820598471002,
    "lon": 32.9716385485763,
    "name": "Ilia Kannaourou - Menelaou"
  },
  {
    "description": "Ilia Kannaourou - Lefkosias",
    "lat": 34.6832670409223,
    "lon": 32.9668565759133,
    "name": "Ilia Kannaourou - Lefkosias"
  },
  {
    "description": "Archiep. Makariou C´ - Griva Digeni",
    "lat": 34.6871614066692,
    "lon": 32.962149660303,
    "name": "Archiep. Makariou C´ - Griva Digeni"
  },
  {
    "description": "Archiep. Makariou C´ - Apostolou Varnava",
    "lat": 34.6884594368628,
    "lon": 32.9604241065115,
    "name": "Archiep. Makariou C´ - Apostolou Varnava"
  },
  {
    "description": "Archiep. Makariou C´ - Chrysopolitissis",
    "lat": 34.6889459491287,
    "lon": 32.9590482635365,
    "name": "Archiep. Makariou C´ - Chrysopolitissis"
  },
  {
    "description": "Archiep. Makariou C´ - Akropoleos 1",
    "lat": 34.6905769770166,
    "lon": 32.9555865287436,
    "name": "Archiep. Makariou C´ - Akropoleos 1"
  },
  {
    "description": "Archiep. Makariou C - Parthenonos",
    "lat": 34.692262424822,
    "lon": 32.9531836714887,
    "name": "Archiep. Makariou C - Parthenonos"
  },
  {
    "description": "Kantou Community Board 1",
    "lat": 34.6901261803086,
    "lon": 32.9075707068184,
    "name": "Kantou Community Board 1"
  },
  {
    "description": "Troodous - Souni - Zanakia 1",
    "lat": 34.7375836242928,
    "lon": 32.8825020735664,
    "name": "Troodous - Souni - Zanakia 1"
  },
  {
    "description": "Agiou Panteleimonos Ave. - 4th Pano Kyvides 2",
    "lat": 34.754289691128,
    "lon": 32.8615876452801,
    "name": "Agiou Panteleimonos Ave. - 4th Pano Kyvides 2"
  },
  {
    "description": "Agiou Panteleimonos Ave. - 3rd Pano Kyvides 1",
    "lat": 34.7558372460214,
    "lon": 32.8585366149548,
    "name": "Agiou Panteleimonos Ave. - 3rd Pano Kyvides 1"
  },
  {
    "description": "Agiou Panteleimonos Ave. - 2nd Pano Kyvides 1",
    "lat": 34.7586079475665,
    "lon": 32.8528172245803,
    "name": "Agiou Panteleimonos Ave. - 2nd Pano Kyvides 1"
  },
  {
    "description": "Agelikis Sotiriou - 1st Pano Kyvides 1",
    "lat": 34.7609158197729,
    "lon": 32.8450003208322,
    "name": "Agelikis Sotiriou - 1st Pano Kyvides 1"
  },
  {
    "description": "Pano Kyvides - Agios Amvrosios Road",
    "lat": 34.7770141743223,
    "lon": 32.8326093819059,
    "name": "Pano Kyvides - Agios Amvrosios Road"
  },
  {
    "description": "Agios Amvrosios Community Board 1",
    "lat": 34.7805690218496,
    "lon": 32.8274762235454,
    "name": "Agios Amvrosios Community Board 1"
  },
  {
    "description": "Agios Efraim Church 1",
    "lat": 34.7833825209765,
    "lon": 32.8274485060662,
    "name": "Agios Efraim Church 1"
  },
  {
    "description": "Pano Pachna",
    "lat": 34.7763646980416,
    "lon": 32.7915831030831,
    "name": "Pano Pachna"
  },
  {
    "description": "Apost. Petrou And Pavlou Church",
    "lat": 34.7784291303084,
    "lon": 32.7965398145446,
    "name": "Apost. Petrou And Pavlou Church"
  },
  {
    "description": "Distrato Malias",
    "lat": 34.811367881021,
    "lon": 32.789472285737,
    "name": "Distrato Malias"
  },
  {
    "description": "Omodos Elementary School 1",
    "lat": 34.8478991442726,
    "lon": 32.8061479797943,
    "name": "Omodos Elementary School 1"
  },
  {
    "description": "Omodos High School",
    "lat": 34.8501294274644,
    "lon": 32.8079914025801,
    "name": "Omodos High School"
  }
]