[
  {
    "description": "EMEL Bus Station Leontiou A´",
    "lat": 34.6792348518186,
    "lon": 33.0372354212458,
    "name": "EMEL Bus Station Leontiou A´"
  },
  {
    "description": "Gladstonos - Leontiou Machaira",
    "lat": 34.6792604150831,
    "lon": 33.0418311864922,
    "name": "Gladstonos - Leontiou Machaira"
  },
  {
    "description": "Gladstonos - Christodoulou Karydi",
    "lat": 34.6818470538361,
    "lon": 33.0460026357652,
    "name": "Gladstonos - Christodoulou Karydi"
  },
  {
    "description": "B´ Elementary School 1",
    "lat": 34.6830007173559,
    "lon": 33.0476407893716,
    "name": "B´ Elementary School 1"
  },
  {
    "description": "Gladstonos - Michail Koutsofta",
    "lat": 34.6840813268848,
    "lon": 33.0514295767971,
    "name": "Gladstonos - Michail Koutsofta"
  },
  {
    "description": "Kalogries - Courthouses",
    "lat": 34.6849555181869,
    "lon": 33.0527074094777,
    "name": "Kalogries - Courthouses"
  },
  {
    "description": "Agios Nikolaos Church 2",
    "lat": 34.6891647065961,
    "lon": 33.0575138120151,
    "name": "Agios Nikolaos Church 2"
  },
  {
    "description": "Griva Digeni - Griva Digeni Hideout 2",
    "lat": 34.6918135842314,
    "lon": 33.062363203529,
    "name": "Griva Digeni - Griva Digeni Hideout 2"
  },
  {
    "description": "Griva Digeni - Georgiou Neofytou",
    "lat": 34.6938051985473,
    "lon": 33.0649304714732,
    "name": "Griva Digeni - Georgiou Neofytou"
  },
  {
    "description": "Linopetra High School 2",
    "lat": 34.6956166173062,
    "lon": 33.0671046528369,
    "name": "Linopetra High School 2"
  },
  {
    "description": "Kolonakiou - Petrompei Mavromichali",
    "lat": 34.6979766083109,
    "lon": 33.0718343701403,
    "name": "Kolonakiou - Petrompei Mavromichali"
  },
  {
    "description": "Health Centre 2",
    "lat": 34.6995620757721,
    "lon": 33.0746309896614,
    "name": "Health Centre 2"
  },
  {
    "description": "Spyrou Kyprianou Ave. - Dodekanison",
    "lat": 34.7023549708026,
    "lon": 33.0788374315713,
    "name": "Spyrou Kyprianou Ave. - Dodekanison"
  },
  {
    "description": "Spyrou Kyprianou Ave. - Samou",
    "lat": 34.7047867729789,
    "lon": 33.0833823038881,
    "name": "Spyrou Kyprianou Ave. - Samou"
  },
  {
    "description": "Zygi - Kalavasos Road - 1st Stop",
    "lat": 34.7542612821691,
    "lon": 33.3174147503713,
    "name": "Zygi - Kalavasos Road - 1st Stop"
  },
  {
    "description": "Oktagono 1",
    "lat": 34.7514073375787,
    "lon": 33.3156120148902,
    "name": "Oktagono 1"
  },
  {
    "description": "Konstantinoupoleos - Agiou Kyriakou 1",
    "lat": 34.7320650829425,
    "lon": 33.3355278432687,
    "name": "Konstantinoupoleos - Agiou Kyriakou 1"
  },
  {
    "description": "Zygi Elementary School",
    "lat": 34.728936246342,
    "lon": 33.3354059718492,
    "name": "Zygi Elementary School"
  }
]