[
  {
    "description": "EMEL Bus Station Leontiou A´",
    "lat": 34.6792348518186,
    "lon": 33.0372354212458,
    "name": "EMEL Bus Station Leontiou A´"
  },
  {
    "description": "Navarinou - Simou Menardou 1",
    "lat": 34.676276557087,
    "lon": 33.0385767514481,
    "name": "Navarinou - Simou Menardou 1"
  },
  {
    "description": "Gilntiz - Mestzit",
    "lat": 34.6739872221707,
    "lon": 33.0345150912213,
    "name": "Gilntiz - Mestzit"
  },
  {
    "description": "Fragklinou Rousvelt - KEO 1",
    "lat": 34.6706513540189,
    "lon": 33.0316975986689,
    "name": "Fragklinou Rousvelt - KEO 1"
  },
  {
    "description": "Fragklinou Rousvelt - Water Board 1",
    "lat": 34.6689838059398,
    "lon": 33.0285862078789,
    "name": "Fragklinou Rousvelt - Water Board 1"
  },
  {
    "description": "Fragklinou Rousvelt - Synergatismou",
    "lat": 34.6664867793441,
    "lon": 33.0242413375462,
    "name": "Fragklinou Rousvelt - Synergatismou"
  },
  {
    "description": "Fragklinou Rousvelt - Aimilou Veaki",
    "lat": 34.6641429617571,
    "lon": 33.0195256784279,
    "name": "Fragklinou Rousvelt - Aimilou Veaki"
  },
  {
    "description": "Fragklinou Rousvelt - Dekeleias",
    "lat": 34.6616277140389,
    "lon": 33.0140135347199,
    "name": "Fragklinou Rousvelt - Dekeleias"
  },
  {
    "description": "Fragklinou Rousvelt - Evrypolou",
    "lat": 34.6601853806488,
    "lon": 33.0080761962948,
    "name": "Fragklinou Rousvelt - Evrypolou"
  },
  {
    "description": "Fragklinou Rousvelt - Oinouson 1",
    "lat": 34.6594821549923,
    "lon": 33.0047692810409,
    "name": "Fragklinou Rousvelt - Oinouson 1"
  },
  {
    "description": "16 Elementary School - Zakaki 1",
    "lat": 34.6583279339969,
    "lon": 33.002029917563,
    "name": "16 Elementary School - Zakaki 1"
  },
  {
    "description": "23 Elementary School - Agios Spyridonas 1",
    "lat": 34.667923030024,
    "lon": 32.9983518661959,
    "name": "23 Elementary School - Agios Spyridonas 1"
  },
  {
    "description": "Andrea Araouzou - Georgiou Varnakioti",
    "lat": 34.6752093903789,
    "lon": 32.9942037371787,
    "name": "Andrea Araouzou - Georgiou Varnakioti"
  },
  {
    "description": "Andrea Araouzou - Vasilissis Olgas 1",
    "lat": 34.6772835578775,
    "lon": 32.9952515307178,
    "name": "Andrea Araouzou - Vasilissis Olgas 1"
  },
  {
    "description": "Melinas Merkouri - Pafou 1",
    "lat": 34.6792044042366,
    "lon": 32.9960810578524,
    "name": "Melinas Merkouri - Pafou 1"
  },
  {
    "description": "Melinas Merkouri - Polemidia Post Office 1",
    "lat": 34.6809719307378,
    "lon": 32.9965722173211,
    "name": "Melinas Merkouri - Polemidia Post Office 1"
  },
  {
    "description": "Polemidia Lyceum 1",
    "lat": 34.6835871324784,
    "lon": 32.9968231970632,
    "name": "Polemidia Lyceum 1"
  },
  {
    "description": "Panagias Evangelistrias - Kydonion",
    "lat": 34.6938312649678,
    "lon": 33.007773753766,
    "name": "Panagias Evangelistrias - Kydonion"
  },
  {
    "description": "Giannou Kranidioti - Amaryllidos",
    "lat": 34.6961485015986,
    "lon": 33.0121959620334,
    "name": "Giannou Kranidioti - Amaryllidos"
  },
  {
    "description": "Giannou Kranidioti - Agias Anastasias",
    "lat": 34.7033182641507,
    "lon": 33.0040838704207,
    "name": "Giannou Kranidioti - Agias Anastasias"
  },
  {
    "description": "Lemesos - Troodos Road - Argyri Gavala 1",
    "lat": 34.7087921846141,
    "lon": 33.0001747225424,
    "name": "Lemesos - Troodos Road - Argyri Gavala 1"
  },
  {
    "description": "The Heritage 1",
    "lat": 34.7398849078704,
    "lon": 32.985798477432,
    "name": "The Heritage 1"
  },
  {
    "description": "Polemidia - Alassa Road 1",
    "lat": 34.7446276670548,
    "lon": 32.9812419940673,
    "name": "Polemidia - Alassa Road 1"
  },
  {
    "description": "Lemesos - Troodos Road - 1st  Alassa 1",
    "lat": 34.7618048055015,
    "lon": 32.9280338967586,
    "name": "Lemesos - Troodos Road - 1st  Alassa 1"
  },
  {
    "description": "Distrato Lanias - Doros 1",
    "lat": 34.8162553716525,
    "lon": 32.9161009807602,
    "name": "Distrato Lanias - Doros 1"
  },
  {
    "description": "Lemesos - Troodos Road - Laneia 1",
    "lat": 34.8228625437631,
    "lon": 32.9121248085747,
    "name": "Lemesos - Troodos Road - Laneia 1"
  },
  {
    "description": "Panagias Eleousis Ave. - 5th Trimiklini 1",
    "lat": 34.8394360639473,
    "lon": 32.9107619019963,
    "name": "Panagias Eleousis Ave. - 5th Trimiklini 1"
  },
  {
    "description": "Panagias Eleousis Ave. - 4th Trimiklini 1",
    "lat": 34.8442986235579,
    "lon": 32.9135786634762,
    "name": "Panagias Eleousis Ave. - 4th Trimiklini 1"
  },
  {
    "description": "Panagias Eleousas Church 1",
    "lat": 34.8459473851233,
    "lon": 32.9115314890146,
    "name": "Panagias Eleousas Church 1"
  },
  {
    "description": "Trimiklini Elementary School 1",
    "lat": 34.8504019481679,
    "lon": 32.911307944914,
    "name": "Trimiklini Elementary School 1"
  },
  {
    "description": "Panagias Eleousis Ave. - 1st Trimiklini 1",
    "lat": 34.8538476881258,
    "lon": 32.9126825972594,
    "name": "Panagias Eleousis Ave. - 1st Trimiklini 1"
  },
  {
    "description": "Distrato Pelendriou 1",
    "lat": 34.8602057367276,
    "lon": 32.9135292087299,
    "name": "Distrato Pelendriou 1"
  },
  {
    "description": "Trimiklini - Pelendri Road 1",
    "lat": 34.88999599997,
    "lon": 32.9568256089772,
    "name": "Trimiklini - Pelendri Road 1"
  },
  {
    "description": "Pelendri Village Center 1",
    "lat": 34.8957432648181,
    "lon": 32.9665087859962,
    "name": "Pelendri Village Center 1"
  },
  {
    "description": "Pelendri Elementary School 1",
    "lat": 34.8944450828209,
    "lon": 32.9678117284348,
    "name": "Pelendri Elementary School 1"
  },
  {
    "description": "Nikou Karasamani - 1st Pelendri 1",
    "lat": 34.8946262233217,
    "lon": 32.9709418398885,
    "name": "Nikou Karasamani - 1st Pelendri 1"
  }
]