[
  {
    "description": "New Port - Passenger Building",
    "lat": 34.6556927006373,
    "lon": 33.0221319488309,
    "name": "New Port - Passenger Building"
  },
  {
    "description": "Ave. Omonoias - Optikou Nikolaidi",
    "lat": 34.6615189433628,
    "lon": 33.0182153884961,
    "name": "Ave. Omonoias - Optikou Nikolaidi"
  },
  {
    "description": "Fragklinou Rousvelt - Social Insurance",
    "lat": 34.6677399450672,
    "lon": 33.0258352588422,
    "name": "Fragklinou Rousvelt - Social Insurance"
  },
  {
    "description": "Tzelal Bagiar - Agios Antonios Church 2",
    "lat": 34.6718760191865,
    "lon": 33.0379088772409,
    "name": "Tzelal Bagiar - Agios Antonios Church 2"
  },
  {
    "description": "Archiep. Leontiou A´ - Intercity",
    "lat": 34.6785404522073,
    "lon": 33.0373006075433,
    "name": "Archiep. Leontiou A´ - Intercity"
  },
  {
    "description": "Agios Georgios Chavouzas Church 1",
    "lat": 34.6935960503076,
    "lon": 33.0155911361463,
    "name": "Agios Georgios Chavouzas Church 1"
  },
  {
    "description": "Dimokratias Ave. - Andrea Theodosiou",
    "lat": 34.7788824240587,
    "lon": 32.4444186619216,
    "name": "Dimokratias Ave. - Andrea Theodosiou"
  },
  {
    "description": "Dimokratias Ave. - Thivon",
    "lat": 34.7722103112332,
    "lon": 32.4426492813995,
    "name": "Dimokratias Ave. - Thivon"
  },
  {
    "description": "Fire Station 2",
    "lat": 34.7691594592919,
    "lon": 32.4361458242732,
    "name": "Fire Station 2"
  },
  {
    "description": "Stratigou Alex. Papagou - Evzonon",
    "lat": 34.7743159110939,
    "lon": 32.4357938204752,
    "name": "Stratigou Alex. Papagou - Evzonon"
  },
  {
    "description": "Pafos District Courthouse 2",
    "lat": 34.7748898009398,
    "lon": 32.4273748382485,
    "name": "Pafos District Courthouse 2"
  },
  {
    "description": "Karavella Bus Station",
    "lat": 34.778616320876,
    "lon": 32.4221249543794,
    "name": "Karavella Bus Station"
  }
]