[
  {
    "description": "Lofou",
    "lat": 34.8157008041301,
    "lon": 32.8786955095416,
    "name": "Lofou"
  },
  {
    "description": "Agios Therapon 2",
    "lat": 34.797395115222,
    "lon": 32.8399362417252,
    "name": "Agios Therapon 2"
  },
  {
    "description": "Agelikis Sotiriou - 1st Pano Kyvides 2",
    "lat": 34.760816860682,
    "lon": 32.8451862646227,
    "name": "Agelikis Sotiriou - 1st Pano Kyvides 2"
  },
  {
    "description": "Agiou Panteleimonos Ave. - 2nd Pano Kyvides 2",
    "lat": 34.7585362670414,
    "lon": 32.8531997859837,
    "name": "Agiou Panteleimonos Ave. - 2nd Pano Kyvides 2"
  },
  {
    "description": "Agiou Panteleimonos Ave. - 3rd Pano Kyvides 2",
    "lat": 34.7560533550348,
    "lon": 32.858263087262,
    "name": "Agiou Panteleimonos Ave. - 3rd Pano Kyvides 2"
  },
  {
    "description": "Agiou Panteleimonos Ave. - 4th Pano Kyvides 2",
    "lat": 34.7544968639421,
    "lon": 32.8613797025455,
    "name": "Agiou Panteleimonos Ave. - 4th Pano Kyvides 2"
  },
  {
    "description": "Archangelos Michail Church 2",
    "lat": 34.7378319296284,
    "lon": 32.8876141401291,
    "name": "Archangelos Michail Church 2"
  },
  {
    "description": "Antoniou Volou - Souni - Zanakia 2",
    "lat": 34.7280257332521,
    "lon": 32.8934055122395,
    "name": "Antoniou Volou - Souni - Zanakia 2"
  },
  {
    "description": "Kantou Community Board",
    "lat": 34.6894228593077,
    "lon": 32.907669747071,
    "name": "Kantou Community Board"
  }
]