[
  {
    "description": "Makario Stadium Bus Station",
    "lat": 35.1484684249371,
    "lon": 33.3141074004373,
    "name": "Makario Stadium Bus Station"
  },
  {
    "description": "Cyprus International Fair",
    "lat": 35.1496594592518,
    "lon": 33.317273835866,
    "name": "Cyprus International Fair"
  },
  {
    "description": "Ilia Papakyriakou - Cyprus International Fair",
    "lat": 35.15184127593,
    "lon": 33.3174030737528,
    "name": "Ilia Papakyriakou - Cyprus International Fair"
  },
  {
    "description": "Ilia Papakyriakou - Nikolaou Skoufa",
    "lat": 35.1550725464794,
    "lon": 33.3162078888731,
    "name": "Ilia Papakyriakou - Nikolaou Skoufa"
  },
  {
    "description": "Ilia Papakyriakou - Prodromou Xenofontos",
    "lat": 35.1574072477434,
    "lon": 33.3130218253374,
    "name": "Ilia Papakyriakou - Prodromou Xenofontos"
  },
  {
    "description": "Makedonitissis - Volou",
    "lat": 35.1598896327,
    "lon": 33.3119882300981,
    "name": "Makedonitissis - Volou"
  },
  {
    "description": "Makedonitissis - School for the Deaf 2",
    "lat": 35.1637176613547,
    "lon": 33.3136389523771,
    "name": "Makedonitissis - School for the Deaf 2"
  },
  {
    "description": "University of Nicosia 2",
    "lat": 35.1662414425995,
    "lon": 33.3140329735955,
    "name": "University of Nicosia 2"
  },
  {
    "description": "Georg. Griva Digeni Ave. - Kolakasidi Roundabout 1",
    "lat": 35.1658331978129,
    "lon": 33.3184347245845,
    "name": "Georg. Griva Digeni Ave. - Kolakasidi Roundabout 1"
  },
  {
    "description": "Markou Drakou - Ag. Dometios-Engomi Ind. Area 2",
    "lat": 35.1649078110405,
    "lon": 33.3205723584704,
    "name": "Markou Drakou - Ag. Dometios-Engomi Ind. Area 2"
  },
  {
    "description": "Ave. Georgiou Griva Digeni - Neas Egkomis",
    "lat": 35.1643854001784,
    "lon": 33.3237437169393,
    "name": "Ave. Georgiou Griva Digeni - Neas Egkomis"
  },
  {
    "description": "Ave. Georgiou Griva Digeni - Hilton Park 2",
    "lat": 35.1642034480622,
    "lon": 33.3276960213495,
    "name": "Ave. Georgiou Griva Digeni - Hilton Park 2"
  },
  {
    "description": "Ave. Georgiou Griva Digeni - 25 Martiou",
    "lat": 35.164079278944,
    "lon": 33.3302540050329,
    "name": "Ave. Georgiou Griva Digeni - 25 Martiou"
  },
  {
    "description": "Ave. Georgiou Griva Digeni - Grigori Afxentiou",
    "lat": 35.1631463342177,
    "lon": 33.3350596846282,
    "name": "Ave. Georgiou Griva Digeni - Grigori Afxentiou"
  },
  {
    "description": "Ave. Georgiou Griva Digeni - Iakovou Patatsou",
    "lat": 35.1621033724326,
    "lon": 33.3372185343613,
    "name": "Ave. Georgiou Griva Digeni - Iakovou Patatsou"
  },
  {
    "description": "Ave. Georgiou Griva Digeni - Metochi Kikkou 2",
    "lat": 35.1609041560846,
    "lon": 33.3404197967511,
    "name": "Ave. Georgiou Griva Digeni - Metochi Kikkou 2"
  },
  {
    "description": "Ave. Georgiou Griva Digeni - Engomi High School 2",
    "lat": 35.1624413524021,
    "lon": 33.3452795308849,
    "name": "Ave. Georgiou Griva Digeni - Engomi High School 2"
  },
  {
    "description": "Ave. Georgiou Griva Digeni - Prodromou 2",
    "lat": 35.1642091903337,
    "lon": 33.3482627501334,
    "name": "Ave. Georgiou Griva Digeni - Prodromou 2"
  },
  {
    "description": "Ave. Georgiou Griva Digeni - Lordou Vyronos Avenue",
    "lat": 35.163945061928,
    "lon": 33.3522914978052,
    "name": "Ave. Georgiou Griva Digeni - Lordou Vyronos Avenue"
  },
  {
    "description": "Ave. Georgiou Griva Digeni - Kosta Chatzopoulou",
    "lat": 35.1635857702818,
    "lon": 33.3549033152014,
    "name": "Ave. Georgiou Griva Digeni - Kosta Chatzopoulou"
  },
  {
    "description": "Ave. Georgiou Griva Digeni - Themistokli Dervi",
    "lat": 35.1631461113951,
    "lon": 33.357229265428,
    "name": "Ave. Georgiou Griva Digeni - Themistokli Dervi"
  },
  {
    "description": "Ave. Spyrou Kyprianou - Giannou Kranidioti",
    "lat": 35.1631112610381,
    "lon": 33.3598644250527,
    "name": "Ave. Spyrou Kyprianou - Giannou Kranidioti"
  },
  {
    "description": "Ave. Spyrou Kyprianou - E.A.C. 2",
    "lat": 35.1639803853698,
    "lon": 33.3617239719105,
    "name": "Ave. Spyrou Kyprianou - E.A.C. 2"
  },
  {
    "description": "Ave. Digeni Akrita - Kypranoros",
    "lat": 35.1646751214781,
    "lon": 33.3645930042265,
    "name": "Ave. Digeni Akrita - Kypranoros"
  },
  {
    "description": "Ave. Digeni Akrita - Theodosiou",
    "lat": 35.1655034778675,
    "lon": 33.3679787830049,
    "name": "Ave. Digeni Akrita - Theodosiou"
  },
  {
    "description": "Ave. Digeni Akrita - Agios Antonios Market 1",
    "lat": 35.1671199487739,
    "lon": 33.37014932196,
    "name": "Ave. Digeni Akrita - Agios Antonios Market 1"
  },
  {
    "description": "Ave. Digeni Akrita - Polykleitou",
    "lat": 35.1690862188124,
    "lon": 33.3729145296715,
    "name": "Ave. Digeni Akrita - Polykleitou"
  },
  {
    "description": "Ave. Digeni Akrita - Archemou",
    "lat": 35.1703899248265,
    "lon": 33.3741394217228,
    "name": "Ave. Digeni Akrita - Archemou"
  },
  {
    "description": "Markou Drakou - Aristeidou",
    "lat": 35.1726838864465,
    "lon": 33.3758850464176,
    "name": "Markou Drakou - Aristeidou"
  },
  {
    "description": "Agiou Andreou - Praxandrou",
    "lat": 35.1748269268017,
    "lon": 33.3768613293833,
    "name": "Agiou Andreou - Praxandrou"
  },
  {
    "description": "Agiou Andreou - Evangelistria Church 1",
    "lat": 35.1766951245031,
    "lon": 33.3792201602236,
    "name": "Agiou Andreou - Evangelistria Church 1"
  },
  {
    "description": "Agiou Andreou - Tilou",
    "lat": 35.1791099150346,
    "lon": 33.3826579491893,
    "name": "Agiou Andreou - Tilou"
  },
  {
    "description": "Agiou Andreou - Nikolaou Ioannou",
    "lat": 35.1810949032258,
    "lon": 33.3851164334229,
    "name": "Agiou Andreou - Nikolaou Ioannou"
  },
  {
    "description": "Kantaras - Evagorou",
    "lat": 35.1831718359245,
    "lon": 33.3870043500282,
    "name": "Kantaras - Evagorou"
  },
  {
    "description": "Kantaras ",
    "lat": 35.184338694967,
    "lon": 33.3886793446841,
    "name": "Kantaras "
  },
  {
    "description": "Agiou Ilarionos - Roundabout Sopaz 1",
    "lat": 35.1843453634493,
    "lon": 33.3922050185236,
    "name": "Agiou Ilarionos - Roundabout Sopaz 1"
  },
  {
    "description": "Agiou Ilarionos - Municipal Market 1",
    "lat": 35.1811807931646,
    "lon": 33.3948476730223,
    "name": "Agiou Ilarionos - Municipal Market 1"
  },
  {
    "description": "Agiou Ilarionos",
    "lat": 35.177941088788,
    "lon": 33.3956337247186,
    "name": "Agiou Ilarionos"
  },
  {
    "description": "Kolokotroni - Enotitos",
    "lat": 35.1776400958775,
    "lon": 33.3939190111928,
    "name": "Kolokotroni - Enotitos"
  },
  {
    "description": "Enotitos - Mpelapais",
    "lat": 35.1778827607552,
    "lon": 33.3913832386274,
    "name": "Enotitos - Mpelapais"
  },
  {
    "description": "Enotitos - Michail Paridi",
    "lat": 35.1750751665807,
    "lon": 33.3896016701796,
    "name": "Enotitos - Michail Paridi"
  },
  {
    "description": "Agapis - Zappeiou",
    "lat": 35.1731828561241,
    "lon": 33.3863859545316,
    "name": "Agapis - Zappeiou"
  },
  {
    "description": "Ave. Tzon Kennenty - Enotitos",
    "lat": 35.1726461165207,
    "lon": 33.3878659495645,
    "name": "Ave. Tzon Kennenty - Enotitos"
  },
  {
    "description": "Ave. Tzon Kennenty - Roundabout Sopaz 2",
    "lat": 35.1727945877929,
    "lon": 33.3949389046188,
    "name": "Ave. Tzon Kennenty - Roundabout Sopaz 2"
  },
  {
    "description": "Ave. Ammochostou - Semelis",
    "lat": 35.1690156471455,
    "lon": 33.3979294927784,
    "name": "Ave. Ammochostou - Semelis"
  },
  {
    "description": "Ammochostou - Dikomou",
    "lat": 35.1635471696334,
    "lon": 33.3991765939793,
    "name": "Ammochostou - Dikomou"
  },
  {
    "description": "Leoforos Ammochostou - Larnakos",
    "lat": 35.1576919775665,
    "lon": 33.3973692743448,
    "name": "Leoforos Ammochostou - Larnakos"
  }
]