[
  {
    "description": "Makario Stadium Bus Station",
    "lat": 35.1484684249371,
    "lon": 33.3141074004373,
    "name": "Makario Stadium Bus Station"
  },
  {
    "description": "Apolloneio Hospital",
    "lat": 35.1478491445453,
    "lon": 33.3198906545292,
    "name": "Apolloneio Hospital"
  },
  {
    "description": "Avenue Lefkotheou - Archangelou Michail",
    "lat": 35.1477776953094,
    "lon": 33.3230302033002,
    "name": "Avenue Lefkotheou - Archangelou Michail"
  },
  {
    "description": "Makedonitissis - Amazonon",
    "lat": 35.1468919643742,
    "lon": 33.3271545442767,
    "name": "Makedonitissis - Amazonon"
  },
  {
    "description": "Makedonitissis - Old Strovolos Cemetery 1",
    "lat": 35.1466568520456,
    "lon": 33.3307215403269,
    "name": "Makedonitissis - Old Strovolos Cemetery 1"
  },
  {
    "description": "Elaionon - Anoixeos",
    "lat": 35.1453517476759,
    "lon": 33.3331424187226,
    "name": "Elaionon - Anoixeos"
  },
  {
    "description": "Elaionon - Kostaki Ompasi",
    "lat": 35.1430468407175,
    "lon": 33.3318705818594,
    "name": "Elaionon - Kostaki Ompasi"
  },
  {
    "description": "Elaionon - Evzonon",
    "lat": 35.1389784554296,
    "lon": 33.3291646466809,
    "name": "Elaionon - Evzonon"
  },
  {
    "description": "Evzonon - Evryviadou",
    "lat": 35.1376290467582,
    "lon": 33.3313107177189,
    "name": "Evzonon - Evryviadou"
  },
  {
    "description": "Public Works Department 2",
    "lat": 35.1381279815904,
    "lon": 33.3335081633724,
    "name": "Public Works Department 2"
  },
  {
    "description": "Ave. Strovolou - Ilia Venezi",
    "lat": 35.1408111281378,
    "lon": 33.3381955135068,
    "name": "Ave. Strovolou - Ilia Venezi"
  },
  {
    "description": "Strovolos City Hall 2",
    "lat": 35.1433329628898,
    "lon": 33.3424653377379,
    "name": "Strovolos City Hall 2"
  },
  {
    "description": "Ave. Strovolou - Agias Marinas",
    "lat": 35.1463101046099,
    "lon": 33.3451235590251,
    "name": "Ave. Strovolou - Agias Marinas"
  },
  {
    "description": "Ave. Strovolou - SEK 2",
    "lat": 35.1491470633039,
    "lon": 33.3463322036359,
    "name": "Ave. Strovolou - SEK 2"
  },
  {
    "description": "Ave. Strovolou - Themidos",
    "lat": 35.1515514101736,
    "lon": 33.3474622409941,
    "name": "Ave. Strovolou - Themidos"
  },
  {
    "description": "Presidential Palace",
    "lat": 35.1544421916331,
    "lon": 33.3487591098419,
    "name": "Presidential Palace"
  },
  {
    "description": "Ave. Dimostheni Severi - Apelli",
    "lat": 35.1577789119856,
    "lon": 33.3517488636013,
    "name": "Ave. Dimostheni Severi - Apelli"
  },
  {
    "description": "Ave. Dimostheni Severi - Markou Mpotsari",
    "lat": 35.1597138377975,
    "lon": 33.3530418545614,
    "name": "Ave. Dimostheni Severi - Markou Mpotsari"
  },
  {
    "description": "Ave. Dimostheni Severi - Konstantinou Kanari",
    "lat": 35.1615069141695,
    "lon": 33.3534997927003,
    "name": "Ave. Dimostheni Severi - Konstantinou Kanari"
  },
  {
    "description": "Ave. Dimostheni Severi - Ministry of Interior",
    "lat": 35.1652643510752,
    "lon": 33.3544274541658,
    "name": "Ave. Dimostheni Severi - Ministry of Interior"
  },
  {
    "description": "Ministry of Finance",
    "lat": 35.1686262204901,
    "lon": 33.3549471767997,
    "name": "Ministry of Finance"
  },
  {
    "description": "Solomos Square Alighting ",
    "lat": 35.170392452312,
    "lon": 33.3583920449795,
    "name": "Solomos Square Alighting "
  }
]