[
  {
    "description": "25 Martiou ",
    "lat": 35.1784957473616,
    "lon": 33.2044960178415,
    "name": "25 Martiou "
  },
  {
    "description": "Mammari",
    "lat": 35.177546307021,
    "lon": 33.2060531488896,
    "name": "Mammari"
  },
  {
    "description": "Mammari Square",
    "lat": 35.1740231624193,
    "lon": 33.2045397275299,
    "name": "Mammari Square"
  },
  {
    "description": "Kon. Palaiologou - 1st Mammari Setl.",
    "lat": 35.1717152861903,
    "lon": 33.1988124957911,
    "name": "Kon. Palaiologou - 1st Mammari Setl."
  },
  {
    "description": "Kon. Palaiologou - 2nd Mammari Setl.",
    "lat": 35.1699470619706,
    "lon": 33.1993353006111,
    "name": "Kon. Palaiologou - 2nd Mammari Setl."
  },
  {
    "description": "Savva Rotsidi - 3rd Mammari Setl.",
    "lat": 35.1682188458578,
    "lon": 33.2029109553754,
    "name": "Savva Rotsidi - 3rd Mammari Setl."
  },
  {
    "description": "Ilektras - Mammari",
    "lat": 35.1656431567137,
    "lon": 33.2063415654976,
    "name": "Ilektras - Mammari"
  },
  {
    "description": "Kokkinotrimithia Police Station 2",
    "lat": 35.1486976912466,
    "lon": 33.2022806213232,
    "name": "Kokkinotrimithia Police Station 2"
  },
  {
    "description": "Grigori Afxentiou - Archiepiskopou Kyprianou",
    "lat": 35.1484221359408,
    "lon": 33.2052770815661,
    "name": "Grigori Afxentiou - Archiepiskopou Kyprianou"
  },
  {
    "description": "Grigori Afxentiou - Apostolos Varnavas Church 2",
    "lat": 35.148560691633,
    "lon": 33.2086258904512,
    "name": "Grigori Afxentiou - Apostolos Varnavas Church 2"
  }
]