[
  {
    "description": "Agios Georgios Church",
    "lat": 34.714594460379,
    "lon": 32.5322150890845,
    "name": "Agios Georgios Church"
  },
  {
    "description": "Mandria Cultural Centre",
    "lat": 34.7156245904966,
    "lon": 32.5304182563232,
    "name": "Mandria Cultural Centre"
  },
  {
    "description": "Gypsou - Kalopsidas",
    "lat": 34.7181818137022,
    "lon": 32.5317689581394,
    "name": "Gypsou - Kalopsidas"
  },
  {
    "description": "Agiou Onisiforou - Highway Exit 2",
    "lat": 34.7288745697879,
    "lon": 32.5311734565345,
    "name": "Agiou Onisiforou - Highway Exit 2"
  },
  {
    "description": "Agios Onisiforos Church 2",
    "lat": 34.7354843404983,
    "lon": 32.5334628430758,
    "name": "Agios Onisiforos Church 2"
  },
  {
    "description": "Spyrou Kyprianou - Kosta Karnavalou",
    "lat": 34.7357674571862,
    "lon": 32.5367601727723,
    "name": "Spyrou Kyprianou - Kosta Karnavalou"
  },
  {
    "description": "Kosta Karnavalou- Andrea Tselepou",
    "lat": 34.736852633348,
    "lon": 32.5375624722282,
    "name": "Kosta Karnavalou- Andrea Tselepou"
  },
  {
    "description": "Andrea Tselepou - Giannou Kraniditi",
    "lat": 34.7391841059254,
    "lon": 32.5364789276549,
    "name": "Andrea Tselepou - Giannou Kraniditi"
  },
  {
    "description": "Anarita Elementary School 2",
    "lat": 34.7411257707114,
    "lon": 32.5348622137584,
    "name": "Anarita Elementary School 2"
  },
  {
    "description": "Agia Marina Church 2",
    "lat": 34.740197661607,
    "lon": 32.532693507137,
    "name": "Agia Marina Church 2"
  },
  {
    "description": "Agias Marinas - 1st Stop",
    "lat": 34.739144194864,
    "lon": 32.5307658866717,
    "name": "Agias Marinas - 1st Stop"
  },
  {
    "description": "Agias Marinas - Lemesos - Pafos Highway 2",
    "lat": 34.7366452544019,
    "lon": 32.5258425052475,
    "name": "Agias Marinas - Lemesos - Pafos Highway 2"
  },
  {
    "description": "Georgiou Griva Digeni Ave. - Lemesos - Pafos Hwy",
    "lat": 34.7353612399918,
    "lon": 32.5226383248864,
    "name": "Georgiou Griva Digeni Ave. - Lemesos - Pafos Hwy"
  },
  {
    "description": "Georgiou Griva Digeni Ave. - Rodosthenous",
    "lat": 34.7314012649221,
    "lon": 32.5177566695643,
    "name": "Georgiou Griva Digeni Ave. - Rodosthenous"
  },
  {
    "description": "Salaminos - Keryneias 2",
    "lat": 34.733286056116,
    "lon": 32.5177784908808,
    "name": "Salaminos - Keryneias 2"
  },
  {
    "description": "Salaminos - Morfou",
    "lat": 34.7347114767513,
    "lon": 32.5156619887918,
    "name": "Salaminos - Morfou"
  },
  {
    "description": "Salaminos - Ioanni Makrygianni 2",
    "lat": 34.7328174078788,
    "lon": 32.5155747306038,
    "name": "Salaminos - Ioanni Makrygianni 2"
  },
  {
    "description": "Timi Elementary School 2",
    "lat": 34.7300554396768,
    "lon": 32.5149354769929,
    "name": "Timi Elementary School 2"
  },
  {
    "description": "Salaminos - Archiep. Makariou C` Ave. 2",
    "lat": 34.7289111257545,
    "lon": 32.512910546455,
    "name": "Salaminos - Archiep. Makariou C` Ave. 2"
  },
  {
    "description": "Archiep. Makariou C` Ave. - Anexartisias 2",
    "lat": 34.7286638056832,
    "lon": 32.5119508057315,
    "name": "Archiep. Makariou C` Ave. - Anexartisias 2"
  },
  {
    "description": "4th Stop Acheleia",
    "lat": 34.7345136680278,
    "lon": 32.4958044062628,
    "name": "4th Stop Acheleia"
  },
  {
    "description": "Ag. Georgios Church - Acheleia 2",
    "lat": 34.7382228312019,
    "lon": 32.4857100615028,
    "name": "Ag. Georgios Church - Acheleia 2"
  },
  {
    "description": "2nd Stop Acheleia",
    "lat": 34.7402995485645,
    "lon": 32.4799620168692,
    "name": "2nd Stop Acheleia"
  },
  {
    "description": "American Academy 2",
    "lat": 34.7449272669711,
    "lon": 32.4740445759668,
    "name": "American Academy 2"
  },
  {
    "description": "Elea Golf Club",
    "lat": 34.7475868776227,
    "lon": 32.4718208475347,
    "name": "Elea Golf Club"
  },
  {
    "description": "Archiep. Makariou C` Ave. - Ag. Sergiou 2",
    "lat": 34.7496650436112,
    "lon": 32.4686174095776,
    "name": "Archiep. Makariou C` Ave. - Ag. Sergiou 2"
  },
  {
    "description": "Archiep. Makariou C` Ave. - G. Vasileiadi",
    "lat": 34.753011603243,
    "lon": 32.4647282371788,
    "name": "Archiep. Makariou C` Ave. - G. Vasileiadi"
  },
  {
    "description": "Archiep. Makariou C` Ave. - Ag. Sergiou 2",
    "lat": 34.7564595946437,
    "lon": 32.4613734773989,
    "name": "Archiep. Makariou C` Ave. - Ag. Sergiou 2"
  },
  {
    "description": "Archiep. Makariou C` Ave. - Markou Drakou",
    "lat": 34.7577215568147,
    "lon": 32.4592237027772,
    "name": "Archiep. Makariou C` Ave. - Markou Drakou"
  },
  {
    "description": "Archiep. Makariou C` Ave. - Ippokratous",
    "lat": 34.7586955567914,
    "lon": 32.4572177929723,
    "name": "Archiep. Makariou C` Ave. - Ippokratous"
  },
  {
    "description": "Archiep. Makariou C` Ave. - Arsinois",
    "lat": 34.7595984592426,
    "lon": 32.4554526898932,
    "name": "Archiep. Makariou C` Ave. - Arsinois"
  },
  {
    "description": "Archiep. Makariou C` Ave. - Korytsas",
    "lat": 34.7605031851966,
    "lon": 32.4520922254356,
    "name": "Archiep. Makariou C` Ave. - Korytsas"
  },
  {
    "description": "Archiep. Makariou C` Ave. - Kosta Karnavalou",
    "lat": 34.7620282607071,
    "lon": 32.450333831363,
    "name": "Archiep. Makariou C` Ave. - Kosta Karnavalou"
  },
  {
    "description": "Archiep. Makariou C` Ave. - Kyr. Partasidi",
    "lat": 34.7637497118435,
    "lon": 32.4481369780267,
    "name": "Archiep. Makariou C` Ave. - Kyr. Partasidi"
  },
  {
    "description": "A` High School - Ag. Theodoros 2",
    "lat": 34.7667249358952,
    "lon": 32.4440411799213,
    "name": "A` High School - Ag. Theodoros 2"
  },
  {
    "description": "Stelios Kyriakides Stadium",
    "lat": 34.7692365888427,
    "lon": 32.4411393633762,
    "name": "Stelios Kyriakides Stadium"
  },
  {
    "description": "7 Elementary School - Agios Kendeas 2",
    "lat": 34.7766990894467,
    "lon": 32.4247721878265,
    "name": "7 Elementary School - Agios Kendeas 2"
  },
  {
    "description": "Karavella Bus Station",
    "lat": 34.778616320876,
    "lon": 32.4221249543794,
    "name": "Karavella Bus Station"
  }
]