[
  {
    "description": "Archiep. Makariou C - 1st Mitsero",
    "lat": 35.0414282341003,
    "lon": 33.1209574030802,
    "name": "Archiep. Makariou C - 1st Mitsero"
  },
  {
    "description": "Mitsero Square",
    "lat": 35.0425058203378,
    "lon": 33.1253885966467,
    "name": "Mitsero Square"
  },
  {
    "description": "Archiep. Makariou C´ - 3rd Mitsero",
    "lat": 35.0417107656946,
    "lon": 33.1268565931627,
    "name": "Archiep. Makariou C´ - 3rd Mitsero"
  },
  {
    "description": "Archiep. Makariou C´ - 4th Mitsero",
    "lat": 35.0411045000195,
    "lon": 33.1288511371377,
    "name": "Archiep. Makariou C´ - 4th Mitsero"
  },
  {
    "description": "Archiep. Makariou C´ - 5th Mitsero",
    "lat": 35.0407764211205,
    "lon": 33.132063114364,
    "name": "Archiep. Makariou C´ - 5th Mitsero"
  },
  {
    "description": "Mitsero Community Stadium",
    "lat": 35.0401339641269,
    "lon": 33.1340904300918,
    "name": "Mitsero Community Stadium"
  },
  {
    "description": "Agia Varvara Church",
    "lat": 35.0410532052962,
    "lon": 33.1424685603801,
    "name": "Agia Varvara Church"
  },
  {
    "description": "Panagias Pantanassis - 5th Agrokipia 1",
    "lat": 35.0416092283336,
    "lon": 33.1450461235826,
    "name": "Panagias Pantanassis - 5th Agrokipia 1"
  },
  {
    "description": "Panagias Pantanassis - 4th Agrokipia 2",
    "lat": 35.0429439603279,
    "lon": 33.1522740381734,
    "name": "Panagias Pantanassis - 4th Agrokipia 2"
  },
  {
    "description": "Agrokipia Elementary School 2",
    "lat": 35.0445543132978,
    "lon": 33.1552374787338,
    "name": "Agrokipia Elementary School 2"
  },
  {
    "description": "Panagias Pantanassis - 2nd Agrokipia",
    "lat": 35.0440349799271,
    "lon": 33.1593591740477,
    "name": "Panagias Pantanassis - 2nd Agrokipia"
  },
  {
    "description": "Panagias Pantanassis - 1st Agrokipia 2",
    "lat": 35.0444773124327,
    "lon": 33.165730481104,
    "name": "Panagias Pantanassis - 1st Agrokipia 2"
  },
  {
    "description": "Griva Digeni-Leoforos Dimokratias",
    "lat": 35.045572653359,
    "lon": 33.1816645053228,
    "name": "Griva Digeni-Leoforos Dimokratias"
  },
  {
    "description": "Agios Ioannis Malountas",
    "lat": 35.065931187984,
    "lon": 33.1834095603501,
    "name": "Agios Ioannis Malountas"
  },
  {
    "description": "Agios Ioannis",
    "lat": 35.0657933628893,
    "lon": 33.185098242747,
    "name": "Agios Ioannis"
  },
  {
    "description": "B´  Regional High School Nicosia - Malounta",
    "lat": 35.0451253325623,
    "lon": 33.1852818690084,
    "name": "B´  Regional High School Nicosia - Malounta"
  },
  {
    "description": "Tamasos Bus Station",
    "lat": 35.0432605918433,
    "lon": 33.1899156249265,
    "name": "Tamasos Bus Station"
  }
]