[
  {
    "description": "MY MALL",
    "lat": 34.6512127016143,
    "lon": 32.9954930950808,
    "name": "MY MALL"
  },
  {
    "description": "Fragklinou Rousvelt - Andrea Iordanous",
    "lat": 34.6573810646342,
    "lon": 32.9993888489748,
    "name": "Fragklinou Rousvelt - Andrea Iordanous"
  },
  {
    "description": "16 Elementary School - Zakaki 2",
    "lat": 34.6585082893475,
    "lon": 33.0022372795802,
    "name": "16 Elementary School - Zakaki 2"
  },
  {
    "description": "Fragklinou Rousvelt - Oinouson 2",
    "lat": 34.6595362714255,
    "lon": 33.0045400965739,
    "name": "Fragklinou Rousvelt - Oinouson 2"
  },
  {
    "description": "Fragklinou Rousvelt - Pierias",
    "lat": 34.6602935894571,
    "lon": 33.0081744309292,
    "name": "Fragklinou Rousvelt - Pierias"
  },
  {
    "description": "Fragklinou Rousvelt - Saronikou",
    "lat": 34.6614294023094,
    "lon": 33.013271353294,
    "name": "Fragklinou Rousvelt - Saronikou"
  },
  {
    "description": "Fragklinou Rousvelt - New Port Traffic Lights",
    "lat": 34.6635480288833,
    "lon": 33.0178884059459,
    "name": "Fragklinou Rousvelt - New Port Traffic Lights"
  },
  {
    "description": "Fragklinou Rousvelt - Galilaiou",
    "lat": 34.6659910008168,
    "lon": 33.0231715682533,
    "name": "Fragklinou Rousvelt - Galilaiou"
  },
  {
    "description": "Fragklinou Rousvelt - Social Insurance",
    "lat": 34.6677399450672,
    "lon": 33.0258352588422,
    "name": "Fragklinou Rousvelt - Social Insurance"
  },
  {
    "description": "Fragklinou Rousvelt - Water Board 2",
    "lat": 34.6691642028609,
    "lon": 33.0284225455108,
    "name": "Fragklinou Rousvelt - Water Board 2"
  },
  {
    "description": "Fragklinou Rousvelt - KEO 2",
    "lat": 34.6711832773642,
    "lon": 33.0322108166503,
    "name": "Fragklinou Rousvelt - KEO 2"
  },
  {
    "description": "Tzelal Bagiar - Agios Antonios Church 2",
    "lat": 34.6718760191865,
    "lon": 33.0379088772409,
    "name": "Tzelal Bagiar - Agios Antonios Church 2"
  },
  {
    "description": "Agias Theklis - Old Port",
    "lat": 34.6716856136187,
    "lon": 33.0410851387219,
    "name": "Agias Theklis - Old Port"
  },
  {
    "description": "Spyrou Araouzou - Agia Napa Church",
    "lat": 34.6732624152377,
    "lon": 33.0448735932546,
    "name": "Spyrou Araouzou - Agia Napa Church"
  },
  {
    "description": "Christodoulou Chatzipavlou - Christodoulou Sozou",
    "lat": 34.6767417616956,
    "lon": 33.0489580347666,
    "name": "Christodoulou Chatzipavlou - Christodoulou Sozou"
  },
  {
    "description": "Christodoulou Chatzipavlou - Zinas Kanther",
    "lat": 34.6781568924941,
    "lon": 33.0506290361378,
    "name": "Christodoulou Chatzipavlou - Zinas Kanther"
  },
  {
    "description": "28 Oktovriou - Sotiri Michailidi",
    "lat": 34.6807075676039,
    "lon": 33.0538836963295,
    "name": "28 Oktovriou - Sotiri Michailidi"
  },
  {
    "description": "28 Oktovriou - Municipal Art Gallery",
    "lat": 34.6832758089981,
    "lon": 33.0579464118658,
    "name": "28 Oktovriou - Municipal Art Gallery"
  },
  {
    "description": "28 Oktovriou - Olympic Residence",
    "lat": 34.6865822109648,
    "lon": 33.064269797254,
    "name": "28 Oktovriou - Olympic Residence"
  },
  {
    "description": "28 Oktovriou - Debenhams 2",
    "lat": 34.6885545404173,
    "lon": 33.0690095156999,
    "name": "28 Oktovriou - Debenhams 2"
  },
  {
    "description": "Promachon Eleftherias - Kosta Pitsillidi",
    "lat": 34.6897428875577,
    "lon": 33.0724823157706,
    "name": "Promachon Eleftherias - Kosta Pitsillidi"
  },
  {
    "description": "Promachon Eleftherias - KEAN 2",
    "lat": 34.6909223618055,
    "lon": 33.0755621658399,
    "name": "Promachon Eleftherias - KEAN 2"
  },
  {
    "description": "Vasileos Georgiou A´ - Panagioti Tsagkari",
    "lat": 34.6927586425113,
    "lon": 33.0808154161997,
    "name": "Vasileos Georgiou A´ - Panagioti Tsagkari"
  },
  {
    "description": "Vasileos Georgiou A´ - Park Beach Hotel",
    "lat": 34.6938659197996,
    "lon": 33.0836661411318,
    "name": "Vasileos Georgiou A´ - Park Beach Hotel"
  },
  {
    "description": "Vasileos Georgiou A´ - Germasogeia Police Station",
    "lat": 34.6951532392487,
    "lon": 33.0868665169204,
    "name": "Vasileos Georgiou A´ - Germasogeia Police Station"
  },
  {
    "description": "Vasileos Georgiou A´ - Ampelakion",
    "lat": 34.6966654515964,
    "lon": 33.0907005119513,
    "name": "Vasileos Georgiou A´ - Ampelakion"
  },
  {
    "description": "Vasileos Georgiou A´ - Apollonia Hotel 2",
    "lat": 34.6981326140916,
    "lon": 33.0943271388461,
    "name": "Vasileos Georgiou A´ - Apollonia Hotel 2"
  },
  {
    "description": "Vasileos Georgiou A´ - Profiti Ilia",
    "lat": 34.698879180217,
    "lon": 33.0967738086477,
    "name": "Vasileos Georgiou A´ - Profiti Ilia"
  },
  {
    "description": "Vasileos Georgiou A´ - McDonald´s",
    "lat": 34.7002911311858,
    "lon": 33.1015143141621,
    "name": "Vasileos Georgiou A´ - McDonald´s"
  },
  {
    "description": "Vasileos Georgiou A´ - Ariadnis",
    "lat": 34.7017042673695,
    "lon": 33.1046716950113,
    "name": "Vasileos Georgiou A´ - Ariadnis"
  },
  {
    "description": "Amathountos Ave. - Aquarius Hotel",
    "lat": 34.7032520368812,
    "lon": 33.1084517650169,
    "name": "Amathountos Ave. - Aquarius Hotel"
  },
  {
    "description": "Amathountos Ave. - Aphrodite Amathusia Park",
    "lat": 34.7038993500777,
    "lon": 33.1106474309853,
    "name": "Amathountos Ave. - Aphrodite Amathusia Park"
  },
  {
    "description": "Amathountos Ave. - Prousis",
    "lat": 34.7053029444309,
    "lon": 33.114110842363,
    "name": "Amathountos Ave. - Prousis"
  },
  {
    "description": "Amathountos Ave. - Navarria",
    "lat": 34.7065972201167,
    "lon": 33.118611602898,
    "name": "Amathountos Ave. - Navarria"
  },
  {
    "description": "Amathountos Ave. - Onisilou",
    "lat": 34.7079912514499,
    "lon": 33.1223919282694,
    "name": "Amathountos Ave. - Onisilou"
  },
  {
    "description": "Amathountos Ave. - Ellados",
    "lat": 34.7091052378266,
    "lon": 33.1265323214247,
    "name": "Amathountos Ave. - Ellados"
  },
  {
    "description": "Amathountos Ave. - Mediterranean Hotel 2",
    "lat": 34.7100749730428,
    "lon": 33.1305087937926,
    "name": "Amathountos Ave. - Mediterranean Hotel 2"
  },
  {
    "description": "Amathountos Ave. - Pasalimani",
    "lat": 34.7097367732011,
    "lon": 33.1346798067563,
    "name": "Amathountos Ave. - Pasalimani"
  },
  {
    "description": "Amathountos Ave. - Agias Varvara Church",
    "lat": 34.7124458047438,
    "lon": 33.1471009513147,
    "name": "Amathountos Ave. - Agias Varvara Church"
  },
  {
    "description": "Amathountos Ave. - Iras",
    "lat": 34.7139626389631,
    "lon": 33.1529353576537,
    "name": "Amathountos Ave. - Iras"
  },
  {
    "description": "Amathountos Ave. - Elias Hotel",
    "lat": 34.7145569263821,
    "lon": 33.1606356876417,
    "name": "Amathountos Ave. - Elias Hotel"
  },
  {
    "description": "Amathountos Ave. - Hawaii Hotel",
    "lat": 34.7143264108286,
    "lon": 33.1644357049357,
    "name": "Amathountos Ave. - Hawaii Hotel"
  },
  {
    "description": "Paradromos Amathountos",
    "lat": 34.7158626094606,
    "lon": 33.1751086322517,
    "name": "Paradromos Amathountos"
  },
  {
    "description": "Megalou Alexandrou - Ex Le Meridien",
    "lat": 34.7139780570463,
    "lon": 33.1749845309631,
    "name": "Megalou Alexandrou - Ex Le Meridien"
  }
]