[
  {
    "description": "Chilonos - Michail Paridi",
    "lat": 35.1708040725686,
    "lon": 33.3533313787656,
    "name": "Chilonos - Michail Paridi"
  },
  {
    "description": "Ave. Louki Akrita - Ministry of Agriculture 2",
    "lat": 35.1722093723791,
    "lon": 33.3475720695211,
    "name": "Ave. Louki Akrita - Ministry of Agriculture 2"
  },
  {
    "description": "Evagorou Ave.  - Vasileos Pavlou",
    "lat": 35.1677905885467,
    "lon": 33.3570079918293,
    "name": "Evagorou Ave.  - Vasileos Pavlou"
  },
  {
    "description": "Archiep. Makariou III Ave. - Iras",
    "lat": 35.1656621977647,
    "lon": 33.3631918662444,
    "name": "Archiep. Makariou III Ave. - Iras"
  },
  {
    "description": "Archiep. Makariou III Ave. - Naxou",
    "lat": 35.1625065679554,
    "lon": 33.366065678288,
    "name": "Archiep. Makariou III Ave. - Naxou"
  },
  {
    "description": "Lemesou Ave. - Kalispera",
    "lat": 35.1413169604423,
    "lon": 33.3746869478481,
    "name": "Lemesou Ave. - Kalispera"
  },
  {
    "description": "Akropoleos Ave. - Athinon Ave. 2",
    "lat": 34.9489235196208,
    "lon": 33.5753439913036,
    "name": "Akropoleos Ave. - Athinon Ave. 2"
  },
  {
    "description": "Eleftherias Ave. - Archiep. Makariou C´ Ave.",
    "lat": 34.9362407999217,
    "lon": 33.5912643422732,
    "name": "Eleftherias Ave. - Archiep. Makariou C´ Ave."
  },
  {
    "description": "Eleftherias Ave. - Petraki Giallourou",
    "lat": 34.9312462540472,
    "lon": 33.598411276935,
    "name": "Eleftherias Ave. - Petraki Giallourou"
  },
  {
    "description": "Georg. Griva Digeni Ave. - Ag. Georgios Church 2",
    "lat": 34.9232552988576,
    "lon": 33.6114036101475,
    "name": "Georg. Griva Digeni Ave. - Ag. Georgios Church 2"
  },
  {
    "description": "Municipal Library 2",
    "lat": 34.916724235321,
    "lon": 33.6243059543314,
    "name": "Municipal Library 2"
  },
  {
    "description": "Pancyprian Lyceum",
    "lat": 34.917629845022,
    "lon": 33.6305419493315,
    "name": "Pancyprian Lyceum"
  },
  {
    "description": "Archiep. Makariou C´ Ave. - Filiou Tsigaridi 1",
    "lat": 34.9187528603531,
    "lon": 33.6365279619346,
    "name": "Archiep. Makariou C´ Ave. - Filiou Tsigaridi 1"
  }
]