[
  {
    "description": "Anexartisias - 1st Kornos 1",
    "lat": 34.9211833745982,
    "lon": 33.3898321465568,
    "name": "Anexartisias - 1st Kornos 1"
  },
  {
    "description": "Anexartisias - 2nd Kornos 2",
    "lat": 34.9221194378084,
    "lon": 33.3931757903918,
    "name": "Anexartisias - 2nd Kornos 2"
  },
  {
    "description": "Grigori Afxentiou - 3rd Kornos 2",
    "lat": 34.92152110222,
    "lon": 33.3969281597105,
    "name": "Grigori Afxentiou - 3rd Kornos 2"
  },
  {
    "description": "Grigori Afxentiou - 4th Kornos 2",
    "lat": 34.919502523821,
    "lon": 33.3992722398998,
    "name": "Grigori Afxentiou - 4th Kornos 2"
  },
  {
    "description": "Grigori Afxentiou - 5th Kornos 2",
    "lat": 34.9177844721924,
    "lon": 33.4007090125974,
    "name": "Grigori Afxentiou - 5th Kornos 2"
  },
  {
    "description": "Timios Prodromos Church 2",
    "lat": 34.9174912160963,
    "lon": 33.4021307797713,
    "name": "Timios Prodromos Church 2"
  },
  {
    "description": "1 Maiou - 7th Kornos",
    "lat": 34.9202222738603,
    "lon": 33.4025053848575,
    "name": "1 Maiou - 7th Kornos"
  },
  {
    "description": "1 Maiou - 8th Kornos 2",
    "lat": 34.9249036475465,
    "lon": 33.4021121962797,
    "name": "1 Maiou - 8th Kornos 2"
  },
  {
    "description": "Pyrga - Kornos Road 1",
    "lat": 34.9263494056292,
    "lon": 33.4119950744031,
    "name": "Pyrga - Kornos Road 1"
  },
  {
    "description": "Pyrga Larnaka Elementary School 1",
    "lat": 34.9261371166759,
    "lon": 33.4264792411635,
    "name": "Pyrga Larnaka Elementary School 1"
  },
  {
    "description": "Agia Marina Church  1",
    "lat": 34.9257935457927,
    "lon": 33.4318423379023,
    "name": "Agia Marina Church  1"
  },
  {
    "description": "Mosfiloti Cemetery 2",
    "lat": 34.9485134998246,
    "lon": 33.4329690026304,
    "name": "Mosfiloti Cemetery 2"
  },
  {
    "description": "Larnakos Ave. - Apostolou Varnava 2",
    "lat": 34.9506151159789,
    "lon": 33.4302749030429,
    "name": "Larnakos Ave. - Apostolou Varnava 2"
  },
  {
    "description": "1 Apriliou - Georgiou Griva Digeni",
    "lat": 34.9505191953158,
    "lon": 33.4267916625431,
    "name": "1 Apriliou - Georgiou Griva Digeni"
  },
  {
    "description": "Mosfiloti Elementary School",
    "lat": 34.9515405905541,
    "lon": 33.4235222641825,
    "name": "Mosfiloti Elementary School"
  },
  {
    "description": "1 Apriliou - Archiep. Makariou C´",
    "lat": 34.9516583892803,
    "lon": 33.4207629244707,
    "name": "1 Apriliou - Archiep. Makariou C´"
  },
  {
    "description": "Archiep. Makariou C´ - Omirou 1",
    "lat": 34.952848630825,
    "lon": 33.4207799589202,
    "name": "Archiep. Makariou C´ - Omirou 1"
  },
  {
    "description": "Agia Marina Church 1",
    "lat": 34.9535406274641,
    "lon": 33.4240473150296,
    "name": "Agia Marina Church 1"
  },
  {
    "description": "Platini Museum",
    "lat": 34.9519806844773,
    "lon": 33.4266020977779,
    "name": "Platini Museum"
  },
  {
    "description": "Larnakos Ave. - Apostolou Varnava 1",
    "lat": 34.950567505999,
    "lon": 33.430986535298,
    "name": "Larnakos Ave. - Apostolou Varnava 1"
  },
  {
    "description": "Mosfiloti Cemetery 1",
    "lat": 34.9488024424401,
    "lon": 33.4328610039483,
    "name": "Mosfiloti Cemetery 1"
  },
  {
    "description": "Lefkosias Ave. - Artemidos 1",
    "lat": 34.9442979033074,
    "lon": 33.4539511961818,
    "name": "Lefkosias Ave. - Artemidos 1"
  },
  {
    "description": "Lefkosias Ave. - Digeni Akrita",
    "lat": 34.9443118094293,
    "lon": 33.4574556475396,
    "name": "Lefkosias Ave. - Digeni Akrita"
  },
  {
    "description": "Lefkosias Ave. - Grigori Afxentiou 1",
    "lat": 34.9451428132767,
    "lon": 33.4618517260191,
    "name": "Lefkosias Ave. - Grigori Afxentiou 1"
  },
  {
    "description": "Larnakos Ave. - Dorou Loizou",
    "lat": 34.9456492012547,
    "lon": 33.4638477104156,
    "name": "Larnakos Ave. - Dorou Loizou"
  },
  {
    "description": "Psevdas Community Stadium 1",
    "lat": 34.9458293396287,
    "lon": 33.4662580258443,
    "name": "Psevdas Community Stadium 1"
  },
  {
    "description": "Panagias Eleousas Ave. 1",
    "lat": 34.9429551077317,
    "lon": 33.477269394427,
    "name": "Panagias Eleousas Ave. 1"
  },
  {
    "description": "Agia Anna Cemetery",
    "lat": 34.9421971492276,
    "lon": 33.4819629289134,
    "name": "Agia Anna Cemetery"
  },
  {
    "description": "Ioakeim kai Annas Ave. - Agiou Arseniou 2",
    "lat": 34.9412978468133,
    "lon": 33.4858780374387,
    "name": "Ioakeim kai Annas Ave. - Agiou Arseniou 2"
  },
  {
    "description": "Kalo Chorio - Agia Anna Road - 2nd Stop",
    "lat": 34.9282982446214,
    "lon": 33.5261704019443,
    "name": "Kalo Chorio - Agia Anna Road - 2nd Stop"
  },
  {
    "description": "Kalo Chorio Community Stadium 2",
    "lat": 34.9290992934985,
    "lon": 33.5327230822244,
    "name": "Kalo Chorio Community Stadium 2"
  },
  {
    "description": "Agios Vasileios Church",
    "lat": 34.9275462257371,
    "lon": 33.537289682361,
    "name": "Agios Vasileios Church"
  },
  {
    "description": "Kalo Chorio Cemetery 2",
    "lat": 34.9265310458864,
    "lon": 33.5405019997804,
    "name": "Kalo Chorio Cemetery 2"
  },
  {
    "description": "Kalo Chorio Roundabout 1",
    "lat": 34.9091212728412,
    "lon": 33.5656303652845,
    "name": "Kalo Chorio Roundabout 1"
  },
  {
    "description": "A2 Industrial Area",
    "lat": 34.9085910283765,
    "lon": 33.5729498422037,
    "name": "A2 Industrial Area"
  },
  {
    "description": "Lemesou Ave. - Charilaou Trikoupi 2",
    "lat": 34.9083162703107,
    "lon": 33.5795485625504,
    "name": "Lemesou Ave. - Charilaou Trikoupi 2"
  },
  {
    "description": "Lemesou Ave. - Makedonias 2",
    "lat": 34.9097790299223,
    "lon": 33.5847912719885,
    "name": "Lemesou Ave. - Makedonias 2"
  },
  {
    "description": "Lemesou Ave. - Kritis",
    "lat": 34.91100376662,
    "lon": 33.5907221029325,
    "name": "Lemesou Ave. - Kritis"
  },
  {
    "description": "Kamares - Old Aqueduct 2",
    "lat": 34.912833624016,
    "lon": 33.5982338403757,
    "name": "Kamares - Old Aqueduct 2"
  },
  {
    "description": "Nikou kai Despoinas Pattichi Ave. - I. Kondylaki",
    "lat": 34.9166611267941,
    "lon": 33.6046877386619,
    "name": "Nikou kai Despoinas Pattichi Ave. - I. Kondylaki"
  },
  {
    "description": "Electricity Authority 1",
    "lat": 34.9173206364458,
    "lon": 33.608053455552,
    "name": "Electricity Authority 1"
  },
  {
    "description": "Nikou kai Despoinas Pattichi Ave. - Panidos",
    "lat": 34.9181184257099,
    "lon": 33.6125916436575,
    "name": "Nikou kai Despoinas Pattichi Ave. - Panidos"
  },
  {
    "description": "Georg. Griva Digeni Ave. - Kon. Palaiologou Ave. 2",
    "lat": 34.9194167146212,
    "lon": 33.6179766426449,
    "name": "Georg. Griva Digeni Ave. - Kon. Palaiologou Ave. 2"
  },
  {
    "description": "Georg. Griva Digeni Ave. - Thessalonikis Ave.",
    "lat": 34.9180133596127,
    "lon": 33.6208562831158,
    "name": "Georg. Griva Digeni Ave. - Thessalonikis Ave."
  },
  {
    "description": "Municipal Library 2",
    "lat": 34.916724235321,
    "lon": 33.6243059543314,
    "name": "Municipal Library 2"
  },
  {
    "description": "Pancyprian Lyceum",
    "lat": 34.917629845022,
    "lon": 33.6305419493315,
    "name": "Pancyprian Lyceum"
  },
  {
    "description": "Grigori Afxentiou Ave. - Foinikoudes 2",
    "lat": 34.9178223662695,
    "lon": 33.6351304406883,
    "name": "Grigori Afxentiou Ave. - Foinikoudes 2"
  },
  {
    "description": "Archiep. Makariou C´ Ave. - Filiou Tsigaridi 1",
    "lat": 34.9187528603531,
    "lon": 33.6365279619346,
    "name": "Archiep. Makariou C´ Ave. - Filiou Tsigaridi 1"
  },
  {
    "description": "Larnaca Station",
    "lat": 34.9192327751747,
    "lon": 33.6378672895804,
    "name": "Larnaca Station"
  }
]