[
  {
    "description": "Papaflessa",
    "lat": 34.9498133695562,
    "lon": 33.5928183698951,
    "name": "Papaflessa"
  },
  {
    "description": "A´ Aradippou Elementary School",
    "lat": 34.9488795503938,
    "lon": 33.5920012220558,
    "name": "A´ Aradippou Elementary School"
  },
  {
    "description": "Archiep. Makariou C´ Ave. - Foti Pitta Ave. 2",
    "lat": 34.9446351924097,
    "lon": 33.5914231569093,
    "name": "Archiep. Makariou C´ Ave. - Foti Pitta Ave. 2"
  },
  {
    "description": "Archiep. Makariou C´ Ave. - Kon. Kanari 2",
    "lat": 34.9423174389269,
    "lon": 33.5914831707057,
    "name": "Archiep. Makariou C´ Ave. - Kon. Kanari 2"
  },
  {
    "description": "Eleftherias Ave. - Archiep. Makariou C´ Ave.",
    "lat": 34.9362407999217,
    "lon": 33.5912643422732,
    "name": "Eleftherias Ave. - Archiep. Makariou C´ Ave."
  },
  {
    "description": "Archiep. Paisiou - Anoixeos",
    "lat": 34.9241017839718,
    "lon": 33.5897430124985,
    "name": "Archiep. Paisiou - Anoixeos"
  },
  {
    "description": "Archiep. Paisiou - Pentadaktylou",
    "lat": 34.9232393159184,
    "lon": 33.5927914143156,
    "name": "Archiep. Paisiou - Pentadaktylou"
  },
  {
    "description": "G.S.Z. Stadium 1",
    "lat": 34.9251981674185,
    "lon": 33.6015424405138,
    "name": "G.S.Z. Stadium 1"
  },
  {
    "description": "Afstralias Ave. - Omirou",
    "lat": 34.9294847918064,
    "lon": 33.6044971408248,
    "name": "Afstralias Ave. - Omirou"
  },
  {
    "description": "Kyriakou Matsi Ave. - Andrianoupoleos",
    "lat": 34.9322361069141,
    "lon": 33.6097073737392,
    "name": "Kyriakou Matsi Ave. - Andrianoupoleos"
  },
  {
    "description": "Smyrnis - Attaleias",
    "lat": 34.9277595264974,
    "lon": 33.6176340849932,
    "name": "Smyrnis - Attaleias"
  },
  {
    "description": "Sintika Chanoum 2",
    "lat": 34.9255622061786,
    "lon": 33.6188329109529,
    "name": "Sintika Chanoum 2"
  },
  {
    "description": "Larnaka Bishopric 2",
    "lat": 34.9211335044466,
    "lon": 33.6243502929905,
    "name": "Larnaka Bishopric 2"
  },
  {
    "description": "American Academy 2",
    "lat": 34.9182814217503,
    "lon": 33.6266057953971,
    "name": "American Academy 2"
  },
  {
    "description": "Pancyprian Lyceum",
    "lat": 34.917629845022,
    "lon": 33.6305419493315,
    "name": "Pancyprian Lyceum"
  },
  {
    "description": "Grigori Afxentiou Ave. - Foinikoudes 2",
    "lat": 34.9178223662695,
    "lon": 33.6351304406883,
    "name": "Grigori Afxentiou Ave. - Foinikoudes 2"
  },
  {
    "description": "Archiep. Makariou C´ Ave. - Filiou Tsigaridi 1",
    "lat": 34.9187528603531,
    "lon": 33.6365279619346,
    "name": "Archiep. Makariou C´ Ave. - Filiou Tsigaridi 1"
  },
  {
    "description": "Larnaca Station",
    "lat": 34.9192327751747,
    "lon": 33.6378672895804,
    "name": "Larnaca Station"
  }
]