[
  {
    "description": "Pervolion Ave. - Protomagias 1",
    "lat": 34.8336720483512,
    "lon": 33.5771439446984,
    "name": "Pervolion Ave. - Protomagias 1"
  },
  {
    "description": "Keryneias",
    "lat": 34.8335994119586,
    "lon": 33.5810368017907,
    "name": "Keryneias"
  },
  {
    "description": "Antistaseos - Ifigeneias",
    "lat": 34.8340693213607,
    "lon": 33.5827133839199,
    "name": "Antistaseos - Ifigeneias"
  },
  {
    "description": "Spirou Ttantí",
    "lat": 34.8326749011931,
    "lon": 33.583906551485,
    "name": "Spirou Ttantí"
  },
  {
    "description": "Grigori Afxentiou Ave. - Ammochostou",
    "lat": 34.8312664837095,
    "lon": 33.5823764901645,
    "name": "Grigori Afxentiou Ave. - Ammochostou"
  },
  {
    "description": "Ammochostou - Dimitriou Glinou",
    "lat": 34.8316420472057,
    "lon": 33.5811542851489,
    "name": "Ammochostou - Dimitriou Glinou"
  },
  {
    "description": "Pervolion Ave. - Protomagias 22",
    "lat": 34.8335639972367,
    "lon": 33.5771103814508,
    "name": "Pervolion Ave. - Protomagias 22"
  },
  {
    "description": "Pervolion Ave. - Lakonias 2",
    "lat": 34.8365924371042,
    "lon": 33.5755128666936,
    "name": "Pervolion Ave. - Lakonias 2"
  },
  {
    "description": "Pervolion Ave. - Apostolou Pavlou 2",
    "lat": 34.8409196456974,
    "lon": 33.5738586268238,
    "name": "Pervolion Ave. - Apostolou Pavlou 2"
  },
  {
    "description": "Arch. Makaríou",
    "lat": 34.8455613523489,
    "lon": 33.5724360917782,
    "name": "Arch. Makaríou"
  },
  {
    "description": "Archiep. Makariou C´ Ave. - Tinou",
    "lat": 34.8489915558273,
    "lon": 33.5658967708714,
    "name": "Archiep. Makariou C´ Ave. - Tinou"
  },
  {
    "description": "Archiep. Makariou C´ Ave.",
    "lat": 34.8534703656766,
    "lon": 33.548818748596,
    "name": "Archiep. Makariou C´ Ave."
  },
  {
    "description": "Tersefanou Village Centre 1",
    "lat": 34.8551202261969,
    "lon": 33.5468934520506,
    "name": "Tersefanou Village Centre 1"
  },
  {
    "description": "Grigori Afxentiou - Eleftheriou Venizelou",
    "lat": 34.8551034443783,
    "lon": 33.5506126965093,
    "name": "Grigori Afxentiou - Eleftheriou Venizelou"
  },
  {
    "description": "Archiep. Makariou C´ Ave. - Grigori Afxentiou",
    "lat": 34.852917927911,
    "lon": 33.5533219440082,
    "name": "Archiep. Makariou C´ Ave. - Grigori Afxentiou"
  },
  {
    "description": "Archiep. Makariou C´ Ave. - Kosti Palama",
    "lat": 34.8499286633626,
    "lon": 33.5641092586508,
    "name": "Archiep. Makariou C´ Ave. - Kosti Palama"
  },
  {
    "description": "Meneou Ave. - Markou Drakou",
    "lat": 34.8499826186322,
    "lon": 33.5718650876004,
    "name": "Meneou Ave. - Markou Drakou"
  },
  {
    "description": "Kiti Municipal Stadium 2",
    "lat": 34.8500409969951,
    "lon": 33.5766894115041,
    "name": "Kiti Municipal Stadium 2"
  },
  {
    "description": "Archiep. Makariou C´ Ave. - Spartis",
    "lat": 34.8517244843586,
    "lon": 33.5791733298619,
    "name": "Archiep. Makariou C´ Ave. - Spartis"
  },
  {
    "description": "Archiep. Makariou C´ Ave. - Chanion",
    "lat": 34.8551564711597,
    "lon": 33.5837152987733,
    "name": "Archiep. Makariou C´ Ave. - Chanion"
  },
  {
    "description": "Archiep. Makariou C´ Ave. - Geraniou 2",
    "lat": 34.8571994958608,
    "lon": 33.5864099161816,
    "name": "Archiep. Makariou C´ Ave. - Geraniou 2"
  },
  {
    "description": "Georgiou Griva Digeni - Andrea Miaouli 1",
    "lat": 34.8605887718932,
    "lon": 33.5885453868757,
    "name": "Georgiou Griva Digeni - Andrea Miaouli 1"
  },
  {
    "description": "Onasagorou - Agiou Panteleimonos Ave. 1",
    "lat": 34.8617531701797,
    "lon": 33.5864422352892,
    "name": "Onasagorou - Agiou Panteleimonos Ave. 1"
  },
  {
    "description": "Agiou Panteleimonos Ave. - Grigori Afxentiou",
    "lat": 34.8636542102182,
    "lon": 33.5867839414686,
    "name": "Agiou Panteleimonos Ave. - Grigori Afxentiou"
  },
  {
    "description": "Agiou Panteleimonos Ave. - Archiep. Kyprianou",
    "lat": 34.8654607420683,
    "lon": 33.5880221236996,
    "name": "Agiou Panteleimonos Ave. - Archiep. Kyprianou"
  },
  {
    "description": "Ag. Panteleimonas Old Church 2",
    "lat": 34.8668084981547,
    "lon": 33.5890273309408,
    "name": "Ag. Panteleimonas Old Church 2"
  },
  {
    "description": "25 Martiou Ave. - Antistaseos",
    "lat": 34.872952447642,
    "lon": 33.5827797171793,
    "name": "25 Martiou Ave. - Antistaseos"
  },
  {
    "description": "Artemidos - Vyzantiou",
    "lat": 34.8726287686417,
    "lon": 33.5863334460537,
    "name": "Artemidos - Vyzantiou"
  },
  {
    "description": "Dimokratias - Stadiou",
    "lat": 34.8735549175714,
    "lon": 33.5906072840172,
    "name": "Dimokratias - Stadiou"
  },
  {
    "description": "Timiou Prodromou - Omonoias",
    "lat": 34.8764018492077,
    "lon": 33.5929911338116,
    "name": "Timiou Prodromou - Omonoias"
  },
  {
    "description": "Timiou Prodromou - Dromolaxia - Airport Road 2",
    "lat": 34.8767401417597,
    "lon": 33.5975673676746,
    "name": "Timiou Prodromou - Dromolaxia - Airport Road 2"
  },
  {
    "description": "Larnaka Airport",
    "lat": 34.8710309947938,
    "lon": 33.606891856567,
    "name": "Larnaka Airport"
  },
  {
    "description": "Artemidos Ave. - Old Airport 2",
    "lat": 34.8883767824838,
    "lon": 33.6271775630317,
    "name": "Artemidos Ave. - Old Airport 2"
  },
  {
    "description": "Artemidos Ave. - Tasou Mitsopoulou Ave. 2",
    "lat": 34.8909296621304,
    "lon": 33.6304801550493,
    "name": "Artemidos Ave. - Tasou Mitsopoulou Ave. 2"
  },
  {
    "description": "Makenzy 2",
    "lat": 34.8915763496606,
    "lon": 33.6361650604304,
    "name": "Makenzy 2"
  },
  {
    "description": "Tasou Mitsopoulou Ave. - Sioumpert 1",
    "lat": 34.8941246800532,
    "lon": 33.638570582961,
    "name": "Tasou Mitsopoulou Ave. - Sioumpert 1"
  },
  {
    "description": "Kastella Beach",
    "lat": 34.8977606718564,
    "lon": 33.6381937623755,
    "name": "Kastella Beach"
  },
  {
    "description": "Psarolimano 2",
    "lat": 34.8994929186797,
    "lon": 33.6380210951261,
    "name": "Psarolimano 2"
  },
  {
    "description": "Istiklal",
    "lat": 34.9038355056036,
    "lon": 33.6370257878647,
    "name": "Istiklal"
  },
  {
    "description": "Oum Charam - Papoutsialik",
    "lat": 34.9052118827101,
    "lon": 33.6359308853095,
    "name": "Oum Charam - Papoutsialik"
  },
  {
    "description": "Istampoul",
    "lat": 34.907926598283,
    "lon": 33.6341128507713,
    "name": "Istampoul"
  },
  {
    "description": "Apolloniou Kitieos",
    "lat": 34.9093172753791,
    "lon": 33.6337294725468,
    "name": "Apolloniou Kitieos"
  },
  {
    "description": "Larnaka Community Centre",
    "lat": 34.9120294525845,
    "lon": 33.6323929153643,
    "name": "Larnaka Community Centre"
  },
  {
    "description": "Andrea Souroukli - Stylianou Lena",
    "lat": 34.9149513361195,
    "lon": 33.6306090429697,
    "name": "Andrea Souroukli - Stylianou Lena"
  },
  {
    "description": "Old Hospital",
    "lat": 34.9170651225385,
    "lon": 33.6298917314463,
    "name": "Old Hospital"
  },
  {
    "description": "Pancyprian Lyceum",
    "lat": 34.917629845022,
    "lon": 33.6305419493315,
    "name": "Pancyprian Lyceum"
  },
  {
    "description": "Grigori Afxentiou Ave. - Foinikoudes 2",
    "lat": 34.9178223662695,
    "lon": 33.6351304406883,
    "name": "Grigori Afxentiou Ave. - Foinikoudes 2"
  },
  {
    "description": "Archiep. Makariou C´ Ave. - Filiou Tsigaridi 1",
    "lat": 34.9187528603531,
    "lon": 33.6365279619346,
    "name": "Archiep. Makariou C´ Ave. - Filiou Tsigaridi 1"
  },
  {
    "description": "Larnaca Station",
    "lat": 34.9192327751747,
    "lon": 33.6378672895804,
    "name": "Larnaca Station"
  }
]