[
  {
    "description": "Kofinou Station",
    "lat": 34.826273309476,
    "lon": 33.3899202268482,
    "name": "Kofinou Station"
  },
  {
    "description": "Archiep. Makariou C´ Ave. - Evgeniou Panagiotou",
    "lat": 34.8286384079375,
    "lon": 33.3919545098653,
    "name": "Archiep. Makariou C´ Ave. - Evgeniou Panagiotou"
  },
  {
    "description": "Kofinou Police Station",
    "lat": 34.8302653116882,
    "lon": 33.3935916947298,
    "name": "Kofinou Police Station"
  },
  {
    "description": "Anglisides - Menogeia Road - 2nd Stop",
    "lat": 34.8466193274217,
    "lon": 33.4395007361835,
    "name": "Anglisides - Menogeia Road - 2nd Stop"
  },
  {
    "description": "Archiep. Makariou C´ Ave. - Kyriakou Matsi",
    "lat": 34.8521238626443,
    "lon": 33.4532036875843,
    "name": "Archiep. Makariou C´ Ave. - Kyriakou Matsi"
  },
  {
    "description": "Archiep. Makariou C´ Ave. - Tasou Isaak",
    "lat": 34.8529203656834,
    "lon": 33.454827034241,
    "name": "Archiep. Makariou C´ Ave. - Tasou Isaak"
  },
  {
    "description": "Archiep. Makariou C´ Ave. - Solomou Solomou",
    "lat": 34.8541426869154,
    "lon": 33.4583124292326,
    "name": "Archiep. Makariou C´ Ave. - Solomou Solomou"
  },
  {
    "description": "Poseidonio 2",
    "lat": 34.8549077194886,
    "lon": 33.4610843166874,
    "name": "Poseidonio 2"
  },
  {
    "description": "Aglisides - Alethriko Road - 2nd Stop",
    "lat": 34.8628339971958,
    "lon": 33.479770907049,
    "name": "Aglisides - Alethriko Road - 2nd Stop"
  },
  {
    "description": "Anexartisias Ave. - Filias Ave. 2",
    "lat": 34.8646542567515,
    "lon": 33.4891466183131,
    "name": "Anexartisias Ave. - Filias Ave. 2"
  },
  {
    "description": "Anexartisias Ave. - Eirinis Avenue 2",
    "lat": 34.865674941296,
    "lon": 33.4931897861284,
    "name": "Anexartisias Ave. - Eirinis Avenue 2"
  },
  {
    "description": "Anexartisias Ave. - Highway Exit 2",
    "lat": 34.86650117679,
    "lon": 33.4962362678988,
    "name": "Anexartisias Ave. - Highway Exit 2"
  },
  {
    "description": "A2 Industrial Area",
    "lat": 34.9085910283765,
    "lon": 33.5729498422037,
    "name": "A2 Industrial Area"
  },
  {
    "description": "Lemesou Ave. - Charilaou Trikoupi 2",
    "lat": 34.9083162703107,
    "lon": 33.5795485625504,
    "name": "Lemesou Ave. - Charilaou Trikoupi 2"
  },
  {
    "description": "Lemesou Ave. - Makedonias 2",
    "lat": 34.9097790299223,
    "lon": 33.5847912719885,
    "name": "Lemesou Ave. - Makedonias 2"
  },
  {
    "description": "Lemesou Ave. - Kritis",
    "lat": 34.91100376662,
    "lon": 33.5907221029325,
    "name": "Lemesou Ave. - Kritis"
  },
  {
    "description": "Kamares - Old Aqueduct 2",
    "lat": 34.912833624016,
    "lon": 33.5982338403757,
    "name": "Kamares - Old Aqueduct 2"
  },
  {
    "description": "Nikou kai Despoinas Pattichi Ave. - I. Kondylaki",
    "lat": 34.9166611267941,
    "lon": 33.6046877386619,
    "name": "Nikou kai Despoinas Pattichi Ave. - I. Kondylaki"
  },
  {
    "description": "Electricity Authority 1",
    "lat": 34.9173206364458,
    "lon": 33.608053455552,
    "name": "Electricity Authority 1"
  },
  {
    "description": "Nikou kai Despoinas Pattichi Ave. - Panidos",
    "lat": 34.9181184257099,
    "lon": 33.6125916436575,
    "name": "Nikou kai Despoinas Pattichi Ave. - Panidos"
  },
  {
    "description": "Georg. Griva Digeni Ave. - Kon. Palaiologou Ave. 2",
    "lat": 34.9194167146212,
    "lon": 33.6179766426449,
    "name": "Georg. Griva Digeni Ave. - Kon. Palaiologou Ave. 2"
  },
  {
    "description": "Georg. Griva Digeni Ave. - Thessalonikis Ave.",
    "lat": 34.9180133596127,
    "lon": 33.6208562831158,
    "name": "Georg. Griva Digeni Ave. - Thessalonikis Ave."
  },
  {
    "description": "Municipal Library 2",
    "lat": 34.916724235321,
    "lon": 33.6243059543314,
    "name": "Municipal Library 2"
  },
  {
    "description": "Municipal Park 2",
    "lat": 34.9168095577485,
    "lon": 33.6269996632646,
    "name": "Municipal Park 2"
  },
  {
    "description": "Pancyprian Lyceum",
    "lat": 34.917629845022,
    "lon": 33.6305419493315,
    "name": "Pancyprian Lyceum"
  },
  {
    "description": "Grigori Afxentiou Ave. - Foinikoudes 2",
    "lat": 34.9178223662695,
    "lon": 33.6351304406883,
    "name": "Grigori Afxentiou Ave. - Foinikoudes 2"
  },
  {
    "description": "Archiep. Makariou C´ Ave. - Filiou Tsigaridi 1",
    "lat": 34.9187528603531,
    "lon": 33.6365279619346,
    "name": "Archiep. Makariou C´ Ave. - Filiou Tsigaridi 1"
  },
  {
    "description": "Larnaca Station",
    "lat": 34.9192327751747,
    "lon": 33.6378672895804,
    "name": "Larnaca Station"
  }
]