[
  {
    "description": "Odou Square",
    "lat": 34.8856087660392,
    "lon": 33.1507794480956,
    "name": "Odou Square"
  },
  {
    "description": "2nd Stop Odou",
    "lat": 34.8838130691394,
    "lon": 33.151739173944,
    "name": "2nd Stop Odou"
  },
  {
    "description": "1st Stop Melini",
    "lat": 34.8663135211731,
    "lon": 33.155984924904,
    "name": "1st Stop Melini"
  },
  {
    "description": "2nd Stop Melini",
    "lat": 34.8665638411767,
    "lon": 33.1576703053531,
    "name": "2nd Stop Melini"
  },
  {
    "description": "Agioi Vavatsinias Elem. School 2",
    "lat": 34.8798601676394,
    "lon": 33.1922418518821,
    "name": "Agioi Vavatsinias Elem. School 2"
  },
  {
    "description": "1st Stop Agioi Vavatsinias",
    "lat": 34.8789828744469,
    "lon": 33.1938702563178,
    "name": "1st Stop Agioi Vavatsinias"
  },
  {
    "description": "1st Stop Ora",
    "lat": 34.8618101190943,
    "lon": 33.1958757920802,
    "name": "1st Stop Ora"
  },
  {
    "description": "2nd Stop Ora",
    "lat": 34.8620140866482,
    "lon": 33.1979987033053,
    "name": "2nd Stop Ora"
  },
  {
    "description": "Apostolos Andreas Church 2",
    "lat": 34.8617310851485,
    "lon": 33.2001095050896,
    "name": "Apostolos Andreas Church 2"
  },
  {
    "description": "Lageia 2",
    "lat": 34.8438974300757,
    "lon": 33.2473729395703,
    "name": "Lageia 2"
  },
  {
    "description": "Vavla Community Board 2",
    "lat": 34.8419308115332,
    "lon": 33.2689799002571,
    "name": "Vavla Community Board 2"
  },
  {
    "description": "4thStop Vavla",
    "lat": 34.8408029125195,
    "lon": 33.2692934192406,
    "name": "4thStop Vavla"
  },
  {
    "description": "Choirokoitia Community Stadium 2",
    "lat": 34.8029644575527,
    "lon": 33.3281949291708,
    "name": "Choirokoitia Community Stadium 2"
  },
  {
    "description": "Griva Digeni - 10th Stop",
    "lat": 34.7996184068604,
    "lon": 33.3317017906043,
    "name": "Griva Digeni - 10th Stop"
  },
  {
    "description": "Choirokoitia Village Centre",
    "lat": 34.7977921942619,
    "lon": 33.3333998394434,
    "name": "Choirokoitia Village Centre"
  },
  {
    "description": "Choirokoitia Elementary School",
    "lat": 34.7965562906369,
    "lon": 33.3368492662518,
    "name": "Choirokoitia Elementary School"
  },
  {
    "description": "Archiep. Makariou C Ave. - 2nd Stop",
    "lat": 34.7955754982775,
    "lon": 33.3393267326611,
    "name": "Archiep. Makariou C Ave. - 2nd Stop"
  },
  {
    "description": "Choirokoitia Neolithic Settlement 2",
    "lat": 34.7967468281069,
    "lon": 33.3460763745165,
    "name": "Choirokoitia Neolithic Settlement 2"
  },
  {
    "description": "Agias Paraskevis - 2nd Stop",
    "lat": 34.802296613398,
    "lon": 33.3510082174739,
    "name": "Agias Paraskevis - 2nd Stop"
  },
  {
    "description": "Lefkosia - Lemesos Old Road - 2nd Stop",
    "lat": 34.8169054678556,
    "lon": 33.3692102188071,
    "name": "Lefkosia - Lemesos Old Road - 2nd Stop"
  },
  {
    "description": "Lefkosia - Lemesos Old Road - 4th Stop",
    "lat": 34.8213785364242,
    "lon": 33.3750038117046,
    "name": "Lefkosia - Lemesos Old Road - 4th Stop"
  },
  {
    "description": "Archiep. Makariou C´ Ave. - Grigori Afxentiou 2",
    "lat": 34.8255273784812,
    "lon": 33.3891293584083,
    "name": "Archiep. Makariou C´ Ave. - Grigori Afxentiou 2"
  },
  {
    "description": "Kofinou Station",
    "lat": 34.826273309476,
    "lon": 33.3899202268482,
    "name": "Kofinou Station"
  }
]