[
  {
    "description": "Municipal Market - TEPAK",
    "lat": 34.676815672063,
    "lon": 33.0443406277466,
    "name": "Municipal Market - TEPAK"
  },
  {
    "description": "Anexartisias - District Office 1",
    "lat": 34.6797737657,
    "lon": 33.0437418053673,
    "name": "Anexartisias - District Office 1"
  },
  {
    "description": "Gladstonos - Vragadinou",
    "lat": 34.6792603888362,
    "lon": 33.0419076004369,
    "name": "Gladstonos - Vragadinou"
  },
  {
    "description": "Archiep. Leontiou A´ - Panagioti Diomidous",
    "lat": 34.6813100525199,
    "lon": 33.0335138069715,
    "name": "Archiep. Leontiou A´ - Panagioti Diomidous"
  },
  {
    "description": "Archiep. Leontiou A´ - Karatza 1",
    "lat": 34.6819325517798,
    "lon": 33.0325424776436,
    "name": "Archiep. Leontiou A´ - Karatza 1"
  },
  {
    "description": "Nikou & Despoinas Pattichi - Vas. Konstantinou 1",
    "lat": 34.6845128197195,
    "lon": 33.0279256090837,
    "name": "Nikou & Despoinas Pattichi - Vas. Konstantinou 1"
  },
  {
    "description": "Nikou & Despoinas Pattichi - Dikaiarchou 1",
    "lat": 34.6862361771836,
    "lon": 33.0234828890117,
    "name": "Nikou & Despoinas Pattichi - Dikaiarchou 1"
  },
  {
    "description": "Nikou & Despoinas Pattichi - Nafsikas",
    "lat": 34.6883290651579,
    "lon": 33.0193020886893,
    "name": "Nikou & Despoinas Pattichi - Nafsikas"
  },
  {
    "description": "Nikou & Despoinas Pattichi - Sp. Kyprianou Ave. 2",
    "lat": 34.6904936695478,
    "lon": 33.0172500531958,
    "name": "Nikou & Despoinas Pattichi - Sp. Kyprianou Ave. 2"
  },
  {
    "description": "Kamelias - Marias Iordanidou 2",
    "lat": 34.7020543984206,
    "lon": 33.0186719577165,
    "name": "Kamelias - Marias Iordanidou 2"
  }
]