[
  {
    "description": "Panagia Community Board",
    "lat": 34.9185173575317,
    "lon": 32.6314082059189,
    "name": "Panagia Community Board"
  },
  {
    "description": "Archiep. Makariou C´ - Filippou Nathanail",
    "lat": 34.9195995421393,
    "lon": 32.6314362114345,
    "name": "Archiep. Makariou C´ - Filippou Nathanail"
  },
  {
    "description": "Archiep. Makarios Cultural Centre 2",
    "lat": 34.9200634870849,
    "lon": 32.6298028868076,
    "name": "Archiep. Makarios Cultural Centre 2"
  },
  {
    "description": "2nd Stop Panagia",
    "lat": 34.9210784520937,
    "lon": 32.6255504571162,
    "name": "2nd Stop Panagia"
  },
  {
    "description": "Asprogia - Panagia Road - 4th Stop",
    "lat": 34.9238147603737,
    "lon": 32.6239286000125,
    "name": "Asprogia - Panagia Road - 4th Stop"
  },
  {
    "description": "Asprogia - Panagia Road - 2nd Stop",
    "lat": 34.9281494286918,
    "lon": 32.6230438458361,
    "name": "Asprogia - Panagia Road - 2nd Stop"
  },
  {
    "description": "2nd Stop Asprogia 2",
    "lat": 34.9233990709532,
    "lon": 32.6150075275546,
    "name": "2nd Stop Asprogia 2"
  },
  {
    "description": "1st Stop Asprogia 2",
    "lat": 34.9228022248826,
    "lon": 32.61447384609,
    "name": "1st Stop Asprogia 2"
  },
  {
    "description": "6th Stop Kannaviou",
    "lat": 34.9180121245012,
    "lon": 32.5760260225305,
    "name": "6th Stop Kannaviou"
  },
  {
    "description": "4th Stop Kannaviou",
    "lat": 34.9159888806687,
    "lon": 32.5750730530311,
    "name": "4th Stop Kannaviou"
  },
  {
    "description": "2nd Stop Kannaviou",
    "lat": 34.913908491389,
    "lon": 32.5732556003818,
    "name": "2nd Stop Kannaviou"
  },
  {
    "description": "2nd Stop Agios Dimitrianos 2",
    "lat": 34.9059919083856,
    "lon": 32.5509446469007,
    "name": "2nd Stop Agios Dimitrianos 2"
  },
  {
    "description": "1st Stop Agios Dimitrianos 2",
    "lat": 34.9045619492612,
    "lon": 32.5495404112464,
    "name": "1st Stop Agios Dimitrianos 2"
  },
  {
    "description": "2nd Stop Psathi",
    "lat": 34.8977769898162,
    "lon": 32.5294934040637,
    "name": "2nd Stop Psathi"
  },
  {
    "description": "Polemi High School",
    "lat": 34.8891880751171,
    "lon": 32.5146478066206,
    "name": "Polemi High School"
  },
  {
    "description": "Archiep. Makariou C - Nikou Karapataki 2",
    "lat": 34.8872493993887,
    "lon": 32.5124157731707,
    "name": "Archiep. Makariou C - Nikou Karapataki 2"
  },
  {
    "description": "Archiep. Makariou C` - Evag. Pallikaridi",
    "lat": 34.8856775569908,
    "lon": 32.5072488453747,
    "name": "Archiep. Makariou C` - Evag. Pallikaridi"
  },
  {
    "description": "Archiep. Makariou C` - Mitr. Kleopa Pafou",
    "lat": 34.88420991593,
    "lon": 32.5055723577735,
    "name": "Archiep. Makariou C` - Mitr. Kleopa Pafou"
  },
  {
    "description": "2nd Stop Stroumpi",
    "lat": 34.8772072111481,
    "lon": 32.4826684256222,
    "name": "2nd Stop Stroumpi"
  },
  {
    "description": "Archiep. Makariou C` Ave. - Gerolakkou Ave.",
    "lat": 34.8409790005802,
    "lon": 32.4689937307068,
    "name": "Archiep. Makariou C` Ave. - Gerolakkou Ave."
  },
  {
    "description": "Mesogis Avenue - Georgiou Tsioupi",
    "lat": 34.8157159314405,
    "lon": 32.4516285467492,
    "name": "Mesogis Avenue - Georgiou Tsioupi"
  },
  {
    "description": "Mesogis Ave. - Panikou Chatzipanagi",
    "lat": 34.8126566007797,
    "lon": 32.4511021327807,
    "name": "Mesogis Ave. - Panikou Chatzipanagi"
  },
  {
    "description": "Mesogi Industrial Area - 4th Stop",
    "lat": 34.8108027705444,
    "lon": 32.4499445498068,
    "name": "Mesogi Industrial Area - 4th Stop"
  },
  {
    "description": "Mesogi Industrial Area - 2nd Stop",
    "lat": 34.8085410696061,
    "lon": 32.4483305428774,
    "name": "Mesogi Industrial Area - 2nd Stop"
  },
  {
    "description": "Mesogis Ave. - Grigori Afxentiou",
    "lat": 34.8041982487347,
    "lon": 32.4451671765174,
    "name": "Mesogis Ave. - Grigori Afxentiou"
  },
  {
    "description": "Mesogis Ave. - Agiou Dimitriou",
    "lat": 34.799474512754,
    "lon": 32.4415475654362,
    "name": "Mesogis Ave. - Agiou Dimitriou"
  },
  {
    "description": "Mesogis Ave. - Agias Anastasias",
    "lat": 34.7968683821903,
    "lon": 32.4395755924128,
    "name": "Mesogis Ave. - Agias Anastasias"
  },
  {
    "description": "Mesogis Ave. - Andrea Lardou",
    "lat": 34.7953820831052,
    "lon": 32.4379678055821,
    "name": "Mesogis Ave. - Andrea Lardou"
  },
  {
    "description": "Ellados Ave. - Panikou Dimitriou",
    "lat": 34.7883106338134,
    "lon": 32.4337201189126,
    "name": "Ellados Ave. - Panikou Dimitriou"
  },
  {
    "description": "Ellados Ave. - Onoufriou Kliridi",
    "lat": 34.7822936881398,
    "lon": 32.4274657647083,
    "name": "Ellados Ave. - Onoufriou Kliridi"
  },
  {
    "description": "Evag. Pallikaridi Ave. - Petraki Giallourou",
    "lat": 34.7800741463408,
    "lon": 32.4252952292824,
    "name": "Evag. Pallikaridi Ave. - Petraki Giallourou"
  },
  {
    "description": "Karavella Bus Station",
    "lat": 34.778616320876,
    "lon": 32.4221249543794,
    "name": "Karavella Bus Station"
  }
]