[
  {
    "description": "Karavella Bus Station",
    "lat": 34.778616320876,
    "lon": 32.4221249543794,
    "name": "Karavella Bus Station"
  },
  {
    "description": "Evag. Pallikaridi Ave. - Athinas",
    "lat": 34.780091716565,
    "lon": 32.4251967432691,
    "name": "Evag. Pallikaridi Ave. - Athinas"
  },
  {
    "description": "Ellados Ave. - Olgas Xinaridou",
    "lat": 34.7823110544337,
    "lon": 32.4273235593229,
    "name": "Ellados Ave. - Olgas Xinaridou"
  },
  {
    "description": "Dasoudi Park",
    "lat": 34.789801336744,
    "lon": 32.4343220448345,
    "name": "Dasoudi Park"
  },
  {
    "description": "Mesogis Ave. - Panagioti Toumazou",
    "lat": 34.795172058822,
    "lon": 32.4374008005802,
    "name": "Mesogis Ave. - Panagioti Toumazou"
  },
  {
    "description": "Mesogis Ave. - Viktorias",
    "lat": 34.7977631588805,
    "lon": 32.4400177369083,
    "name": "Mesogis Ave. - Viktorias"
  },
  {
    "description": "Mesogis Ave. - Foti Pitta",
    "lat": 34.7998172708492,
    "lon": 32.4415671179024,
    "name": "Mesogis Ave. - Foti Pitta"
  },
  {
    "description": "Mesogi Industrial Area - 1st Stop",
    "lat": 34.8056177513665,
    "lon": 32.4459885516962,
    "name": "Mesogi Industrial Area - 1st Stop"
  },
  {
    "description": "Mesogi Industrial Area - 3rd Stop",
    "lat": 34.8109734073654,
    "lon": 32.4497903476892,
    "name": "Mesogi Industrial Area - 3rd Stop"
  },
  {
    "description": "Mesogis Ave. - Michalaki Karaoli",
    "lat": 34.8160313398671,
    "lon": 32.4515827204013,
    "name": "Mesogis Ave. - Michalaki Karaoli"
  },
  {
    "description": "Archiep. Makariou C` Ave. - Teratsou",
    "lat": 34.8407984637966,
    "lon": 32.4689511405419,
    "name": "Archiep. Makariou C` Ave. - Teratsou"
  },
  {
    "description": "1st Stop Stroumpi",
    "lat": 34.8769718777316,
    "lon": 32.482461998289,
    "name": "1st Stop Stroumpi"
  },
  {
    "description": "Eleftherias Ave. - Agias Sofias Square",
    "lat": 34.8843385983535,
    "lon": 32.482328272277,
    "name": "Eleftherias Ave. - Agias Sofias Square"
  },
  {
    "description": "Eleftherias Ave. - Charilaou Michail",
    "lat": 34.8898567446617,
    "lon": 32.4779817651117,
    "name": "Eleftherias Ave. - Charilaou Michail"
  },
  {
    "description": "1st Stop Theletra",
    "lat": 34.9095052690748,
    "lon": 32.4472729080229,
    "name": "1st Stop Theletra"
  },
  {
    "description": "2nd Stop Theletra",
    "lat": 34.909478466511,
    "lon": 32.4473278200862,
    "name": "2nd Stop Theletra"
  },
  {
    "description": "1st Stop Kathikas 1",
    "lat": 34.9132666274406,
    "lon": 32.4261090737599,
    "name": "1st Stop Kathikas 1"
  },
  {
    "description": "Kathikas Square",
    "lat": 34.9124170533641,
    "lon": 32.4256990055517,
    "name": "Kathikas Square"
  },
  {
    "description": "Pano Arodes 1",
    "lat": 34.9361625821116,
    "lon": 32.4074879184775,
    "name": "Pano Arodes 1"
  },
  {
    "description": "Kato Arodes 1",
    "lat": 34.9405280808198,
    "lon": 32.4021892898027,
    "name": "Kato Arodes 1"
  },
  {
    "description": "Ineia Square 1",
    "lat": 34.9557426444783,
    "lon": 32.3935577108979,
    "name": "Ineia Square 1"
  },
  {
    "description": "1st Stop Ineia 1",
    "lat": 34.9565416586728,
    "lon": 32.3946580484642,
    "name": "1st Stop Ineia 1"
  },
  {
    "description": "2nd Stop Drouseia 1",
    "lat": 34.9586676433596,
    "lon": 32.3978625945249,
    "name": "2nd Stop Drouseia 1"
  },
  {
    "description": "1st Stop Drouseia 1",
    "lat": 34.9605212289606,
    "lon": 32.3988786401393,
    "name": "1st Stop Drouseia 1"
  },
  {
    "description": "Agios Epifanios Church 1",
    "lat": 34.9625076363836,
    "lon": 32.39758257351,
    "name": "Agios Epifanios Church 1"
  },
  {
    "description": "Kritou Tera",
    "lat": 34.9561876468358,
    "lon": 32.4219437478678,
    "name": "Kritou Tera"
  },
  {
    "description": "Tera",
    "lat": 34.9654171835885,
    "lon": 32.4229524120918,
    "name": "Tera"
  },
  {
    "description": "Akamantos Ave. - Afroditis",
    "lat": 35.0316551518515,
    "lon": 32.4147913831721,
    "name": "Akamantos Ave. - Afroditis"
  },
  {
    "description": "Agios Georgios Church 2",
    "lat": 35.0291477514104,
    "lon": 32.41841588462,
    "name": "Agios Georgios Church 2"
  },
  {
    "description": "Polis Chrysochous Bus Station",
    "lat": 35.0332381728798,
    "lon": 32.4252716391202,
    "name": "Polis Chrysochous Bus Station"
  }
]