[
  {
    "description": "Paralimni Square Bus Station",
    "lat": 35.0394760084475,
    "lon": 33.983638211908,
    "name": "Paralimni Square Bus Station"
  },
  {
    "description": "1 Apriliou Ave. - Tasou Markou 1",
    "lat": 35.0407491591044,
    "lon": 33.9778427683324,
    "name": "1 Apriliou Ave. - Tasou Markou 1"
  },
  {
    "description": "Xenion Education 1",
    "lat": 35.0418675043459,
    "lon": 33.9778122394597,
    "name": "Xenion Education 1"
  },
  {
    "description": "1 Apriliou Ave. - Cheimaras",
    "lat": 35.0461075260558,
    "lon": 33.9775557668991,
    "name": "1 Apriliou Ave. - Cheimaras"
  },
  {
    "description": "Griva Digeni Ave. - Daidalou",
    "lat": 35.0500492091422,
    "lon": 33.9762759889819,
    "name": "Griva Digeni Ave. - Daidalou"
  },
  {
    "description": "Eleftherias - Nikodimou Mylona",
    "lat": 35.0541375220769,
    "lon": 33.9724538651353,
    "name": "Eleftherias - Nikodimou Mylona"
  },
  {
    "description": "Eleftherias - Grigori Afxentiou",
    "lat": 35.0570790045973,
    "lon": 33.9699556448853,
    "name": "Eleftherias - Grigori Afxentiou"
  },
  {
    "description": "Eleftherias - Agiou Stylianou",
    "lat": 35.0589530333582,
    "lon": 33.9667537938205,
    "name": "Eleftherias - Agiou Stylianou"
  },
  {
    "description": "Famagusta General Hospital",
    "lat": 35.0616307747604,
    "lon": 33.9713035177178,
    "name": "Famagusta General Hospital"
  },
  {
    "description": "Eleftherias - Afroditis",
    "lat": 35.061678409114,
    "lon": 33.9630683116465,
    "name": "Eleftherias - Afroditis"
  },
  {
    "description": "Archiep. Makariou C´ - Stadiou",
    "lat": 35.062309950079,
    "lon": 33.9596103162169,
    "name": "Archiep. Makariou C´ - Stadiou"
  },
  {
    "description": "C´ Deryneia Elementary School 1",
    "lat": 35.0578854780643,
    "lon": 33.9581110436136,
    "name": "C´ Deryneia Elementary School 1"
  },
  {
    "description": "Apostolos Varnavas Church 1",
    "lat": 35.0498224757317,
    "lon": 33.9572054685385,
    "name": "Apostolos Varnavas Church 1"
  },
  {
    "description": "Ammochostou 1",
    "lat": 35.0362902529368,
    "lon": 33.9546357621689,
    "name": "Ammochostou 1"
  },
  {
    "description": "Eleftheria Square",
    "lat": 35.0277749558078,
    "lon": 33.9516099188182,
    "name": "Eleftheria Square"
  },
  {
    "description": "1 Apriliou - Dimokratias",
    "lat": 35.0280493934788,
    "lon": 33.951108850971,
    "name": "1 Apriliou - Dimokratias"
  },
  {
    "description": "Stadiou - Theod. Kolokotroni",
    "lat": 35.0280811994521,
    "lon": 33.9470423417539,
    "name": "Stadiou - Theod. Kolokotroni"
  },
  {
    "description": "Stadiou - Louki Akrita",
    "lat": 35.0272544658782,
    "lon": 33.9408832193972,
    "name": "Stadiou - Louki Akrita"
  },
  {
    "description": "1 Apriliou - Andrea Karyou",
    "lat": 35.0112885049205,
    "lon": 33.8963901621194,
    "name": "1 Apriliou - Andrea Karyou"
  },
  {
    "description": "Liopetri Square 1",
    "lat": 35.0096770901103,
    "lon": 33.8923613908029,
    "name": "Liopetri Square 1"
  },
  {
    "description": "Nikou Theofanous - Champi Michailidi",
    "lat": 34.982793886725,
    "lon": 33.8539537716101,
    "name": "Nikou Theofanous - Champi Michailidi"
  },
  {
    "description": "Eleftherias - Andrea Kazi",
    "lat": 34.97750483052,
    "lon": 33.8495277007459,
    "name": "Eleftherias - Andrea Kazi"
  },
  {
    "description": "Panagias - Giorgalli 1",
    "lat": 34.9735334277254,
    "lon": 33.8436149362514,
    "name": "Panagias - Giorgalli 1"
  },
  {
    "description": "Meg. Alexandrou Ave. - Agias Triados",
    "lat": 34.9742231321976,
    "lon": 33.8403793694813,
    "name": "Meg. Alexandrou Ave. - Agias Triados"
  },
  {
    "description": "Anastasi Manoli - Grigori Afxentiou",
    "lat": 34.9773969418629,
    "lon": 33.8404117921819,
    "name": "Anastasi Manoli - Grigori Afxentiou"
  },
  {
    "description": "Anexartisias - Theod. Kolokotroni",
    "lat": 34.9905843255142,
    "lon": 33.7859146185038,
    "name": "Anexartisias - Theod. Kolokotroni"
  },
  {
    "description": "Dimokratias - Metochiou",
    "lat": 34.9924086014531,
    "lon": 33.7784810650063,
    "name": "Dimokratias - Metochiou"
  },
  {
    "description": "Vattainas - Dim. Christodoulou 1",
    "lat": 34.9955449151679,
    "lon": 33.7702595667156,
    "name": "Vattainas - Dim. Christodoulou 1"
  },
  {
    "description": "Vattainas - Artemidos 1",
    "lat": 34.9968460207759,
    "lon": 33.7669953329167,
    "name": "Vattainas - Artemidos 1"
  },
  {
    "description": "Andrea Karkavitsa - Eirinis",
    "lat": 34.9995321623323,
    "lon": 33.7614207033304,
    "name": "Andrea Karkavitsa - Eirinis"
  }
]