[
  {
    "description": "New Famagusta Central Bus Station",
    "lat": 35.0518260701067,
    "lon": 33.9728431356542,
    "name": "New Famagusta Central Bus Station"
  },
  {
    "description": "Roundabout Paralimni - Deryneia 1",
    "lat": 35.0523061192564,
    "lon": 33.972574700244,
    "name": "Roundabout Paralimni - Deryneia 1"
  },
  {
    "description": "Griva Digeni Ave. - Thessalonikis",
    "lat": 35.0496928169388,
    "lon": 33.9768638464953,
    "name": "Griva Digeni Ave. - Thessalonikis"
  },
  {
    "description": "1 Apriliou Ave. - Georgiou Griva Digeni Ave.",
    "lat": 35.0444999288386,
    "lon": 33.9778765009908,
    "name": "1 Apriliou Ave. - Georgiou Griva Digeni Ave."
  },
  {
    "description": "Xenion Education 2",
    "lat": 35.0416139942632,
    "lon": 33.9779407832524,
    "name": "Xenion Education 2"
  },
  {
    "description": "1 Apriliou Ave. - Tasou Markou 2",
    "lat": 35.0408472754537,
    "lon": 33.9779755007448,
    "name": "1 Apriliou Ave. - Tasou Markou 2"
  },
  {
    "description": "Paralimni Square Bus Station",
    "lat": 35.0394760084475,
    "lon": 33.983638211908,
    "name": "Paralimni Square Bus Station"
  },
  {
    "description": "B´ Paralimni Elementary School 1",
    "lat": 35.0407676818496,
    "lon": 33.9900125745783,
    "name": "B´ Paralimni Elementary School 1"
  },
  {
    "description": "Protara Ave. - 1st Stop",
    "lat": 35.0422200103053,
    "lon": 33.9921461048547,
    "name": "Protara Ave. - 1st Stop"
  },
  {
    "description": "Protara Ave. - 3rd Stop",
    "lat": 35.043264871686,
    "lon": 33.9944830878536,
    "name": "Protara Ave. - 3rd Stop"
  },
  {
    "description": "Protara Ave. - Psychari",
    "lat": 35.0441186403956,
    "lon": 33.9981225274155,
    "name": "Protara Ave. - Psychari"
  },
  {
    "description": "Agia Varvara Church 2",
    "lat": 35.0456960731696,
    "lon": 34.0025603014262,
    "name": "Agia Varvara Church 2"
  },
  {
    "description": "Ave. Protara - Antaiou",
    "lat": 35.047679423153,
    "lon": 34.0069593691173,
    "name": "Ave. Protara - Antaiou"
  },
  {
    "description": "Protara Ave. - 5th Stop",
    "lat": 35.0487307058956,
    "lon": 34.0106563870134,
    "name": "Protara Ave. - 5th Stop"
  },
  {
    "description": "Agia Triada Beach 1",
    "lat": 35.0487842831874,
    "lon": 34.0171919651821,
    "name": "Agia Triada Beach 1"
  },
  {
    "description": "Vrysoudion - 1st Stop",
    "lat": 35.0474199146587,
    "lon": 34.0250255859767,
    "name": "Vrysoudion - 1st Stop"
  },
  {
    "description": "Louma Beach 1",
    "lat": 35.0437744623301,
    "lon": 34.029595864433,
    "name": "Louma Beach 1"
  },
  {
    "description": "Vrysoudion - 3rd Stop",
    "lat": 35.0420019263709,
    "lon": 34.0312729978072,
    "name": "Vrysoudion - 3rd Stop"
  },
  {
    "description": "Paralimni Port 1",
    "lat": 35.0365762414445,
    "lon": 34.0352172685473,
    "name": "Paralimni Port 1"
  },
  {
    "description": "Pinias - Perneras Ave. 1",
    "lat": 35.0327644981196,
    "lon": 34.0317598696142,
    "name": "Pinias - Perneras Ave. 1"
  },
  {
    "description": "Perneras Ave. - Ellinon",
    "lat": 35.0319180990877,
    "lon": 34.0347967650397,
    "name": "Perneras Ave. - Ellinon"
  },
  {
    "description": "Perneras Ave. - Perneras 1",
    "lat": 35.0300378883083,
    "lon": 34.0374587785941,
    "name": "Perneras Ave. - Perneras 1"
  },
  {
    "description": "Perneras Ave. - Lapithou",
    "lat": 35.0285344026896,
    "lon": 34.038239997757,
    "name": "Perneras Ave. - Lapithou"
  },
  {
    "description": "Perneras Ave. - Afroditis",
    "lat": 35.0272173364642,
    "lon": 34.0393633612538,
    "name": "Perneras Ave. - Afroditis"
  },
  {
    "description": "Protara - Kavo Gkreko Ave. - 7th Stop",
    "lat": 35.0228784275872,
    "lon": 34.0395715080463,
    "name": "Protara - Kavo Gkreko Ave. - 7th Stop"
  },
  {
    "description": "Protara - Kavo Gkreko Ave. - Dionysou",
    "lat": 35.0187424764951,
    "lon": 34.0444952580868,
    "name": "Protara - Kavo Gkreko Ave. - Dionysou"
  },
  {
    "description": "Protara - Vrisi Beach",
    "lat": 35.0176241558379,
    "lon": 34.0476595600232,
    "name": "Protara - Vrisi Beach"
  },
  {
    "description": "Protara - Sunrise Beach",
    "lat": 35.0152820487031,
    "lon": 34.0526055766132,
    "name": "Protara - Sunrise Beach"
  },
  {
    "description": "Protara - Fig Tree Bay",
    "lat": 35.0114130577117,
    "lon": 34.0568412003122,
    "name": "Protara - Fig Tree Bay"
  },
  {
    "description": "Protara - Kavo Gkreko Ave. - Dafnis",
    "lat": 35.0075474212569,
    "lon": 34.0586106813672,
    "name": "Protara - Kavo Gkreko Ave. - Dafnis"
  },
  {
    "description": "Protara - Kavo Gkreko Ave. - Vyzakias",
    "lat": 35.001010579138,
    "lon": 34.0616605171154,
    "name": "Protara - Kavo Gkreko Ave. - Vyzakias"
  },
  {
    "description": "Protara - Kavo Gkreko Ave. - 15th Stop",
    "lat": 34.9961666305734,
    "lon": 34.0649619160243,
    "name": "Protara - Kavo Gkreko Ave. - 15th Stop"
  },
  {
    "description": "Konnou - Iras 1",
    "lat": 34.9937441528371,
    "lon": 34.0676917511042,
    "name": "Konnou - Iras 1"
  },
  {
    "description": "Konnou - Kirkis 1",
    "lat": 34.9908826387201,
    "lon": 34.070097962071,
    "name": "Konnou - Kirkis 1"
  },
  {
    "description": "Konnou - Grecian Park Hotel 1",
    "lat": 34.9865315927135,
    "lon": 34.068606066817,
    "name": "Konnou - Grecian Park Hotel 1"
  },
  {
    "description": "Konnos Beach 1",
    "lat": 34.9836719963986,
    "lon": 34.066695453237,
    "name": "Konnos Beach 1"
  }
]