[
  {
    "description": "Paralimni Square Bus Station",
    "lat": 35.0394760084475,
    "lon": 33.983638211908,
    "name": "Paralimni Square Bus Station"
  },
  {
    "description": "1 Apriliou Ave. - Tasou Markou 1",
    "lat": 35.0407491591044,
    "lon": 33.9778427683324,
    "name": "1 Apriliou Ave. - Tasou Markou 1"
  },
  {
    "description": "Xenion Education 1",
    "lat": 35.0418675043459,
    "lon": 33.9778122394597,
    "name": "Xenion Education 1"
  },
  {
    "description": "1 Apriliou Ave. - Cheimaras",
    "lat": 35.0461075260558,
    "lon": 33.9775557668991,
    "name": "1 Apriliou Ave. - Cheimaras"
  },
  {
    "description": "Griva Digeni Ave. - Daidalou",
    "lat": 35.0500492091422,
    "lon": 33.9762759889819,
    "name": "Griva Digeni Ave. - Daidalou"
  },
  {
    "description": "Eleftherias - Nikodimou Mylona",
    "lat": 35.0541375220769,
    "lon": 33.9724538651353,
    "name": "Eleftherias - Nikodimou Mylona"
  },
  {
    "description": "Eleftherias - Grigori Afxentiou",
    "lat": 35.0570790045973,
    "lon": 33.9699556448853,
    "name": "Eleftherias - Grigori Afxentiou"
  },
  {
    "description": "Eleftherias - Agiou Stylianou",
    "lat": 35.0589530333582,
    "lon": 33.9667537938205,
    "name": "Eleftherias - Agiou Stylianou"
  },
  {
    "description": "Famagusta General Hospital",
    "lat": 35.0616307747604,
    "lon": 33.9713035177178,
    "name": "Famagusta General Hospital"
  },
  {
    "description": "Eleftherias - Afroditis",
    "lat": 35.061678409114,
    "lon": 33.9630683116465,
    "name": "Eleftherias - Afroditis"
  },
  {
    "description": "Archiep. Makariou C´ - Stadiou",
    "lat": 35.062309950079,
    "lon": 33.9596103162169,
    "name": "Archiep. Makariou C´ - Stadiou"
  },
  {
    "description": "Archiep. Makariou C´ - Anagenniseos",
    "lat": 35.0606652960502,
    "lon": 33.9543491877211,
    "name": "Archiep. Makariou C´ - Anagenniseos"
  },
  {
    "description": "Archiep. Makariou C´  - Christ. Karona",
    "lat": 35.0576789867598,
    "lon": 33.949971944832,
    "name": "Archiep. Makariou C´  - Christ. Karona"
  },
  {
    "description": "Deryneia Municipal Swimming Pool 2",
    "lat": 35.0499471080408,
    "lon": 33.9342794009099,
    "name": "Deryneia Municipal Swimming Pool 2"
  },
  {
    "description": "Archiep. Makariou C´ - 1st Stop",
    "lat": 35.0459340201236,
    "lon": 33.9284774243344,
    "name": "Archiep. Makariou C´ - 1st Stop"
  },
  {
    "description": "Foti Pitta Ave. - Panou Ioannou",
    "lat": 35.0411111940593,
    "lon": 33.9235878635063,
    "name": "Foti Pitta Ave. - Panou Ioannou"
  },
  {
    "description": "Foti Pitta - Akropoleos",
    "lat": 35.0385029940405,
    "lon": 33.919140278821,
    "name": "Foti Pitta - Akropoleos"
  },
  {
    "description": "Ammochostou - Charalampou Mouskou",
    "lat": 35.0366492943559,
    "lon": 33.8454581225036,
    "name": "Ammochostou - Charalampou Mouskou"
  },
  {
    "description": "Xanthou Samara - Christou Tsiarta",
    "lat": 35.0332738153199,
    "lon": 33.8420139450077,
    "name": "Xanthou Samara - Christou Tsiarta"
  },
  {
    "description": "1st Stop Avgorou Settlement",
    "lat": 35.0265419991143,
    "lon": 33.8388427052488,
    "name": "1st Stop Avgorou Settlement"
  },
  {
    "description": "2nd Stop Avgorou Settlement",
    "lat": 35.0255798052345,
    "lon": 33.8371557332918,
    "name": "2nd Stop Avgorou Settlement"
  },
  {
    "description": "A´ Avgorou Elementary School 1",
    "lat": 35.0332075582365,
    "lon": 33.839864570256,
    "name": "A´ Avgorou Elementary School 1"
  },
  {
    "description": "Karyon - Riga Feraiou",
    "lat": 35.0358767216452,
    "lon": 33.8398480281902,
    "name": "Karyon - Riga Feraiou"
  },
  {
    "description": "Agios Georgios Church 1",
    "lat": 35.0374876997809,
    "lon": 33.8402920810549,
    "name": "Agios Georgios Church 1"
  },
  {
    "description": "Michail Karaoli - Petraki Giallourou 1",
    "lat": 35.0398174249568,
    "lon": 33.8372022672384,
    "name": "Michail Karaoli - Petraki Giallourou 1"
  },
  {
    "description": "B´ Avgorou Elementary School 1",
    "lat": 35.04175434381,
    "lon": 33.8335272003165,
    "name": "B´ Avgorou Elementary School 1"
  },
  {
    "description": "Technical and Agriculture School of Famagusta 1",
    "lat": 35.045922602569,
    "lon": 33.8279118916693,
    "name": "Technical and Agriculture School of Famagusta 1"
  },
  {
    "description": "Achna Livestock Area 2",
    "lat": 35.0359980939851,
    "lon": 33.785373478131,
    "name": "Achna Livestock Area 2"
  },
  {
    "description": "Griva Digeni - Achna Roundabout",
    "lat": 35.0249768187168,
    "lon": 33.7787458498129,
    "name": "Griva Digeni - Achna Roundabout"
  },
  {
    "description": "Arch. Michail and Agia Marina Church 1",
    "lat": 35.0268866149819,
    "lon": 33.7733926086318,
    "name": "Arch. Michail and Agia Marina Church 1"
  },
  {
    "description": "Dasos Achnas Square 1",
    "lat": 35.0295352483052,
    "lon": 33.769514977553,
    "name": "Dasos Achnas Square 1"
  },
  {
    "description": "Griva Digeni - Grigori Afxentiou",
    "lat": 35.0319542625082,
    "lon": 33.7662817504497,
    "name": "Griva Digeni - Grigori Afxentiou"
  },
  {
    "description": "Dasaki Achnas Stadium 1",
    "lat": 35.0331747438975,
    "lon": 33.7629166017368,
    "name": "Dasaki Achnas Stadium 1"
  },
  {
    "description": "Archiep. Makariou C´ Ave. - Salaminos",
    "lat": 35.0221488447801,
    "lon": 33.7481040518644,
    "name": "Archiep. Makariou C´ Ave. - Salaminos"
  },
  {
    "description": "Archiep. Makariou C´ Ave. - Christou Samara",
    "lat": 35.0184371874233,
    "lon": 33.7446175780191,
    "name": "Archiep. Makariou C´ Ave. - Christou Samara"
  },
  {
    "description": "Xylotymvou City Hall 1",
    "lat": 35.0168054268885,
    "lon": 33.7430902188198,
    "name": "Xylotymvou City Hall 1"
  },
  {
    "description": "Xylotymvou Public Kindergarden",
    "lat": 35.010274497604,
    "lon": 33.7346140491871,
    "name": "Xylotymvou Public Kindergarden"
  },
  {
    "description": "Xylotymvou - Dasaki Achnas Road",
    "lat": 35.0087626668366,
    "lon": 33.7326168510379,
    "name": "Xylotymvou - Dasaki Achnas Road"
  },
  {
    "description": "British Base (near highway exit)",
    "lat": 35.0044219903979,
    "lon": 33.7271863299191,
    "name": "British Base (near highway exit)"
  }
]