[
  {
    "description": "Megalou Alexandrou - Ex Le Meridien",
    "lat": 34.7139780570463,
    "lon": 33.1749845309631,
    "name": "Megalou Alexandrou - Ex Le Meridien"
  },
  {
    "description": "Megalou Alexandrou - Periyiali Gardens",
    "lat": 34.7140183582068,
    "lon": 33.172014150617,
    "name": "Megalou Alexandrou - Periyiali Gardens"
  },
  {
    "description": "Paradromos Amathountos - St. Raphael Hotel",
    "lat": 34.7143195882148,
    "lon": 33.1694156076817,
    "name": "Paradromos Amathountos - St. Raphael Hotel"
  },
  {
    "description": "Paradromos Amathountos - Grand Resort Hotel",
    "lat": 34.7137668332857,
    "lon": 33.1647840628768,
    "name": "Paradromos Amathountos - Grand Resort Hotel"
  },
  {
    "description": "Paradromos Amathountos - Elias Hotel",
    "lat": 34.7142845985891,
    "lon": 33.1619893483961,
    "name": "Paradromos Amathountos - Elias Hotel"
  },
  {
    "description": "Amathountos Ave. - Atlantic Bay Hotel",
    "lat": 34.7136837975638,
    "lon": 33.1523669633735,
    "name": "Amathountos Ave. - Atlantic Bay Hotel"
  },
  {
    "description": "Amathountos Ave. - Ancient Amathounta",
    "lat": 34.7095809993761,
    "lon": 33.136896365365,
    "name": "Amathountos Ave. - Ancient Amathounta"
  },
  {
    "description": "Amathountos Ave. - Amathus hotel",
    "lat": 34.7095213552864,
    "lon": 33.1337621570935,
    "name": "Amathountos Ave. - Amathus hotel"
  },
  {
    "description": "Amathountos Ave. - Mediterranean Hotel 1",
    "lat": 34.7100586346049,
    "lon": 33.1289144020793,
    "name": "Amathountos Ave. - Mediterranean Hotel 1"
  },
  {
    "description": "Amathountos Ave. - Four Seasons Hotel",
    "lat": 34.7085467306172,
    "lon": 33.1259527047505,
    "name": "Amathountos Ave. - Four Seasons Hotel"
  },
  {
    "description": "Amathountos Ave. - Armonia Beach",
    "lat": 34.7076849182811,
    "lon": 33.1221184769696,
    "name": "Amathountos Ave. - Armonia Beach"
  },
  {
    "description": "Amathountos Ave. - Poseidonia Hotel",
    "lat": 34.7059852321227,
    "lon": 33.1173440347264,
    "name": "Amathountos Ave. - Poseidonia Hotel"
  },
  {
    "description": "Amathountos Ave. - Sailing Centre",
    "lat": 34.705104510564,
    "lon": 33.114154248566,
    "name": "Amathountos Ave. - Sailing Centre"
  },
  {
    "description": "Amathountos Ave. - Marathon Hotel",
    "lat": 34.7034582549087,
    "lon": 33.1097842071301,
    "name": "Amathountos Ave. - Marathon Hotel"
  },
  {
    "description": "Vasileos Georgiou A´ - Pervolas",
    "lat": 34.7013348530156,
    "lon": 33.104299977933,
    "name": "Vasileos Georgiou A´ - Pervolas"
  },
  {
    "description": "Vasileos Georgiou A´ - Stymfalion",
    "lat": 34.6993725987447,
    "lon": 33.0999517875182,
    "name": "Vasileos Georgiou A´ - Stymfalion"
  },
  {
    "description": "Vasileos Georgiou A´ - Apollonia Hotel 1",
    "lat": 34.6982220026645,
    "lon": 33.0953426854081,
    "name": "Vasileos Georgiou A´ - Apollonia Hotel 1"
  },
  {
    "description": "Vasileos Georgiou A´ - Amerikanas",
    "lat": 34.6964850370689,
    "lon": 33.0907767448744,
    "name": "Vasileos Georgiou A´ - Amerikanas"
  },
  {
    "description": "Vasileos Georgiou A´ - Ydras",
    "lat": 34.6957383421426,
    "lon": 33.0883411175976,
    "name": "Vasileos Georgiou A´ - Ydras"
  },
  {
    "description": "Vasileos Georgiou A´ - Dasoudi Beach",
    "lat": 34.6938025165958,
    "lon": 33.084070050195,
    "name": "Vasileos Georgiou A´ - Dasoudi Beach"
  },
  {
    "description": "Vasileos Georgiou A´ - Andrea Zappa",
    "lat": 34.692776264035,
    "lon": 33.0814377622389,
    "name": "Vasileos Georgiou A´ - Andrea Zappa"
  },
  {
    "description": "Promachon Eleftherias - KEAN 1",
    "lat": 34.6905888888998,
    "lon": 33.0752561654003,
    "name": "Promachon Eleftherias - KEAN 1"
  },
  {
    "description": "28 Oktovriou - Debenhams 1",
    "lat": 34.6880320242089,
    "lon": 33.0680811006019,
    "name": "28 Oktovriou - Debenhams 1"
  },
  {
    "description": "28 Oktovriou - Kerkyras",
    "lat": 34.6864018586877,
    "lon": 33.0642587406617,
    "name": "28 Oktovriou - Kerkyras"
  },
  {
    "description": "28 Oktovriou - Akti Olympion B´ Beach",
    "lat": 34.6836270785222,
    "lon": 33.0588418384404,
    "name": "28 Oktovriou - Akti Olympion B´ Beach"
  },
  {
    "description": "28 Oktovriou - Zoo",
    "lat": 34.6816446556904,
    "lon": 33.055609124882,
    "name": "28 Oktovriou - Zoo"
  },
  {
    "description": "Christodoulou Chatzipavlou - Mistral Hotel",
    "lat": 34.6775889083291,
    "lon": 33.0502793765553,
    "name": "Christodoulou Chatzipavlou - Mistral Hotel"
  },
  {
    "description": "Christodoulou Chatzipavlou - Anexartisias",
    "lat": 34.6756329138125,
    "lon": 33.0480622863795,
    "name": "Christodoulou Chatzipavlou - Anexartisias"
  },
  {
    "description": "Spyrou Araouzou - Molos Parking Place",
    "lat": 34.6729738255774,
    "lon": 33.0449170994356,
    "name": "Spyrou Araouzou - Molos Parking Place"
  },
  {
    "description": "Tzelal Bagiar - Agios Antonios Church 1",
    "lat": 34.6717678514845,
    "lon": 33.0377560138059,
    "name": "Tzelal Bagiar - Agios Antonios Church 1"
  },
  {
    "description": "Fragklinou Rousvelt - KEO 1",
    "lat": 34.6706513540189,
    "lon": 33.0316975986689,
    "name": "Fragklinou Rousvelt - KEO 1"
  },
  {
    "description": "Fragklinou Rousvelt - Water Board 1",
    "lat": 34.6689838059398,
    "lon": 33.0285862078789,
    "name": "Fragklinou Rousvelt - Water Board 1"
  },
  {
    "description": "Fragklinou Rousvelt - Synergatismou",
    "lat": 34.6664867793441,
    "lon": 33.0242413375462,
    "name": "Fragklinou Rousvelt - Synergatismou"
  },
  {
    "description": "Fragklinou Rousvelt - Aimilou Veaki",
    "lat": 34.6641429617571,
    "lon": 33.0195256784279,
    "name": "Fragklinou Rousvelt - Aimilou Veaki"
  },
  {
    "description": "Omonoias Ave. - Tsiflikoudion",
    "lat": 34.6625110053161,
    "lon": 33.0176153309949,
    "name": "Omonoias Ave. - Tsiflikoudion"
  },
  {
    "description": "New Port",
    "lat": 34.6537446196729,
    "lon": 33.0232227244472,
    "name": "New Port"
  },
  {
    "description": "New Port - Passenger Building",
    "lat": 34.6556927006373,
    "lon": 33.0221319488309,
    "name": "New Port - Passenger Building"
  },
  {
    "description": "Port Parallel Road - 1st Stop",
    "lat": 34.6575512788196,
    "lon": 33.0165884188009,
    "name": "Port Parallel Road - 1st Stop"
  },
  {
    "description": "Port Parallel Road - 2nd Stop",
    "lat": 34.6540259002952,
    "lon": 33.0109020583973,
    "name": "Port Parallel Road - 2nd Stop"
  },
  {
    "description": "Port Parallel Road - 3rd Stop",
    "lat": 34.6468480192576,
    "lon": 33.0041793077992,
    "name": "Port Parallel Road - 3rd Stop"
  },
  {
    "description": "Kathetos Limaniou - Kosta Monti",
    "lat": 34.6497428567047,
    "lon": 32.9996180656463,
    "name": "Kathetos Limaniou - Kosta Monti"
  },
  {
    "description": "MY MALL",
    "lat": 34.6512127016143,
    "lon": 32.9954930950808,
    "name": "MY MALL"
  }
]