[
  {
    "description": "Pascal English School 1",
    "lat": 34.9529781277762,
    "lon": 33.5683628787852,
    "name": "Pascal English School 1"
  },
  {
    "description": "Athinon Ave. - Akropoleos Ave. 2",
    "lat": 34.9500364429354,
    "lon": 33.5764469530229,
    "name": "Athinon Ave. - Akropoleos Ave. 2"
  },
  {
    "description": "Athinon Ave. - Olympou 2",
    "lat": 34.9515414999517,
    "lon": 33.5822949362559,
    "name": "Athinon Ave. - Olympou 2"
  },
  {
    "description": "1 Apriliou Ave. - Sofokleous",
    "lat": 34.9524062055697,
    "lon": 33.5862438325121,
    "name": "1 Apriliou Ave. - Sofokleous"
  },
  {
    "description": "Agios Thomas Church 1",
    "lat": 34.953469954663,
    "lon": 33.5900299530203,
    "name": "Agios Thomas Church 1"
  },
  {
    "description": "Megalou Alexandrou",
    "lat": 34.9530297752757,
    "lon": 33.5933891388573,
    "name": "Megalou Alexandrou"
  },
  {
    "description": "Athinagorou",
    "lat": 34.9522804523614,
    "lon": 33.5935699252745,
    "name": "Athinagorou"
  },
  {
    "description": "Palaion Patron Germanou 2",
    "lat": 34.9517992001615,
    "lon": 33.5924055352392,
    "name": "Palaion Patron Germanou 2"
  },
  {
    "description": "Agias Lavras",
    "lat": 34.9503263781404,
    "lon": 33.593019197046,
    "name": "Agias Lavras"
  },
  {
    "description": "Coop Bank Allileggie 2",
    "lat": 34.9480589298951,
    "lon": 33.5938570925411,
    "name": "Coop Bank Allileggie 2"
  },
  {
    "description": "Agios Fanourios Church 2",
    "lat": 34.9439116938272,
    "lon": 33.5955465017038,
    "name": "Agios Fanourios Church 2"
  },
  {
    "description": "Omirou - Kassandras",
    "lat": 34.9393540064082,
    "lon": 33.596345783481,
    "name": "Omirou - Kassandras"
  },
  {
    "description": "D´ Elementary School Aradippou - Ag. Fanourios 2",
    "lat": 34.9328340350163,
    "lon": 33.6019157162771,
    "name": "D´ Elementary School Aradippou - Ag. Fanourios 2"
  },
  {
    "description": "Omirou - Kalamou",
    "lat": 34.9309852684463,
    "lon": 33.6037745439034,
    "name": "Omirou - Kalamou"
  },
  {
    "description": "Spetson",
    "lat": 34.9307806372969,
    "lon": 33.6068388431357,
    "name": "Spetson"
  },
  {
    "description": "Pavlou Mela - Kastorias",
    "lat": 34.9281110265704,
    "lon": 33.6087352471164,
    "name": "Pavlou Mela - Kastorias"
  },
  {
    "description": "Kastorias - Kirkis",
    "lat": 34.927319502649,
    "lon": 33.6119264553874,
    "name": "Kastorias - Kirkis"
  },
  {
    "description": "Ammochostos Stadium",
    "lat": 34.9293375632391,
    "lon": 33.6140765110408,
    "name": "Ammochostos Stadium"
  },
  {
    "description": "Giannou Kranidioti Ave. - Stratigou Timagia Ave.",
    "lat": 34.9278018451571,
    "lon": 33.6146234609617,
    "name": "Giannou Kranidioti Ave. - Stratigou Timagia Ave."
  },
  {
    "description": "Stratigou Timagia Ave. - Granikou",
    "lat": 34.9289752101073,
    "lon": 33.6179607177231,
    "name": "Stratigou Timagia Ave. - Granikou"
  },
  {
    "description": "Smyrnis - Attaleias",
    "lat": 34.9277595264974,
    "lon": 33.6176340849932,
    "name": "Smyrnis - Attaleias"
  },
  {
    "description": "Sintika Chanoum 2",
    "lat": 34.9255622061786,
    "lon": 33.6188329109529,
    "name": "Sintika Chanoum 2"
  },
  {
    "description": "Panagia Chrisopolitissa Church 2",
    "lat": 34.922291962239,
    "lon": 33.6270304128689,
    "name": "Panagia Chrisopolitissa Church 2"
  },
  {
    "description": "Chrysopolitissis - Michail Partella",
    "lat": 34.9199988859494,
    "lon": 33.6292901202679,
    "name": "Chrysopolitissis - Michail Partella"
  },
  {
    "description": "Evryviadeio High School 2",
    "lat": 34.918193312671,
    "lon": 33.6314330135244,
    "name": "Evryviadeio High School 2"
  },
  {
    "description": "Grigori Afxentiou Ave. - Foinikoudes 2",
    "lat": 34.9178223662695,
    "lon": 33.6351304406883,
    "name": "Grigori Afxentiou Ave. - Foinikoudes 2"
  },
  {
    "description": "Archiep. Makariou C´ Ave. - Filiou Tsigaridi 1",
    "lat": 34.9187528603531,
    "lon": 33.6365279619346,
    "name": "Archiep. Makariou C´ Ave. - Filiou Tsigaridi 1"
  },
  {
    "description": "Larnaca Station",
    "lat": 34.9192327751747,
    "lon": 33.6378672895804,
    "name": "Larnaca Station"
  }
]