[
  {
    "description": "Nikou Karasamani - 1st Pelendri 2",
    "lat": 34.8944819102979,
    "lon": 32.9708105546225,
    "name": "Nikou Karasamani - 1st Pelendri 2"
  },
  {
    "description": "Nikou Karasamani - 2nd Pelendri 2",
    "lat": 34.8978361823942,
    "lon": 32.9696929659581,
    "name": "Nikou Karasamani - 2nd Pelendri 2"
  },
  {
    "description": "Grigori Afxentiou - 3rd Pelendri 2",
    "lat": 34.8999451468519,
    "lon": 32.9653797043942,
    "name": "Grigori Afxentiou - 3rd Pelendri 2"
  },
  {
    "description": "Grigori Afxentiou - 4th Pelendri",
    "lat": 34.8976906741242,
    "lon": 32.9651179679856,
    "name": "Grigori Afxentiou - 4th Pelendri"
  },
  {
    "description": "Sotiri Tsangari - 5th Pelendri 2",
    "lat": 34.8981690365632,
    "lon": 32.9666500885006,
    "name": "Sotiri Tsangari - 5th Pelendri 2"
  },
  {
    "description": "Archagelos Michail Church - Pelendri",
    "lat": 34.896302788335,
    "lon": 32.9681174614023,
    "name": "Archagelos Michail Church - Pelendri"
  },
  {
    "description": "Pelendri Elementary School 2",
    "lat": 34.8945082522448,
    "lon": 32.9679868186267,
    "name": "Pelendri Elementary School 2"
  },
  {
    "description": "Pelendri Village Center 2",
    "lat": 34.8956530767956,
    "lon": 32.9664650432856,
    "name": "Pelendri Village Center 2"
  },
  {
    "description": "Agios Ioannis Church",
    "lat": 34.8954719816097,
    "lon": 32.9638711981665,
    "name": "Agios Ioannis Church"
  },
  {
    "description": "Trimiklini - Pelendri Road 2",
    "lat": 34.8899238979665,
    "lon": 32.9569350873797,
    "name": "Trimiklini - Pelendri Road 2"
  },
  {
    "description": "Distrato Pelendriou 2",
    "lat": 34.8602780564943,
    "lon": 32.9137807561998,
    "name": "Distrato Pelendriou 2"
  },
  {
    "description": "Panagias Eleousis Ave. - 1st Trimiklini 2",
    "lat": 34.8538658489568,
    "lon": 32.9128576066831,
    "name": "Panagias Eleousis Ave. - 1st Trimiklini 2"
  },
  {
    "description": "Trimiklini Elementary School 2",
    "lat": 34.8496715899568,
    "lon": 32.9114071771834,
    "name": "Trimiklini Elementary School 2"
  },
  {
    "description": "Panagias Eleousas Church 2",
    "lat": 34.8460826500211,
    "lon": 32.9115313442624,
    "name": "Panagias Eleousas Church 2"
  },
  {
    "description": "Panagias Eleousis Ave. - 4th Trimiklini 2",
    "lat": 34.8442266452343,
    "lon": 32.9138084369825,
    "name": "Panagias Eleousis Ave. - 4th Trimiklini 2"
  },
  {
    "description": "Panagias Eleousis Ave. - 5th Trimiklini 2",
    "lat": 34.8393369016692,
    "lon": 32.9108057584725,
    "name": "Panagias Eleousis Ave. - 5th Trimiklini 2"
  },
  {
    "description": "Lemesos - Troodos Road - Laneia 2",
    "lat": 34.8230338483546,
    "lon": 32.9120808858004,
    "name": "Lemesos - Troodos Road - Laneia 2"
  },
  {
    "description": "Distrato Lanias - Doros 2",
    "lat": 34.8162825678357,
    "lon": 32.9163087052419,
    "name": "Distrato Lanias - Doros 2"
  },
  {
    "description": "Lemesos - Troodos Road - 1st  Alassa 2",
    "lat": 34.7619761176405,
    "lon": 32.9279900394783,
    "name": "Lemesos - Troodos Road - 1st  Alassa 2"
  },
  {
    "description": "Polemidia - Alassa Road 2",
    "lat": 34.744726858029,
    "lon": 32.9812091969898,
    "name": "Polemidia - Alassa Road 2"
  },
  {
    "description": "The Heritage 2",
    "lat": 34.7395422506546,
    "lon": 32.9859733233093,
    "name": "The Heritage 2"
  },
  {
    "description": "Lemesos - Troodos Road - Argyri Gavala 2",
    "lat": 34.7089274521079,
    "lon": 33.0004258868905,
    "name": "Lemesos - Troodos Road - Argyri Gavala 2"
  },
  {
    "description": "Lemesos - Troodos Road - Agias Anastasias",
    "lat": 34.7054194547858,
    "lon": 33.0032759147104,
    "name": "Lemesos - Troodos Road - Agias Anastasias"
  },
  {
    "description": "Giannou Kranidioti - Evagora Laniti",
    "lat": 34.7019024011066,
    "lon": 33.0054923845672,
    "name": "Giannou Kranidioti - Evagora Laniti"
  },
  {
    "description": "Giannou Kranidioti - Anoixeos",
    "lat": 34.6974110978269,
    "lon": 33.0112462235336,
    "name": "Giannou Kranidioti - Anoixeos"
  },
  {
    "description": "Nikou & Despoinas Pattichi - Sp. Kyprianou Ave. 1",
    "lat": 34.6917652918361,
    "lon": 33.0165406520715,
    "name": "Nikou & Despoinas Pattichi - Sp. Kyprianou Ave. 1"
  },
  {
    "description": "Nikou & Despoinas Pattichi - Epidamnou",
    "lat": 34.6882839198098,
    "lon": 33.0196514370874,
    "name": "Nikou & Despoinas Pattichi - Epidamnou"
  },
  {
    "description": "Nikou & Despoinas Pattichi - Annis Marias",
    "lat": 34.6874811173972,
    "lon": 33.0209067437208,
    "name": "Nikou & Despoinas Pattichi - Annis Marias"
  },
  {
    "description": "Nikou & Despoinas Pattichi - Dikaiarchou 2",
    "lat": 34.6863624089101,
    "lon": 33.023581179568,
    "name": "Nikou & Despoinas Pattichi - Dikaiarchou 2"
  },
  {
    "description": "Nikou & Despoinas Pattichi - Vas. Konstantinou 2",
    "lat": 34.6842149398374,
    "lon": 33.0291591222144,
    "name": "Nikou & Despoinas Pattichi - Vas. Konstantinou 2"
  },
  {
    "description": "Archiep. Leontiou A´ - Karatza 2",
    "lat": 34.6823114227731,
    "lon": 33.0320950419712,
    "name": "Archiep. Leontiou A´ - Karatza 2"
  },
  {
    "description": "Archiepiskopou Leontiou A´ - Filiou Zanettou",
    "lat": 34.6816798914142,
    "lon": 33.0331318750662,
    "name": "Archiepiskopou Leontiou A´ - Filiou Zanettou"
  },
  {
    "description": "EMEL Bus Station Leontiou A´",
    "lat": 34.6792348518186,
    "lon": 33.0372354212458,
    "name": "EMEL Bus Station Leontiou A´"
  }
]