[
  {
    "description": "Nikou Karasamani - 1st Pelendri 2",
    "lat": 34.8944819102979,
    "lon": 32.9708105546225,
    "name": "Nikou Karasamani - 1st Pelendri 2"
  },
  {
    "description": "Nikou Karasamani - 2nd Pelendri 2",
    "lat": 34.8978361823942,
    "lon": 32.9696929659581,
    "name": "Nikou Karasamani - 2nd Pelendri 2"
  },
  {
    "description": "Grigori Afxentiou - 3rd Pelendri 2",
    "lat": 34.8999451468519,
    "lon": 32.9653797043942,
    "name": "Grigori Afxentiou - 3rd Pelendri 2"
  },
  {
    "description": "Grigori Afxentiou - 4th Pelendri",
    "lat": 34.8976906741242,
    "lon": 32.9651179679856,
    "name": "Grigori Afxentiou - 4th Pelendri"
  },
  {
    "description": "Sotiri Tsangari - 5th Pelendri 2",
    "lat": 34.8981690365632,
    "lon": 32.9666500885006,
    "name": "Sotiri Tsangari - 5th Pelendri 2"
  },
  {
    "description": "Archagelos Michail Church - Pelendri",
    "lat": 34.896302788335,
    "lon": 32.9681174614023,
    "name": "Archagelos Michail Church - Pelendri"
  },
  {
    "description": "Pelendri Elementary School 2",
    "lat": 34.8945082522448,
    "lon": 32.9679868186267,
    "name": "Pelendri Elementary School 2"
  },
  {
    "description": "Pelendri Village Center 2",
    "lat": 34.8956530767956,
    "lon": 32.9664650432856,
    "name": "Pelendri Village Center 2"
  },
  {
    "description": "Agios Ioannis Church",
    "lat": 34.8954719816097,
    "lon": 32.9638711981665,
    "name": "Agios Ioannis Church"
  },
  {
    "description": "Trimiklini - Pelendri Road 2",
    "lat": 34.8899238979665,
    "lon": 32.9569350873797,
    "name": "Trimiklini - Pelendri Road 2"
  },
  {
    "description": "Distrato Pelendriou 2",
    "lat": 34.8602780564943,
    "lon": 32.9137807561998,
    "name": "Distrato Pelendriou 2"
  }
]