[
  {
    "description": "Pentakomo",
    "lat": 34.7379614244489,
    "lon": 33.2407755234414,
    "name": "Pentakomo"
  },
  {
    "description": "Pentakomo Community Board 2",
    "lat": 34.7349162224063,
    "lon": 33.2393466278455,
    "name": "Pentakomo Community Board 2"
  },
  {
    "description": "Agnooumenon - 1st Pentakomo 1",
    "lat": 34.7313432008642,
    "lon": 33.2357317069354,
    "name": "Agnooumenon - 1st Pentakomo 1"
  },
  {
    "description": "Moni Station 2",
    "lat": 34.726943338363,
    "lon": 33.205387387032,
    "name": "Moni Station 2"
  },
  {
    "description": "Moni Police Station 1",
    "lat": 34.72515328004,
    "lon": 33.2027069997799,
    "name": "Moni Police Station 1"
  },
  {
    "description": "Agios Epiktitos Church 1",
    "lat": 34.7278487807726,
    "lon": 33.2032050986294,
    "name": "Agios Epiktitos Church 1"
  },
  {
    "description": "2nd Moni - Monagroulli Road",
    "lat": 34.7343287743073,
    "lon": 33.2054821219485,
    "name": "2nd Moni - Monagroulli Road"
  },
  {
    "description": "Moni Health Center 2",
    "lat": 34.7375434972988,
    "lon": 33.202868340026,
    "name": "Moni Health Center 2"
  },
  {
    "description": "Kostaki Panagiotou - 2nd Moni 2",
    "lat": 34.7388173785583,
    "lon": 33.2014403985767,
    "name": "Kostaki Panagiotou - 2nd Moni 2"
  },
  {
    "description": "Andrea Nikolaou - 3rd Moni 2",
    "lat": 34.74013977582,
    "lon": 33.1979041483913,
    "name": "Andrea Nikolaou - 3rd Moni 2"
  },
  {
    "description": "Andrea Nikolaou - 4th Moni 2",
    "lat": 34.7405891714288,
    "lon": 33.1932186873898,
    "name": "Andrea Nikolaou - 4th Moni 2"
  },
  {
    "description": "Andrea Nikolaou - 1st Pyrgos 2",
    "lat": 34.7419361426383,
    "lon": 33.1852797139147,
    "name": "Andrea Nikolaou - 1st Pyrgos 2"
  },
  {
    "description": "Andrea Nikolaou - 2nd Pyrgos 2",
    "lat": 34.7427136256947,
    "lon": 33.1839923468254,
    "name": "Andrea Nikolaou - 2nd Pyrgos 2"
  },
  {
    "description": "Panagia Pyrgiotissa Church 2",
    "lat": 34.7411356959217,
    "lon": 33.1838686802865,
    "name": "Panagia Pyrgiotissa Church 2"
  },
  {
    "description": "Panagia Chrysopyrgotissis - 4th Pyrgos 2",
    "lat": 34.7395593759164,
    "lon": 33.182674451967,
    "name": "Panagia Chrysopyrgotissis - 4th Pyrgos 2"
  },
  {
    "description": "Pyrgos Community Board 2",
    "lat": 34.740597761066,
    "lon": 33.1817809429791,
    "name": "Pyrgos Community Board 2"
  },
  {
    "description": "Grigori Afxentiou - 6th Pyrgos 2",
    "lat": 34.7375914191732,
    "lon": 33.1779837561158,
    "name": "Grigori Afxentiou - 6th Pyrgos 2"
  },
  {
    "description": "Grigori Afxentiou - 7th Pyrgos 2",
    "lat": 34.7346978551811,
    "lon": 33.177191056682,
    "name": "Grigori Afxentiou - 7th Pyrgos 2"
  },
  {
    "description": "Grigori Afxentiou - 8th Pyrgos 2",
    "lat": 34.7327916927819,
    "lon": 33.1732873713449,
    "name": "Grigori Afxentiou - 8th Pyrgos 2"
  },
  {
    "description": "Spyrou Kyprianou Ave. - Christaki Kranou",
    "lat": 34.7059036356265,
    "lon": 33.0853380642205,
    "name": "Spyrou Kyprianou Ave. - Christaki Kranou"
  },
  {
    "description": "Spyrou Kyprianou Ave. - Methanon",
    "lat": 34.7040479317145,
    "lon": 33.0824643219773,
    "name": "Spyrou Kyprianou Ave. - Methanon"
  },
  {
    "description": "Spyrou Kyprianou Ave. - Akarnanias",
    "lat": 34.7025346026578,
    "lon": 33.0799513739199,
    "name": "Spyrou Kyprianou Ave. - Akarnanias"
  },
  {
    "description": "Kolonakiou - Pelasgon",
    "lat": 34.7007693754548,
    "lon": 33.0764009680701,
    "name": "Kolonakiou - Pelasgon"
  },
  {
    "description": "Health Centre 1",
    "lat": 34.6992646392521,
    "lon": 33.0743795878281,
    "name": "Health Centre 1"
  },
  {
    "description": "Kolonakiou - Andrea kai Annas Poupoutsi",
    "lat": 34.6979314157932,
    "lon": 33.072009030751,
    "name": "Kolonakiou - Andrea kai Annas Poupoutsi"
  },
  {
    "description": "Linopetra High School 1",
    "lat": 34.6956343997182,
    "lon": 33.0675632411505,
    "name": "Linopetra High School 1"
  },
  {
    "description": "Griva Digeni - Stratigou Timagia",
    "lat": 34.693201300988,
    "lon": 33.0643622582278,
    "name": "Griva Digeni - Stratigou Timagia"
  },
  {
    "description": "Griva Digeni - Griva Digeni Hideout 1",
    "lat": 34.6916422609963,
    "lon": 33.0623303213213,
    "name": "Griva Digeni - Griva Digeni Hideout 1"
  },
  {
    "description": "Agios Nikolaos Church 1",
    "lat": 34.6887681600871,
    "lon": 33.0570004139943,
    "name": "Agios Nikolaos Church 1"
  },
  {
    "description": "Griva Digeni - Archiep. Makariou C´ Ave.",
    "lat": 34.6872090893536,
    "lon": 33.054761294322,
    "name": "Griva Digeni - Archiep. Makariou C´ Ave."
  },
  {
    "description": "Archiep. Makariou C´ Ave. - Griva Digeni 1",
    "lat": 34.6867049916607,
    "lon": 33.0527085182304,
    "name": "Archiep. Makariou C´ Ave. - Griva Digeni 1"
  },
  {
    "description": "Archiep. Makariou C´ Ave. - Kosta Partasidi",
    "lat": 34.6873833341999,
    "lon": 33.0478616468077,
    "name": "Archiep. Makariou C´ Ave. - Kosta Partasidi"
  },
  {
    "description": "Archiep. Makariou C´ Ave. - Ipparchou",
    "lat": 34.6875115795247,
    "lon": 33.0424794608923,
    "name": "Archiep. Makariou C´ Ave. - Ipparchou"
  },
  {
    "description": "Laniteio School 1",
    "lat": 34.6870615943218,
    "lon": 33.0397826570356,
    "name": "Laniteio School 1"
  },
  {
    "description": "Agias Fylaxeos - Episkopou Lavrentiou 2",
    "lat": 34.6854660810192,
    "lon": 33.037718562991,
    "name": "Agias Fylaxeos - Episkopou Lavrentiou 2"
  },
  {
    "description": "Agias Fylaxeos - Athinaidos Lanitou",
    "lat": 34.6807851830011,
    "lon": 33.0396159078497,
    "name": "Agias Fylaxeos - Athinaidos Lanitou"
  },
  {
    "description": "EMEL Bus Station Leontiou A´",
    "lat": 34.6792348518186,
    "lon": 33.0372354212458,
    "name": "EMEL Bus Station Leontiou A´"
  }
]