[
  {
    "description": "Theodorou Kolokotroni - 6th Pissouri",
    "lat": 34.6504012608917,
    "lon": 32.6961093087689,
    "name": "Theodorou Kolokotroni - 6th Pissouri"
  },
  {
    "description": "Theodorou Kolokotroni - 5th Pissouri 2",
    "lat": 34.6597831663962,
    "lon": 32.6974283597295,
    "name": "Theodorou Kolokotroni - 5th Pissouri 2"
  },
  {
    "description": "Pissouri Community Stadium 2",
    "lat": 34.6667109588667,
    "lon": 32.6982545127373,
    "name": "Pissouri Community Stadium 2"
  },
  {
    "description": "Apostolou Andreou - 3rd Pissouri 2",
    "lat": 34.6697739161451,
    "lon": 32.7006447029015,
    "name": "Apostolou Andreou - 3rd Pissouri 2"
  },
  {
    "description": "Apostolou Andreou - 2nd Pissouri 2",
    "lat": 34.6716616604386,
    "lon": 32.7018713328347,
    "name": "Apostolou Andreou - 2nd Pissouri 2"
  },
  {
    "description": "Pissouri Police Station 2",
    "lat": 34.6760011056743,
    "lon": 32.698952180794,
    "name": "Pissouri Police Station 2"
  }
]