[
  {
    "description": "Pano Platres Village Center 1",
    "lat": 34.8882239275258,
    "lon": 32.8645918592398,
    "name": "Pano Platres Village Center 1"
  },
  {
    "description": "Platres Hospital 2",
    "lat": 34.8823679254265,
    "lon": 32.8614170351251,
    "name": "Platres Hospital 2"
  },
  {
    "description": "Kato Platres Community Board 2",
    "lat": 34.8797383786404,
    "lon": 32.8421732279311,
    "name": "Kato Platres Community Board 2"
  },
  {
    "description": "Kato Platres Elementary School 2",
    "lat": 34.8777686446654,
    "lon": 32.8392006482811,
    "name": "Kato Platres Elementary School 2"
  },
  {
    "description": "Mandria 1",
    "lat": 34.8714392658631,
    "lon": 32.8332388562231,
    "name": "Mandria 1"
  },
  {
    "description": "Mandria - Koilani Road 2",
    "lat": 34.8645005697706,
    "lon": 32.8508783090817,
    "name": "Mandria - Koilani Road 2"
  },
  {
    "description": "Eleftherias - 1st Pera Pedi 2",
    "lat": 34.8613331492677,
    "lon": 32.8727208050555,
    "name": "Eleftherias - 1st Pera Pedi 2"
  },
  {
    "description": "Panagias Faneromenis Ave. - 2nd Pera Pedi 2",
    "lat": 34.8598839299814,
    "lon": 32.8752501959692,
    "name": "Panagias Faneromenis Ave. - 2nd Pera Pedi 2"
  },
  {
    "description": "Distrato Pera Pedi - Kouka 2",
    "lat": 34.8577557160122,
    "lon": 32.8843225024286,
    "name": "Distrato Pera Pedi - Kouka 2"
  },
  {
    "description": "Distrato Pelendriou 2",
    "lat": 34.8602780564943,
    "lon": 32.9137807561998,
    "name": "Distrato Pelendriou 2"
  },
  {
    "description": "Panagias Eleousis Ave. - 1st Trimiklini 2",
    "lat": 34.8538658489568,
    "lon": 32.9128576066831,
    "name": "Panagias Eleousis Ave. - 1st Trimiklini 2"
  },
  {
    "description": "Trimiklini Elementary School 2",
    "lat": 34.8496715899568,
    "lon": 32.9114071771834,
    "name": "Trimiklini Elementary School 2"
  },
  {
    "description": "Panagias Eleousas Church 2",
    "lat": 34.8460826500211,
    "lon": 32.9115313442624,
    "name": "Panagias Eleousas Church 2"
  },
  {
    "description": "Panagias Eleousis Ave. - 4th Trimiklini 2",
    "lat": 34.8442266452343,
    "lon": 32.9138084369825,
    "name": "Panagias Eleousis Ave. - 4th Trimiklini 2"
  },
  {
    "description": "Panagias Eleousis Ave. - 5th Trimiklini 2",
    "lat": 34.8393369016692,
    "lon": 32.9108057584725,
    "name": "Panagias Eleousis Ave. - 5th Trimiklini 2"
  },
  {
    "description": "Lemesos - Troodos Road - Laneia 2",
    "lat": 34.8230338483546,
    "lon": 32.9120808858004,
    "name": "Lemesos - Troodos Road - Laneia 2"
  },
  {
    "description": "Distrato Lanias - Doros 2",
    "lat": 34.8162825678357,
    "lon": 32.9163087052419,
    "name": "Distrato Lanias - Doros 2"
  },
  {
    "description": "Lemesos - Troodos Road - 1st  Alassa 2",
    "lat": 34.7619761176405,
    "lon": 32.9279900394783,
    "name": "Lemesos - Troodos Road - 1st  Alassa 2"
  },
  {
    "description": "Polemidia - Alassa Road 2",
    "lat": 34.744726858029,
    "lon": 32.9812091969898,
    "name": "Polemidia - Alassa Road 2"
  },
  {
    "description": "The Heritage 2",
    "lat": 34.7395422506546,
    "lon": 32.9859733233093,
    "name": "The Heritage 2"
  },
  {
    "description": "Lemesos - Troodos Road - Argyri Gavala 2",
    "lat": 34.7089274521079,
    "lon": 33.0004258868905,
    "name": "Lemesos - Troodos Road - Argyri Gavala 2"
  },
  {
    "description": "Lemesos - Troodos Road - Agias Anastasias",
    "lat": 34.7054194547858,
    "lon": 33.0032759147104,
    "name": "Lemesos - Troodos Road - Agias Anastasias"
  },
  {
    "description": "Giannou Kranidioti - Evagora Laniti",
    "lat": 34.7019024011066,
    "lon": 33.0054923845672,
    "name": "Giannou Kranidioti - Evagora Laniti"
  },
  {
    "description": "Giannou Kranidioti - Anoixeos",
    "lat": 34.6974110978269,
    "lon": 33.0112462235336,
    "name": "Giannou Kranidioti - Anoixeos"
  },
  {
    "description": "Nikou & Despoinas Pattichi - Sp. Kyprianou Ave. 1",
    "lat": 34.6917652918361,
    "lon": 33.0165406520715,
    "name": "Nikou & Despoinas Pattichi - Sp. Kyprianou Ave. 1"
  },
  {
    "description": "Nikou & Despoinas Pattichi - Epidamnou",
    "lat": 34.6882839198098,
    "lon": 33.0196514370874,
    "name": "Nikou & Despoinas Pattichi - Epidamnou"
  },
  {
    "description": "Nikou & Despoinas Pattichi - Annis Marias",
    "lat": 34.6874811173972,
    "lon": 33.0209067437208,
    "name": "Nikou & Despoinas Pattichi - Annis Marias"
  },
  {
    "description": "Nikou & Despoinas Pattichi - Dikaiarchou 2",
    "lat": 34.6863624089101,
    "lon": 33.023581179568,
    "name": "Nikou & Despoinas Pattichi - Dikaiarchou 2"
  },
  {
    "description": "Nikou & Despoinas Pattichi - Vas. Konstantinou 2",
    "lat": 34.6842149398374,
    "lon": 33.0291591222144,
    "name": "Nikou & Despoinas Pattichi - Vas. Konstantinou 2"
  },
  {
    "description": "Archiep. Leontiou A´ - Karatza 2",
    "lat": 34.6823114227731,
    "lon": 33.0320950419712,
    "name": "Archiep. Leontiou A´ - Karatza 2"
  },
  {
    "description": "Archiepiskopou Leontiou A´ - Filiou Zanettou",
    "lat": 34.6816798914142,
    "lon": 33.0331318750662,
    "name": "Archiepiskopou Leontiou A´ - Filiou Zanettou"
  },
  {
    "description": "EMEL Bus Station Leontiou A´",
    "lat": 34.6792348518186,
    "lon": 33.0372354212458,
    "name": "EMEL Bus Station Leontiou A´"
  }
]