[
  {
    "description": "Polis Chrysochous Bus Station",
    "lat": 35.0332381728798,
    "lon": 32.4252716391202,
    "name": "Polis Chrysochous Bus Station"
  },
  {
    "description": "Konstantinoupoleos - 1st Stop",
    "lat": 35.0304139356557,
    "lon": 32.4287007709454,
    "name": "Konstantinoupoleos - 1st Stop"
  },
  {
    "description": "Polis Chrysochous Police Station",
    "lat": 35.0293089250468,
    "lon": 32.4295744917945,
    "name": "Polis Chrysochous Police Station"
  },
  {
    "description": "Konstantinoupoleos - Theodoulou Niti",
    "lat": 35.0281341891246,
    "lon": 32.4309638994336,
    "name": "Konstantinoupoleos - Theodoulou Niti"
  },
  {
    "description": "1st Stop Chrysochou",
    "lat": 35.0055635818748,
    "lon": 32.440578078883,
    "name": "1st Stop Chrysochou"
  },
  {
    "description": "2nd Stop Skoulli",
    "lat": 34.9837070414997,
    "lon": 32.4527568676632,
    "name": "2nd Stop Skoulli"
  },
  {
    "description": "4th Stop Giolou",
    "lat": 34.9213954957741,
    "lon": 32.4769829172677,
    "name": "4th Stop Giolou"
  },
  {
    "description": "2nd Stop Giolou",
    "lat": 34.9201118835169,
    "lon": 32.4741664985861,
    "name": "2nd Stop Giolou"
  },
  {
    "description": "Distrato Stroumpi - Kathikas",
    "lat": 34.8922398672409,
    "lon": 32.4722975867896,
    "name": "Distrato Stroumpi - Kathikas"
  },
  {
    "description": "Eleftherias Ave. - 25 Martiou",
    "lat": 34.8903430170384,
    "lon": 32.4778254738778,
    "name": "Eleftherias Ave. - 25 Martiou"
  },
  {
    "description": "Eleftherias Ave. - Kato Lakkou",
    "lat": 34.8894875403912,
    "lon": 32.4802057026765,
    "name": "Eleftherias Ave. - Kato Lakkou"
  },
  {
    "description": "Eleftherias Ave. - Foti Pitta",
    "lat": 34.8879233090515,
    "lon": 32.4813318057974,
    "name": "Eleftherias Ave. - Foti Pitta"
  },
  {
    "description": "Eleftherias Ave. - Toxara",
    "lat": 34.8833846333698,
    "lon": 32.482771976348,
    "name": "Eleftherias Ave. - Toxara"
  },
  {
    "description": "2nd Stop Stroumpi",
    "lat": 34.8772072111481,
    "lon": 32.4826684256222,
    "name": "2nd Stop Stroumpi"
  },
  {
    "description": "Archiep. Makariou C` Ave. - Gerolakkou Ave.",
    "lat": 34.8409790005802,
    "lon": 32.4689937307068,
    "name": "Archiep. Makariou C` Ave. - Gerolakkou Ave."
  },
  {
    "description": "Mesogis Avenue - Georgiou Tsioupi",
    "lat": 34.8157159314405,
    "lon": 32.4516285467492,
    "name": "Mesogis Avenue - Georgiou Tsioupi"
  },
  {
    "description": "Mesogis Ave. - Panikou Chatzipanagi",
    "lat": 34.8126566007797,
    "lon": 32.4511021327807,
    "name": "Mesogis Ave. - Panikou Chatzipanagi"
  },
  {
    "description": "Mesogi Industrial Area - 4th Stop",
    "lat": 34.8108027705444,
    "lon": 32.4499445498068,
    "name": "Mesogi Industrial Area - 4th Stop"
  },
  {
    "description": "Mesogi Industrial Area - 2nd Stop",
    "lat": 34.8085410696061,
    "lon": 32.4483305428774,
    "name": "Mesogi Industrial Area - 2nd Stop"
  },
  {
    "description": "Mesogis Ave. - Grigori Afxentiou",
    "lat": 34.8041982487347,
    "lon": 32.4451671765174,
    "name": "Mesogis Ave. - Grigori Afxentiou"
  },
  {
    "description": "Mesogis Ave. - Agiou Dimitriou",
    "lat": 34.799474512754,
    "lon": 32.4415475654362,
    "name": "Mesogis Ave. - Agiou Dimitriou"
  },
  {
    "description": "Mesogis Ave. - Agias Anastasias",
    "lat": 34.7968683821903,
    "lon": 32.4395755924128,
    "name": "Mesogis Ave. - Agias Anastasias"
  },
  {
    "description": "Mesogis Ave. - Andrea Lardou",
    "lat": 34.7953820831052,
    "lon": 32.4379678055821,
    "name": "Mesogis Ave. - Andrea Lardou"
  },
  {
    "description": "Dimokratias Ave. - Mariou",
    "lat": 34.7863155843641,
    "lon": 32.4410569762503,
    "name": "Dimokratias Ave. - Mariou"
  },
  {
    "description": "Dimokratias Ave. - Andrea Theodosiou",
    "lat": 34.7788824240587,
    "lon": 32.4444186619216,
    "name": "Dimokratias Ave. - Andrea Theodosiou"
  },
  {
    "description": "Dimokratias Ave. - Thivon",
    "lat": 34.7722103112332,
    "lon": 32.4426492813995,
    "name": "Dimokratias Ave. - Thivon"
  },
  {
    "description": "A` High School - Ag. Theodoros 1",
    "lat": 34.7672189940113,
    "lon": 32.4436226157175,
    "name": "A` High School - Ag. Theodoros 1"
  },
  {
    "description": "Archiep. Makariou C` Ave. - Ellados",
    "lat": 34.7641888377087,
    "lon": 32.4475330556782,
    "name": "Archiep. Makariou C` Ave. - Ellados"
  },
  {
    "description": "Archiep. Makariou C` Ave. - Olympiados",
    "lat": 34.7617774012893,
    "lon": 32.4506960835969,
    "name": "Archiep. Makariou C` Ave. - Olympiados"
  },
  {
    "description": "Geroskipou Art Museum",
    "lat": 34.759926476827,
    "lon": 32.4541939641612,
    "name": "Geroskipou Art Museum"
  },
  {
    "description": "Archiep. Makariou C` Ave. - Al. Panagouli",
    "lat": 34.7589023723357,
    "lon": 32.4570853205206,
    "name": "Archiep. Makariou C` Ave. - Al. Panagouli"
  },
  {
    "description": "Archiep. Makariou C` Ave. - Ag. Sergiou 1",
    "lat": 34.756191246285,
    "lon": 32.4618669001097,
    "name": "Archiep. Makariou C` Ave. - Ag. Sergiou 1"
  },
  {
    "description": "Archiep. Makariou C` Ave. - Filias",
    "lat": 34.7528419525787,
    "lon": 32.4651117343522,
    "name": "Archiep. Makariou C` Ave. - Filias"
  },
  {
    "description": "American Academy 1",
    "lat": 34.7453419748184,
    "lon": 32.4740200977946,
    "name": "American Academy 1"
  },
  {
    "description": "1st Stop Acheleia",
    "lat": 34.740112978729,
    "lon": 32.4806186330465,
    "name": "1st Stop Acheleia"
  },
  {
    "description": "Ag. Georgios Church - Acheleia 1",
    "lat": 34.7386787516233,
    "lon": 32.4847677782398,
    "name": "Ag. Georgios Church - Acheleia 1"
  },
  {
    "description": "3rd Stop Acheleia",
    "lat": 34.7349074057902,
    "lon": 32.4950701441028,
    "name": "3rd Stop Acheleia"
  },
  {
    "description": "Archiep. Makariou C` Ave. - Anexartisias 1",
    "lat": 34.7287723221796,
    "lon": 32.5120266264025,
    "name": "Archiep. Makariou C` Ave. - Anexartisias 1"
  },
  {
    "description": "Timi - Airport Road - 1st Stop",
    "lat": 34.7264712873635,
    "lon": 32.5161687949069,
    "name": "Timi - Airport Road - 1st Stop"
  },
  {
    "description": "Timi - Airport Road - 3rd Stop",
    "lat": 34.711427542218,
    "lon": 32.5111129239462,
    "name": "Timi - Airport Road - 3rd Stop"
  },
  {
    "description": "Timi - Airport Road - 5th Stop",
    "lat": 34.7083760689602,
    "lon": 32.5035633449959,
    "name": "Timi - Airport Road - 5th Stop"
  },
  {
    "description": "Timi - Airport Road - 7th Stop",
    "lat": 34.7074931199689,
    "lon": 32.4971586733163,
    "name": "Timi - Airport Road - 7th Stop"
  },
  {
    "description": "Pafos Airport",
    "lat": 34.7114810421567,
    "lon": 32.4889879499105,
    "name": "Pafos Airport"
  }
]