[
  {
    "description": "Polis Chrysochous Bus Station",
    "lat": 35.0332381728798,
    "lon": 32.4252716391202,
    "name": "Polis Chrysochous Bus Station"
  },
  {
    "description": "Marion - Arsinoe Archaeological Museum",
    "lat": 35.0355783841778,
    "lon": 32.4262748378922,
    "name": "Marion - Arsinoe Archaeological Museum"
  },
  {
    "description": "Mariou Ave. - Salaminos",
    "lat": 35.0362170383334,
    "lon": 32.4297676828205,
    "name": "Mariou Ave. - Salaminos"
  },
  {
    "description": "Polis Chrysochous Technical School 1",
    "lat": 35.0383742767623,
    "lon": 32.434072370329,
    "name": "Polis Chrysochous Technical School 1"
  },
  {
    "description": "Mariou Ave. - 1st Stop",
    "lat": 35.0404937223756,
    "lon": 32.4380376612843,
    "name": "Mariou Ave. - 1st Stop"
  },
  {
    "description": "Mariou Ave. - 3rd Stop",
    "lat": 35.0519443243067,
    "lon": 32.4495606921791,
    "name": "Mariou Ave. - 3rd Stop"
  },
  {
    "description": "Mariou Ave. - 1st Stop",
    "lat": 35.0617219919294,
    "lon": 32.4622932995225,
    "name": "Mariou Ave. - 1st Stop"
  },
  {
    "description": "Argaka Seaside Road - 1st Stop",
    "lat": 35.0655328151193,
    "lon": 32.4676422832203,
    "name": "Argaka Seaside Road - 1st Stop"
  },
  {
    "description": "Argaka Seaside Road - 3rd Stop",
    "lat": 35.0674292657489,
    "lon": 32.4703499217916,
    "name": "Argaka Seaside Road - 3rd Stop"
  },
  {
    "description": "Argaka Seaside Road - 5th Stop",
    "lat": 35.0684724809922,
    "lon": 32.4717799497226,
    "name": "Argaka Seaside Road - 5th Stop"
  },
  {
    "description": "1st Stop Gialia",
    "lat": 35.1026881555698,
    "lon": 32.5026876762975,
    "name": "1st Stop Gialia"
  },
  {
    "description": "3rd Stop Gialia",
    "lat": 35.106618881986,
    "lon": 32.5047047443402,
    "name": "3rd Stop Gialia"
  },
  {
    "description": "1st Stop Agia Marina Chrysochous",
    "lat": 35.1081923978164,
    "lon": 32.5058144734,
    "name": "1st Stop Agia Marina Chrysochous"
  },
  {
    "description": "3rd Stop Agia Marina Chrysochous",
    "lat": 35.1112937351184,
    "lon": 32.5078916784197,
    "name": "3rd Stop Agia Marina Chrysochous"
  },
  {
    "description": "5th Stop Agia Marina Chrysochous",
    "lat": 35.1153235151472,
    "lon": 32.5098976367512,
    "name": "5th Stop Agia Marina Chrysochous"
  },
  {
    "description": "7th Stop Agia Marina Chrysochous",
    "lat": 35.1172492189783,
    "lon": 32.5111481427332,
    "name": "7th Stop Agia Marina Chrysochous"
  },
  {
    "description": "Agia Marina Church 1",
    "lat": 35.1197553019155,
    "lon": 32.5132183425455,
    "name": "Agia Marina Church 1"
  },
  {
    "description": "9th Stop Agia Marina Chrysochous",
    "lat": 35.1217974879252,
    "lon": 32.5142927044222,
    "name": "9th Stop Agia Marina Chrysochous"
  },
  {
    "description": "1st Stop Nea Dimmata",
    "lat": 35.137345521955,
    "lon": 32.5217195832357,
    "name": "1st Stop Nea Dimmata"
  },
  {
    "description": "1st Stop Pomos",
    "lat": 35.1579314980675,
    "lon": 32.5427131213147,
    "name": "1st Stop Pomos"
  },
  {
    "description": "3rd Stop Pomos",
    "lat": 35.1601210770196,
    "lon": 32.5446882508081,
    "name": "3rd Stop Pomos"
  },
  {
    "description": "5th Stop Pomos",
    "lat": 35.1670494683703,
    "lon": 32.5479658832283,
    "name": "5th Stop Pomos"
  },
  {
    "description": "7th Stop Pomos",
    "lat": 35.1709336911943,
    "lon": 32.5498112374555,
    "name": "7th Stop Pomos"
  },
  {
    "description": "1st Stop Pachyammos 1",
    "lat": 35.1711671751453,
    "lon": 32.5796577084854,
    "name": "1st Stop Pachyammos 1"
  },
  {
    "description": "Agios Rafail Church 1",
    "lat": 35.1710208242067,
    "lon": 32.5842816747944,
    "name": "Agios Rafail Church 1"
  }
]