[
  {
    "description": "Prodromos Vilalge Center 1",
    "lat": 34.9497919905832,
    "lon": 32.8326094109962,
    "name": "Prodromos Vilalge Center 1"
  },
  {
    "description": "1st Lemithou 2",
    "lat": 34.9510902069485,
    "lon": 32.8138128407625,
    "name": "1st Lemithou 2"
  },
  {
    "description": "Agios Georgios Kapourallis Church",
    "lat": 34.917608059341,
    "lon": 32.813757109257,
    "name": "Agios Georgios Kapourallis Church"
  },
  {
    "description": "Steliou Perikleous Ave. - 1st Foini 2",
    "lat": 34.8948448815412,
    "lon": 32.8302912234571,
    "name": "Steliou Perikleous Ave. - 1st Foini 2"
  },
  {
    "description": "Dimou Irodotou - 2nd Foini 1",
    "lat": 34.8942159181452,
    "lon": 32.8319232656711,
    "name": "Dimou Irodotou - 2nd Foini 1"
  },
  {
    "description": "Dimou Irodotou - 2nd Foini 2",
    "lat": 34.8937218962159,
    "lon": 32.8333361197208,
    "name": "Dimou Irodotou - 2nd Foini 2"
  },
  {
    "description": "Foini Youth Center 2",
    "lat": 34.8940968811258,
    "lon": 32.8372206979718,
    "name": "Foini Youth Center 2"
  },
  {
    "description": "Foini Village Center 2",
    "lat": 34.8924013591696,
    "lon": 32.8370598766092,
    "name": "Foini Village Center 2"
  },
  {
    "description": "Steliou Perikleous Ave. - 5th Foini 2",
    "lat": 34.8923497478796,
    "lon": 32.8389314668183,
    "name": "Steliou Perikleous Ave. - 5th Foini 2"
  },
  {
    "description": "Distrato Foini 2",
    "lat": 34.8879135238114,
    "lon": 32.8392574939076,
    "name": "Distrato Foini 2"
  },
  {
    "description": "Kato Platres Community Board 2",
    "lat": 34.8797383786404,
    "lon": 32.8421732279311,
    "name": "Kato Platres Community Board 2"
  }
]