[
  {
    "description": "Pascal English School 1",
    "lat": 34.9529781277762,
    "lon": 33.5683628787852,
    "name": "Pascal English School 1"
  },
  {
    "description": "Akropoleos Ave. - Stadiou Ave. 2",
    "lat": 34.942148810207,
    "lon": 33.5834659714127,
    "name": "Akropoleos Ave. - Stadiou Ave. 2"
  },
  {
    "description": "Akropoleos Ave. - Foti Pitta Ave.",
    "lat": 34.9394898794957,
    "lon": 33.5869622335633,
    "name": "Akropoleos Ave. - Foti Pitta Ave."
  },
  {
    "description": "Eleftherias Ave. - Archiep. Makariou C´ Ave.",
    "lat": 34.9362407999217,
    "lon": 33.5912643422732,
    "name": "Eleftherias Ave. - Archiep. Makariou C´ Ave."
  },
  {
    "description": "Eleftherias Ave. - Petraki Giallourou",
    "lat": 34.9312462540472,
    "lon": 33.598411276935,
    "name": "Eleftherias Ave. - Petraki Giallourou"
  },
  {
    "description": "G.S.Z. Stadium 2",
    "lat": 34.9254124078872,
    "lon": 33.6019819468802,
    "name": "G.S.Z. Stadium 2"
  },
  {
    "description": "Vergina Lyceum",
    "lat": 34.9211554385646,
    "lon": 33.5948127586923,
    "name": "Vergina Lyceum"
  },
  {
    "description": "Vergina High School 1",
    "lat": 34.9201435374831,
    "lon": 33.5970497716807,
    "name": "Vergina High School 1"
  },
  {
    "description": "Peiraia Park",
    "lat": 34.9191342938408,
    "lon": 33.5987393620505,
    "name": "Peiraia Park"
  },
  {
    "description": "K Cineplex",
    "lat": 34.9160574127341,
    "lon": 33.6009612200853,
    "name": "K Cineplex"
  },
  {
    "description": "Kamares - Old Aqueduct 1",
    "lat": 34.9124918370702,
    "lon": 33.5980562111298,
    "name": "Kamares - Old Aqueduct 1"
  },
  {
    "description": "Lemesou Ave. - Kastalias",
    "lat": 34.9113629980213,
    "lon": 33.5947202253753,
    "name": "Lemesou Ave. - Kastalias"
  },
  {
    "description": "Lemesou Ave. - Larisis",
    "lat": 34.9107339454151,
    "lon": 33.5905778640178,
    "name": "Lemesou Ave. - Larisis"
  },
  {
    "description": "Lemesou Ave. - Makedonias 1",
    "lat": 34.9094470293519,
    "lon": 33.584449577531,
    "name": "Lemesou Ave. - Makedonias 1"
  },
  {
    "description": "Lemesou Ave. - Charilaou Trikoupi 1",
    "lat": 34.908023555517,
    "lon": 33.5785285020001,
    "name": "Lemesou Ave. - Charilaou Trikoupi 1"
  },
  {
    "description": "Anexartisias Ave. - Highway Exit 1",
    "lat": 34.8664194405835,
    "lon": 33.4963780074301,
    "name": "Anexartisias Ave. - Highway Exit 1"
  },
  {
    "description": "Anexartisias Ave. - Eirinis Avenue 1",
    "lat": 34.8656027584722,
    "lon": 33.493200295883,
    "name": "Anexartisias Ave. - Eirinis Avenue 1"
  },
  {
    "description": "Anexartisias Ave. - Filias Ave. 1",
    "lat": 34.8645187329887,
    "lon": 33.489211459248,
    "name": "Anexartisias Ave. - Filias Ave. 1"
  },
  {
    "description": "Aglisides - Alethriko Road - 1st Stop",
    "lat": 34.8627795910665,
    "lon": 33.4798471734722,
    "name": "Aglisides - Alethriko Road - 1st Stop"
  },
  {
    "description": "Poseidonio 1",
    "lat": 34.8547993866909,
    "lon": 33.4611165301379,
    "name": "Poseidonio 1"
  },
  {
    "description": "Archiep. Makariou C´ Ave. - Petraki Kyprianou",
    "lat": 34.8540252137622,
    "lon": 33.4583774129158,
    "name": "Archiep. Makariou C´ Ave. - Petraki Kyprianou"
  },
  {
    "description": "Anglisides Community Board",
    "lat": 34.8534187806958,
    "lon": 33.4565800351531,
    "name": "Anglisides Community Board"
  },
  {
    "description": "Archiep. Makariou C´ Ave. - Grigori Afxentiou",
    "lat": 34.852687058946,
    "lon": 33.4545194578562,
    "name": "Archiep. Makariou C´ Ave. - Grigori Afxentiou"
  },
  {
    "description": "Archiep. Makariou C´ Ave. - Zalongou",
    "lat": 34.8521142337381,
    "lon": 33.4533677188999,
    "name": "Archiep. Makariou C´ Ave. - Zalongou"
  },
  {
    "description": "Menogeia 2",
    "lat": 34.8440887925185,
    "lon": 33.4410514010105,
    "name": "Menogeia 2"
  },
  {
    "description": "Kofinou Police Station 1",
    "lat": 34.8294293013152,
    "lon": 33.3927784550941,
    "name": "Kofinou Police Station 1"
  },
  {
    "description": "Kofinou Station",
    "lat": 34.826273309476,
    "lon": 33.3899202268482,
    "name": "Kofinou Station"
  }
]