[
  {
    "description": "Dionysios Solomos Square D",
    "lat": 35.1713757611785,
    "lon": 33.3582426177153,
    "name": "Dionysios Solomos Square D"
  },
  {
    "description": "Voulgaroktonou - Arsinois",
    "lat": 35.1722288311074,
    "lon": 33.359443364072,
    "name": "Voulgaroktonou - Arsinois"
  },
  {
    "description": "Artemidos",
    "lat": 35.1741015620522,
    "lon": 33.3603960537528,
    "name": "Artemidos"
  },
  {
    "description": "Nikokleous - Faneromeni",
    "lat": 35.1737183623535,
    "lon": 33.3618988818303,
    "name": "Nikokleous - Faneromeni"
  },
  {
    "description": "Phaneromeni High School",
    "lat": 35.1734329464991,
    "lon": 33.36386336865,
    "name": "Phaneromeni High School"
  },
  {
    "description": "Dimarcheias Square - Municipal Market",
    "lat": 35.1735569390634,
    "lon": 33.3646106881676,
    "name": "Dimarcheias Square - Municipal Market"
  },
  {
    "description": "New City Hall - Palia Ilektriki",
    "lat": 35.1732172443729,
    "lon": 33.3666188450817,
    "name": "New City Hall - Palia Ilektriki"
  },
  {
    "description": "Ermou",
    "lat": 35.1757923428901,
    "lon": 33.3678713908397,
    "name": "Ermou"
  },
  {
    "description": "Polyergastiria - Chrysaliniotissa",
    "lat": 35.1754882930407,
    "lon": 33.3700005536677,
    "name": "Polyergastiria - Chrysaliniotissa"
  },
  {
    "description": "Ave. Pouliou Kapota - Aigeos",
    "lat": 35.1760132998531,
    "lon": 33.3752084931748,
    "name": "Ave. Pouliou Kapota - Aigeos"
  },
  {
    "description": "Agiou Andreou - Evangelistria Church 1",
    "lat": 35.1766951245031,
    "lon": 33.3792201602236,
    "name": "Agiou Andreou - Evangelistria Church 1"
  },
  {
    "description": "Ave. Kyriakou Matsi - Aiakou",
    "lat": 35.1787092757016,
    "lon": 33.3781532240896,
    "name": "Ave. Kyriakou Matsi - Aiakou"
  },
  {
    "description": "Famagusta Gate",
    "lat": 35.1746819838648,
    "lon": 33.3712378683537,
    "name": "Famagusta Gate"
  },
  {
    "description": "Nicosia Multipurpose Centre",
    "lat": 35.1726826655242,
    "lon": 33.3704271123335,
    "name": "Nicosia Multipurpose Centre"
  },
  {
    "description": "Archbishopric",
    "lat": 35.1720097104614,
    "lon": 33.3693368758885,
    "name": "Archbishopric"
  },
  {
    "description": "Cyprus Theological School",
    "lat": 35.1724583198301,
    "lon": 33.3671096156073,
    "name": "Cyprus Theological School"
  },
  {
    "description": "Tillirias Square",
    "lat": 35.1723015247036,
    "lon": 33.3652859487615,
    "name": "Tillirias Square"
  },
  {
    "description": "Arxaggelou Mixail",
    "lat": 35.1711897889113,
    "lon": 33.3631615372237,
    "name": "Arxaggelou Mixail"
  },
  {
    "description": "City Hall - Post Office - Library",
    "lat": 35.1695611618946,
    "lon": 33.3620012559709,
    "name": "City Hall - Post Office - Library"
  },
  {
    "description": "Rigainis",
    "lat": 35.1707033262845,
    "lon": 33.3599857247178,
    "name": "Rigainis"
  },
  {
    "description": "Dionysios Solomos Square D",
    "lat": 35.1713757611785,
    "lon": 33.3582426177153,
    "name": "Dionysios Solomos Square D"
  }
]