[
  {
    "description": "Strovolos Station",
    "lat": 35.1410845462943,
    "lon": 33.3371537803846,
    "name": "Strovolos Station"
  },
  {
    "description": "Strovolos City Hall 2",
    "lat": 35.1433329628898,
    "lon": 33.3424653377379,
    "name": "Strovolos City Hall 2"
  },
  {
    "description": "Ave. Strovolou - Agias Marinas",
    "lat": 35.1463101046099,
    "lon": 33.3451235590251,
    "name": "Ave. Strovolou - Agias Marinas"
  },
  {
    "description": "Ave. Athalassas - 28 Oktovriou",
    "lat": 35.1496354730969,
    "lon": 33.3489581728747,
    "name": "Ave. Athalassas - 28 Oktovriou"
  },
  {
    "description": "Korytsas - Makarios Hospital 2",
    "lat": 35.1510908251726,
    "lon": 33.3570118860548,
    "name": "Korytsas - Makarios Hospital 2"
  },
  {
    "description": "Ifigenias - 1is Apriliou ",
    "lat": 35.1523262837681,
    "lon": 33.3630447628889,
    "name": "Ifigenias - 1is Apriliou "
  },
  {
    "description": "Ifigenias - Eleftheroupoleos",
    "lat": 35.1535514043773,
    "lon": 33.366442771447,
    "name": "Ifigenias - Eleftheroupoleos"
  },
  {
    "description": "Ifigenias - Stasinou",
    "lat": 35.1549198965525,
    "lon": 33.3701050351161,
    "name": "Ifigenias - Stasinou"
  },
  {
    "description": "Stasinou - John Kennedy",
    "lat": 35.1567007297077,
    "lon": 33.3715953464635,
    "name": "Stasinou - John Kennedy"
  },
  {
    "description": "Technical School Nicosia III",
    "lat": 35.1568467559872,
    "lon": 33.3739566285601,
    "name": "Technical School Nicosia III"
  },
  {
    "description": "Ave. Aglantzias - Archiepiskopo. Makariou C Ave.",
    "lat": 35.1552604460424,
    "lon": 33.3766393236877,
    "name": "Ave. Aglantzias - Archiepiskopo. Makariou C Ave."
  },
  {
    "description": "Ave. Aglantzias - H.H.I.C. 1",
    "lat": 35.1557253062661,
    "lon": 33.3808136631177,
    "name": "Ave. Aglantzias - H.H.I.C. 1"
  },
  {
    "description": "Ave. Aglantzias - Esperidon",
    "lat": 35.1571135537119,
    "lon": 33.383795617831,
    "name": "Ave. Aglantzias - Esperidon"
  },
  {
    "description": "Ave. Archiep. Makariou C - Agamemnonos",
    "lat": 35.1566561123225,
    "lon": 33.3858686115541,
    "name": "Ave. Archiep. Makariou C - Agamemnonos"
  },
  {
    "description": "Ave. Archiep. Makariou C - Archimidous",
    "lat": 35.1557800862427,
    "lon": 33.3891143979735,
    "name": "Ave. Archiep. Makariou C - Archimidous"
  },
  {
    "description": "Ave. Archiep. Makariou C - Georgiou Griva Digeni",
    "lat": 35.1547219970091,
    "lon": 33.3928642893115,
    "name": "Ave. Archiep. Makariou C - Georgiou Griva Digeni"
  },
  {
    "description": "Kefallinias - Theodorou Kolokotroni",
    "lat": 35.1531038894264,
    "lon": 33.3941081292063,
    "name": "Kefallinias - Theodorou Kolokotroni"
  },
  {
    "description": "Kefallinias - Mesolongiou 1",
    "lat": 35.1531109762785,
    "lon": 33.39192332085,
    "name": "Kefallinias - Mesolongiou 1"
  },
  {
    "description": "Kefallinias - Manis",
    "lat": 35.1533367252521,
    "lon": 33.3890259105514,
    "name": "Kefallinias - Manis"
  },
  {
    "description": "Kefallinias - Kentavrou",
    "lat": 35.1531390604262,
    "lon": 33.3859837549763,
    "name": "Kefallinias - Kentavrou"
  },
  {
    "description": "Kentavrou - Pelopos",
    "lat": 35.1519801878486,
    "lon": 33.3874494625744,
    "name": "Kentavrou - Pelopos"
  },
  {
    "description": "Promitheos - Kyrenias",
    "lat": 35.1489470273658,
    "lon": 33.3885109829973,
    "name": "Promitheos - Kyrenias"
  },
  {
    "description": "Ave. Kiryneias - Apostolos Andreas Church 2",
    "lat": 35.1489611480001,
    "lon": 33.3897296694374,
    "name": "Ave. Kiryneias - Apostolos Andreas Church 2"
  },
  {
    "description": "Ave. Kiryneias - Aglantzia Health Centre 2",
    "lat": 35.1496615708482,
    "lon": 33.3934218338861,
    "name": "Ave. Kiryneias - Aglantzia Health Centre 2"
  },
  {
    "description": "Karava - Morfou",
    "lat": 35.148973923642,
    "lon": 33.3941431086346,
    "name": "Karava - Morfou"
  },
  {
    "description": "Egnatias - Roumelis",
    "lat": 35.1475439766021,
    "lon": 33.3957500327421,
    "name": "Egnatias - Roumelis"
  },
  {
    "description": "Ave. Kiryneias - Valtetsiou",
    "lat": 35.1468801495634,
    "lon": 33.4001930179964,
    "name": "Ave. Kiryneias - Valtetsiou"
  },
  {
    "description": "Ave. Kiryneias - Athalassa Park 1",
    "lat": 35.1451131770706,
    "lon": 33.4027971393594,
    "name": "Ave. Kiryneias - Athalassa Park 1"
  },
  {
    "description": "Ave. Athalassis - UCY Student Halls 1",
    "lat": 35.1438813067368,
    "lon": 33.4044597053849,
    "name": "Ave. Athalassis - UCY Student Halls 1"
  },
  {
    "description": "University of Cyprus - Oceanography Center",
    "lat": 35.1443862687783,
    "lon": 33.4071517965074,
    "name": "University of Cyprus - Oceanography Center"
  },
  {
    "description": "University of Cyprus - North Campus Entrance",
    "lat": 35.1469279782314,
    "lon": 33.4154530487227,
    "name": "University of Cyprus - North Campus Entrance"
  }
]