[
  {
    "description": "British Base (near highway exit)",
    "lat": 35.0044219903979,
    "lon": 33.7271863299191,
    "name": "British Base (near highway exit)"
  },
  {
    "description": "Xylotymvou - Dasaki Achnas Road",
    "lat": 35.0087626668366,
    "lon": 33.7326168510379,
    "name": "Xylotymvou - Dasaki Achnas Road"
  },
  {
    "description": "Xylotymvou Public Kindergarden",
    "lat": 35.010274497604,
    "lon": 33.7346140491871,
    "name": "Xylotymvou Public Kindergarden"
  },
  {
    "description": "Xylotymvou City Hall 2",
    "lat": 35.0169418173936,
    "lon": 33.7429051216765,
    "name": "Xylotymvou City Hall 2"
  },
  {
    "description": "Archiep. Makariou C´ Ave. - Andrea Souroukli",
    "lat": 35.0194070834731,
    "lon": 33.7452621075565,
    "name": "Archiep. Makariou C´ Ave. - Andrea Souroukli"
  },
  {
    "description": "Archiep. Makariou C´ Ave. - Kostaki Pantelidi",
    "lat": 35.022400837628,
    "lon": 33.7481830769859,
    "name": "Archiep. Makariou C´ Ave. - Kostaki Pantelidi"
  },
  {
    "description": "Griva Digeni - Nikolaou Michail",
    "lat": 35.0338964880996,
    "lon": 33.7614213928747,
    "name": "Griva Digeni - Nikolaou Michail"
  },
  {
    "description": "Dasaki Achnas Stadium 2",
    "lat": 35.0329893090036,
    "lon": 33.7637261235598,
    "name": "Dasaki Achnas Stadium 2"
  },
  {
    "description": "Griva Digeni - Foti Pitta",
    "lat": 35.0319791657708,
    "lon": 33.7666218245848,
    "name": "Griva Digeni - Foti Pitta"
  },
  {
    "description": "Dasos Achnas Square 2",
    "lat": 35.0292431016362,
    "lon": 33.7700822772254,
    "name": "Dasos Achnas Square 2"
  },
  {
    "description": "Arch. Michail and Agia Marina Church 2",
    "lat": 35.0270480051101,
    "lon": 33.7735366343891,
    "name": "Arch. Michail and Agia Marina Church 2"
  },
  {
    "description": "Charalampou Mouskou - Achna Roundabout",
    "lat": 35.025882776957,
    "lon": 33.7794888829559,
    "name": "Charalampou Mouskou - Achna Roundabout"
  },
  {
    "description": "Achna Livestock Area 1",
    "lat": 35.0361062924448,
    "lon": 33.7853745133991,
    "name": "Achna Livestock Area 1"
  },
  {
    "description": "Technical and Agriculture School of Famagusta 2",
    "lat": 35.0459327411789,
    "lon": 33.8277475273236,
    "name": "Technical and Agriculture School of Famagusta 2"
  },
  {
    "description": "B´ Avgorou Elementary School 2",
    "lat": 35.042942871871,
    "lon": 33.8324647969131,
    "name": "B´ Avgorou Elementary School 2"
  },
  {
    "description": "Michail Karaoli - Petraki Giallourou 2",
    "lat": 35.0399526712081,
    "lon": 33.8372036469139,
    "name": "Michail Karaoli - Petraki Giallourou 2"
  },
  {
    "description": "Agios Georgios Church 2",
    "lat": 35.0375050492655,
    "lon": 33.8403909284225,
    "name": "Agios Georgios Church 2"
  },
  {
    "description": "Karyon - Panagioti Pafiti",
    "lat": 35.0358039832481,
    "lon": 33.8399349885632,
    "name": "Karyon - Panagioti Pafiti"
  },
  {
    "description": "A´ Avgorou Elementary School 2",
    "lat": 35.0331620208623,
    "lon": 33.8399298807102,
    "name": "A´ Avgorou Elementary School 2"
  },
  {
    "description": "Karyon - Xanthou Samara",
    "lat": 35.0317127287166,
    "lon": 33.8395752137723,
    "name": "Karyon - Xanthou Samara"
  },
  {
    "description": "1st Stop Avgorou Settlement",
    "lat": 35.0265419991143,
    "lon": 33.8388427052488,
    "name": "1st Stop Avgorou Settlement"
  },
  {
    "description": "2nd Stop Avgorou Settlement",
    "lat": 35.0255798052345,
    "lon": 33.8371557332918,
    "name": "2nd Stop Avgorou Settlement"
  },
  {
    "description": "Xanthou Samara - Salaminos",
    "lat": 35.0334175454486,
    "lon": 33.8420921585988,
    "name": "Xanthou Samara - Salaminos"
  },
  {
    "description": "Ammochostou - Dimitriou Chamatsou",
    "lat": 35.0366321781291,
    "lon": 33.8453263879954,
    "name": "Ammochostou - Dimitriou Chamatsou"
  },
  {
    "description": "Foti Pitta - Petrou Peskesi",
    "lat": 35.0375544957556,
    "lon": 33.9181758554259,
    "name": "Foti Pitta - Petrou Peskesi"
  },
  {
    "description": "Archiep. Makariou C´ - Arch. Michail",
    "lat": 35.0419016984575,
    "lon": 33.9239804936817,
    "name": "Archiep. Makariou C´ - Arch. Michail"
  },
  {
    "description": "Archiep. Makariou C´ - 2nd Stop",
    "lat": 35.0462301276684,
    "lon": 33.9286671696292,
    "name": "Archiep. Makariou C´ - 2nd Stop"
  },
  {
    "description": "Deryneia Municipal Swimming Pool 1",
    "lat": 35.0501971114634,
    "lon": 33.9346002303595,
    "name": "Deryneia Municipal Swimming Pool 1"
  },
  {
    "description": "Archiep. Makariou C´ - Alakatis",
    "lat": 35.0606665900818,
    "lon": 33.9541847085198,
    "name": "Archiep. Makariou C´ - Alakatis"
  },
  {
    "description": "Archiep. Makariou C´ - Promitheos",
    "lat": 35.0623908345308,
    "lon": 33.9596441623166,
    "name": "Archiep. Makariou C´ - Promitheos"
  },
  {
    "description": "Eleftherias - Ammochostou Ave.",
    "lat": 35.0627926359819,
    "lon": 33.9612828824197,
    "name": "Eleftherias - Ammochostou Ave."
  },
  {
    "description": "Eleftherias - Daidalou",
    "lat": 35.0611933274601,
    "lon": 33.9639728211771,
    "name": "Eleftherias - Daidalou"
  },
  {
    "description": "Famagusta General Hospital",
    "lat": 35.0616307747604,
    "lon": 33.9713035177178,
    "name": "Famagusta General Hospital"
  },
  {
    "description": "Eleftherias - Ippokratous",
    "lat": 35.0588054546306,
    "lon": 33.9671687629106,
    "name": "Eleftherias - Ippokratous"
  },
  {
    "description": "Eleftherias - Kyriakou Matsi",
    "lat": 35.0558775661069,
    "lon": 33.9713560020056,
    "name": "Eleftherias - Kyriakou Matsi"
  },
  {
    "description": "Griva Digeni Ave. - Thessalonikis",
    "lat": 35.0496928169388,
    "lon": 33.9768638464953,
    "name": "Griva Digeni Ave. - Thessalonikis"
  },
  {
    "description": "1 Apriliou Ave. - Georgiou Griva Digeni Ave.",
    "lat": 35.0444999288386,
    "lon": 33.9778765009908,
    "name": "1 Apriliou Ave. - Georgiou Griva Digeni Ave."
  },
  {
    "description": "Xenion Education 2",
    "lat": 35.0416139942632,
    "lon": 33.9779407832524,
    "name": "Xenion Education 2"
  },
  {
    "description": "1 Apriliou Ave. - Tasou Markou 2",
    "lat": 35.0408472754537,
    "lon": 33.9779755007448,
    "name": "1 Apriliou Ave. - Tasou Markou 2"
  },
  {
    "description": "Paralimni Square Bus Station",
    "lat": 35.0394760084475,
    "lon": 33.983638211908,
    "name": "Paralimni Square Bus Station"
  }
]