[
  {
    "description": "Zygi Elementary School",
    "lat": 34.728936246342,
    "lon": 33.3354059718492,
    "name": "Zygi Elementary School"
  },
  {
    "description": "Konstantinoupoleos - Agiou Kyriakou 2",
    "lat": 34.7309371499078,
    "lon": 33.335785437035,
    "name": "Konstantinoupoleos - Agiou Kyriakou 2"
  },
  {
    "description": "Oktagono 2",
    "lat": 34.7507300203995,
    "lon": 33.3159918348286,
    "name": "Oktagono 2"
  },
  {
    "description": "Spyrou Kyprianou Ave. - Christaki Kranou",
    "lat": 34.7059036356265,
    "lon": 33.0853380642205,
    "name": "Spyrou Kyprianou Ave. - Christaki Kranou"
  },
  {
    "description": "Spyrou Kyprianou Ave. - Methanon",
    "lat": 34.7040479317145,
    "lon": 33.0824643219773,
    "name": "Spyrou Kyprianou Ave. - Methanon"
  },
  {
    "description": "Spyrou Kyprianou Ave. - Akarnanias",
    "lat": 34.7025346026578,
    "lon": 33.0799513739199,
    "name": "Spyrou Kyprianou Ave. - Akarnanias"
  },
  {
    "description": "Kolonakiou - Pelasgon",
    "lat": 34.7007693754548,
    "lon": 33.0764009680701,
    "name": "Kolonakiou - Pelasgon"
  },
  {
    "description": "Health Centre 1",
    "lat": 34.6992646392521,
    "lon": 33.0743795878281,
    "name": "Health Centre 1"
  },
  {
    "description": "Kolonakiou - Andrea kai Annas Poupoutsi",
    "lat": 34.6979314157932,
    "lon": 33.072009030751,
    "name": "Kolonakiou - Andrea kai Annas Poupoutsi"
  },
  {
    "description": "Linopetra High School 1",
    "lat": 34.6956343997182,
    "lon": 33.0675632411505,
    "name": "Linopetra High School 1"
  },
  {
    "description": "Griva Digeni - Stratigou Timagia",
    "lat": 34.693201300988,
    "lon": 33.0643622582278,
    "name": "Griva Digeni - Stratigou Timagia"
  },
  {
    "description": "Griva Digeni - Griva Digeni Hideout 1",
    "lat": 34.6916422609963,
    "lon": 33.0623303213213,
    "name": "Griva Digeni - Griva Digeni Hideout 1"
  },
  {
    "description": "Agios Nikolaos Church 1",
    "lat": 34.6887681600871,
    "lon": 33.0570004139943,
    "name": "Agios Nikolaos Church 1"
  },
  {
    "description": "Griva Digeni - Archiep. Makariou C´ Ave.",
    "lat": 34.6872090893536,
    "lon": 33.054761294322,
    "name": "Griva Digeni - Archiep. Makariou C´ Ave."
  },
  {
    "description": "Zoo - PASHDY",
    "lat": 34.6846393759327,
    "lon": 33.0538862435104,
    "name": "Zoo - PASHDY"
  },
  {
    "description": "Gladstonos - Aristodimou Pilavaki",
    "lat": 34.6837388024438,
    "lon": 33.0510581915224,
    "name": "Gladstonos - Aristodimou Pilavaki"
  },
  {
    "description": "B´ Elementary School 2",
    "lat": 34.6828563923632,
    "lon": 33.0477389574681,
    "name": "B´ Elementary School 2"
  },
  {
    "description": "Gladstonos - Zinonos",
    "lat": 34.681170955881,
    "lon": 33.0453472700374,
    "name": "Gladstonos - Zinonos"
  },
  {
    "description": "Gladstonos - Vragadinou",
    "lat": 34.6792603888362,
    "lon": 33.0419076004369,
    "name": "Gladstonos - Vragadinou"
  },
  {
    "description": "EMEL Bus Station Leontiou A´",
    "lat": 34.6792348518186,
    "lon": 33.0372354212458,
    "name": "EMEL Bus Station Leontiou A´"
  }
]