[
  {
    "lat": 34.679235,
    "lng": 33.037235,
    "name": "EMEL Bus Station Leontiou A´"
  },
  {
    "lat": 34.680741,
    "lng": 33.035249,
    "name": "Dodekanisou - Archiep. Leontiou A´ 1"
  },
  {
    "lat": 34.683393,
    "lng": 33.03453,
    "name": "Dodekanisou - Katholiki High School 1"
  },
  {
    "lat": 34.685178,
    "lng": 33.035022,
    "name": "Ioanni Tsirou - Post Office 1"
  },
  {
    "lat": 34.686305,
    "lng": 33.035514,
    "name": "Archiep. Makariou C´ Ave. - Ioanni Tsirou"
  },
  {
    "lat": 34.684223,
    "lng": 33.031615,
    "name": "Archiep. Makariou C´ Ave. - Larnakos"
  },
  {
    "lat": 34.681979,
    "lng": 33.028765,
    "name": "Archiep. Makariou C´ Ave. - Fire Station 1"
  },
  {
    "lat": 34.678427,
    "lng": 33.024288,
    "name": "Archiep. Makariou C´ Ave. - Nikolaou Skoufa"
  },
  {
    "lat": 34.676705,
    "lng": 33.02205,
    "name": "Archiep. Makariou C´ Ave. - Souez 1"
  },
  {
    "lat": 34.675587,
    "lng": 33.02062,
    "name": "Archiep. Makariou C´ Ave. - Agios Ioannis Church"
  },
  {
    "lat": 34.674054,
    "lng": 33.018666,
    "name": "Agios Ioannis Police Station 1"
  },
  {
    "lat": 34.673883,
    "lng": 33.016373,
    "name": "Pafou - Vasileos Pavlou A´ 1"
  },
  {
    "lat": 34.674812,
    "lng": 33.01299,
    "name": "Pafou - Omonoias Ave."
  },
  {
    "lat": 34.675777,
    "lng": 33.009137,
    "name": "Pafou - Evgeniou Voulgareos"
  },
  {
    "lat": 34.675976,
    "lng": 33.006615,
    "name": "Pafou - Miltonos"
  },
  {
    "lat": 34.67576,
    "lng": 33.003559,
    "name": "Pafou - Apostolou Vakalopoulou"
  },
  {
    "lat": 34.675976,
    "lng": 33.00131,
    "name": "Pafou - Sotirias Skipi"
  },
  {
    "lat": 34.677347,
    "lng": 32.997882,
    "name": "Pafou - 28th Elementary School 1"
  },
  {
    "lat": 34.678988,
    "lng": 32.994455,
    "name": "Pafou - Monovolikos 1"
  },
  {
    "lat": 34.680998,
    "lng": 32.988363,
    "name": "Ilia Kannaourou - Ymittou"
  },
  {
    "lat": 34.680782,
    "lng": 32.983778,
    "name": "Ilia Kannaourou - Dimitriou Papanikoli"
  },
  {
    "lat": 34.681286,
    "lng": 32.978604,
    "name": "Ilia Kannaourou - Danais"
  },
  {
    "lat": 34.683738,
    "lng": 32.973079,
    "name": "Petraki Giallourou - Ilia Kannaourou"
  },
  {
    "lat": 34.686723,
    "lng": 32.973395,
    "name": "Petraki Giallourou - Trion Ierarchon"
  },
  {
    "lat": 34.687146,
    "lng": 32.972423,
    "name": "Trion Ierarchon - Keryneias"
  },
  {
    "lat": 34.687073,
    "lng": 32.967608,
    "name": "Trion Ierarchon - Troodous"
  },
  {
    "lat": 34.686738,
    "lng": 32.963809,
    "name": "Trion Ierarchon - Ifaistou"
  },
  {
    "lat": 34.687161,
    "lng": 32.96215,
    "name": "Archiep. Makariou C´ - Griva Digeni"
  },
  {
    "lat": 34.688459,
    "lng": 32.960424,
    "name": "Archiep. Makariou C´ - Apostolou Varnava"
  },
  {
    "lat": 34.688946,
    "lng": 32.959048,
    "name": "Archiep. Makariou C´ - Chrysopolitissis"
  },
  {
    "lat": 34.689468,
    "lng": 32.95622,
    "name": "Ilia Venezi - Archiep. Makariou C´ 1"
  },
  {
    "lat": 34.683172,
    "lng": 32.95332,
    "name": "Agiou Georgiou Ave. - Iakovou Patatsou"
  },
  {
    "lat": 34.676874,
    "lng": 32.943106,
    "name": "Ammochostou - Ethnikis Antistaseos"
  },
  {
    "lat": 34.678497,
    "lng": 32.942603,
    "name": "Ammochostou - Ag. Foteini & Ap. Andreas Church 1"
  },
  {
    "lat": 34.680336,
    "lng": 32.941859,
    "name": "Ammochostou - Agiou Memnonos"
  },
  {
    "lat": 34.682184,
    "lng": 32.940515,
    "name": "Kolossi Elementary School B´"
  },
  {
    "lat": 34.683274,
    "lng": 32.939117,
    "name": "Dimitri Liperti - Davlou"
  },
  {
    "lat": 34.682886,
    "lng": 32.937611,
    "name": "Dimitri Liperti - Griva Digeni"
  },
  {
    "lat": 34.681253,
    "lng": 32.936662,
    "name": "Griva Digeni - Vasili Michailidi"
  },
  {
    "lat": 34.673037,
    "lng": 32.935217,
    "name": "Griva Digeni - Thessalonikis"
  },
  {
    "lat": 34.670736,
    "lng": 32.93297,
    "name": "Kolossi Elementary School A´ 1"
  },
  {
    "lat": 34.674247,
    "lng": 32.922794,
    "name": "Archiep. Makariou C - 25 Martiou"
  },
  {
    "lat": 34.678394,
    "lng": 32.920792,
    "name": "Agios Charalampos Church 1"
  },
  {
    "lat": 34.682354,
    "lng": 32.922055,
    "name": "Ellados - Enoseos 1"
  },
  {
    "lat": 34.685917,
    "lng": 32.924191,
    "name": "Ellados - Irlandias 1"
  },
  {
    "lat": 34.687613,
    "lng": 32.92443,
    "name": "Gallias - Club Aphrodite"
  },
  {
    "lat": 34.685719,
    "lng": 32.924344,
    "name": "Ellados - Irlandias 2"
  },
  {
    "lat": 34.682309,
    "lng": 32.922153,
    "name": "Ellados - Enoseos 2"
  },
  {
    "lat": 34.681305,
    "lng": 32.917394,
    "name": "Ellados - Nikou Georgiou"
  },
  {
    "lat": 34.683207,
    "lng": 32.916104,
    "name": "Kyprou - Salaminos 1"
  },
  {
    "lat": 34.685759,
    "lng": 32.916309,
    "name": "Kyprou - Dimokratias 1"
  },
  {
    "lat": 34.690736,
    "lng": 32.915682,
    "name": "Kyprou - Keryneias 1"
  },
  {
    "lat": 34.692702,
    "lng": 32.91544,
    "name": "Kyprou - Ammochostou 1"
  },
  {
    "lat": 34.692571,
    "lng": 32.921412,
    "name": "Dimokratias - Kolonakiou"
  }
]