[
  {
    "name": "General Hospital 1",
    "lat": 34.705283,
    "lng": 32.983489
  },
  {
    "name": "Grigori Afxentiou - Dimokratias",
    "lat": 34.705455,
    "lng": 32.986754
  },
  {
    "name": "Karmiotissa Stadium 1",
    "lat": 34.703228,
    "lng": 32.988873
  },
  {
    "name": "Grigori Afxentiou - 103 Street 2",
    "lat": 34.701028,
    "lng": 32.991778
  },
  {
    "name": "Grigori Afxentiou - 100 Street 1",
    "lat": 34.700171,
    "lng": 32.992837
  },
  {
    "name": "Synergatismou - 55 Street 2",
    "lat": 34.697673,
    "lng": 32.991538
  },
  {
    "name": "Steliou Kazantzidi - Konstantinou Avgeraki 2",
    "lat": 34.696112,
    "lng": 32.981701
  },
  {
    "name": "Pera Kampou 2",
    "lat": 34.695192,
    "lng": 32.985511
  },
  {
    "name": "55 Street - 63 Street",
    "lat": 34.6966,
    "lng": 32.991778
  },
  {
    "name": "Agios Nikolaos Church 1",
    "lat": 34.693272,
    "lng": 32.991986
  },
  {
    "name": "22 Street - 1 Street",
    "lat": 34.691595,
    "lng": 32.992641
  },
  {
    "name": "10 Street - Andrea Lontou",
    "lat": 34.690098,
    "lng": 32.997653
  },
  {
    "name": "Polemidia Lyceum 2",
    "lat": 34.683344,
    "lng": 32.996921
  },
  {
    "name": "Melinas Merkouri - Polemidia Post Office 2",
    "lat": 34.6809,
    "lng": 32.996681
  },
  {
    "name": "35 Street - 49 Street 2",
    "lat": 34.680539,
    "lng": 32.998788
  },
  {
    "name": "35 Street - Panagioti Anagnostopoulou 2",
    "lat": 34.681197,
    "lng": 33.001223
  },
  {
    "name": "Adamantiou Adamantiou - Dimitriou Kissonergi",
    "lat": 34.680728,
    "lng": 33.003209
  },
  {
    "name": "Adamantiou Adamantiou - Evgeniou Voulgareos 2",
    "lat": 34.681306,
    "lng": 33.005764
  },
  {
    "name": "Evgeniou Voulgareos - Defkalionos",
    "lat": 34.682406,
    "lng": 33.005688
  },
  {
    "name": "Evgeniou Voulgareos - Athinokleous 2",
    "lat": 34.685003,
    "lng": 33.004738
  },
  {
    "name": "Marinou Geroulanou - Mpizaniou",
    "lat": 34.685589,
    "lng": 33.005677
  },
  {
    "name": "Agios Ioannis High School 2",
    "lat": 34.682703,
    "lng": 33.010043
  },
  {
    "name": "Marinou Geroulanou - Agaristis 2",
    "lat": 34.680953,
    "lng": 33.013405
  },
  {
    "name": "Georgiou Averof - Georgiou Fragkoudi",
    "lat": 34.680132,
    "lng": 33.014639
  },
  {
    "name": "Parmenidou 2",
    "lat": 34.67988,
    "lng": 33.017226
  },
  {
    "name": "Rinou - Vasileos Evagorou",
    "lat": 34.681169,
    "lng": 33.016975
  },
  {
    "name": "Charilaou Trikoupi 1",
    "lat": 34.683117,
    "lng": 33.018056
  },
  {
    "name": "Apostolou Varnava - Romis",
    "lat": 34.682359,
    "lng": 33.021157
  },
  {
    "name": "Apostolou Varnava - Agias Varvaras 2",
    "lat": 34.68133,
    "lng": 33.023907
  },
  {
    "name": "Apostolou Varnava - Romanou Melodou",
    "lat": 34.680717,
    "lng": 33.024759
  },
  {
    "name": "Archiep. Makariou C´ Ave. - Fire Station 2",
    "lat": 34.681519,
    "lng": 33.02799
  },
  {
    "name": "Archiep. Leontiou A´ - Karatza 2",
    "lat": 34.682311,
    "lng": 33.032095
  },
  {
    "name": "Archiepiskopou Leontiou A´ - Filiou Zanettou",
    "lat": 34.68168,
    "lng": 33.033132
  },
  {
    "name": "EMEL Bus Station Leontiou A´",
    "lat": 34.679235,
    "lng": 33.037235
  }
]